,city,country_code,latitude,longitude,name,geopoint,geoquery,category_code,founded_year,founded_year_bins,number_of_employees,number_of_employees_bins,segment,type
0,San Francisco,USA,37.764726,-122.394523,Digg,"[-122.394523, 37.764726]","{'type': 'Point', 'coordinates': [-122.394523, 37.764726]}",news,2004,q1,60,q4,others,mid company
1,West Hollywood,USA,34.090368,-118.393064,Geni,"[-118.393064, 34.090368]","{'type': 'Point', 'coordinates': [-118.393064, 34.090368]}",web,2006,q2,18,q3,tech,small company
2,San Francisco,USA,37.789634,-122.404052,Scribd,"[-122.404052, 37.789634]","{'type': 'Point', 'coordinates': [-122.404052, 37.789634]}",news,2007,q2,50,q4,others,mid company
3,San Francisco,USA,37.7768052,-122.4169244,Twitter,"[-122.4169244, 37.7768052]","{'type': 'Point', 'coordinates': [-122.4169244, 37.7768052]}",social,2006,q2,1300,q4,others,big company
4,Menlo Park,USA,37.41605,-122.151801,Facebook,"[-122.151801, 37.41605]","{'type': 'Point', 'coordinates': [-122.151801, 37.41605]}",social,2004,q1,5299,q4,others,big company
5,Dublin,IRL,53.344104,-6.267494,Facebook,"[-6.267494, 53.344104]","{'type': 'Point', 'coordinates': [-6.267494, 53.344104]}",social,2004,q1,5299,q4,others,big company
6,New York,USA,40.7557162,-73.9792469,Facebook,"[-73.9792469, 40.7557162]","{'type': 'Point', 'coordinates': [-73.9792469, 40.7557162]}",social,2004,q1,5299,q4,others,big company
7,Sunnyvale,USA,37.387845,-122.055197,Plaxo,"[-122.055197, 37.387845]","{'type': 'Point', 'coordinates': [-122.055197, 37.387845]}",web,2002,q1,50,q4,tech,mid company
8,New York City,USA,40.757929,-73.985506,MeetMoi,"[-73.985506, 40.757929]","{'type': 'Point', 'coordinates': [-73.985506, 40.757929]}",social,2007,q2,15,q3,others,small company
9,San Jose,USA,37.295005,-121.930035,eBay,"[-121.930035, 37.295005]","{'type': 'Point', 'coordinates': [-121.930035, 37.295005]}",web,1995,q1,15000,q4,tech,big company
10,San Francisco,USA,37.778613,-122.395289,Powerset,"[-122.395289, 37.778613]","{'type': 'Point', 'coordinates': [-122.395289, 37.778613]}",search,2006,q2,60,q4,tech,mid company
11,San Francisco,USA,37.779558,-122.393041,Technorati,"[-122.393041, 37.779558]","{'type': 'Point', 'coordinates': [-122.393041, 37.779558]}",advertising,2002,q1,35,q4,others,mid company
12,Culver City,USA,34.017606,-118.487267,Mahalo,"[-118.487267, 34.017606]","{'type': 'Point', 'coordinates': [-118.487267, 34.017606]}",web,2007,q2,40,q4,tech,mid company
13,San Francisco,USA,37.788482,-122.409173,Kyte,"[-122.409173, 37.788482]","{'type': 'Point', 'coordinates': [-122.409173, 37.788482]}",games_video,2006,q2,40,q4,gaming,mid company
14,New York,USA,37.480999,-122.173887,Jingle Networks,"[-122.173887, 37.480999]","{'type': 'Point', 'coordinates': [-122.173887, 37.480999]}",mobile,2005,q2,35,q4,tech,mid company
15,New York,USA,40.72604,-73.995722,Meetup,"[-73.995722, 40.72604]","{'type': 'Point', 'coordinates': [-73.995722, 40.72604]}",web,2002,q1,75,q4,tech,mid company
16,Tempe,USA,33.429859,-111.938739,LifeLock,"[-111.938739, 33.429859]","{'type': 'Point', 'coordinates': [-111.938739, 33.429859]}",security,2005,q2,644,q4,others,big company
17,Mountain View,USA,37.390056,-122.067692,SmugMug,"[-122.067692, 37.390056]","{'type': 'Point', 'coordinates': [-122.067692, 37.390056]}",photo_video,2002,q1,62,q4,others,mid company
18,San Jose,USA,37.408802,-121.95377,Cisco,"[-121.95377, 37.408802]","{'type': 'Point', 'coordinates': [-121.95377, 37.408802]}",network_hosting,1984,q1,63000,q4,others,big company
19,Mountain View,USA,37.4233896,-122.0899512,Jajah,"[-122.0899512, 37.4233896]","{'type': 'Point', 'coordinates': [-122.0899512, 37.4233896]}",mobile,2005,q2,110,q4,tech,mid company
20,Sunnyvale,USA,37.418531,-122.025485,Yahoo!,"[-122.025485, 37.418531]","{'type': 'Point', 'coordinates': [-122.025485, 37.418531]}",web,1994,q1,13600,q4,tech,big company
21,New York,USA,40.726155,-73.995625,Livestream,"[-73.995625, 40.726155]","{'type': 'Point', 'coordinates': [-73.995625, 40.726155]}",games_video,2007,q2,120,q4,gaming,mid company
22,New York,USA,40.722655,-73.99873,Pando Networks,"[-73.99873, 40.722655]","{'type': 'Point', 'coordinates': [-73.99873, 40.722655]}",games_video,2004,q1,23,q3,gaming,small company
23,NYC,USA,40.801358,-74.3372,AdaptiveBlue,"[-74.3372, 40.801358]","{'type': 'Point', 'coordinates': [-74.3372, 40.801358]}",games_video,2007,q2,15,q3,gaming,small company
24,Stamford,USA,41.049051,-73.563878,Ikan,"[-73.563878, 41.049051]","{'type': 'Point', 'coordinates': [-73.563878, 41.049051]}",web,2003,q1,5,q2,tech,small company
25,Fremont,USA,37.465645,-121.932202,GrandCentral,"[-121.932202, 37.465645]","{'type': 'Point', 'coordinates': [-121.932202, 37.465645]}",mobile,2006,q2,3,q1,tech,small company
26,San Francisco,USA,37.762541,-122.397224,Pownce,"[-122.397224, 37.762541]","{'type': 'Point', 'coordinates': [-122.397224, 37.762541]}",web,2007,q2,6,q2,tech,small company
27,SCHUYLER LAKE,USA,37.488336,-122.217964,Spock,"[-122.217964, 37.488336]","{'type': 'Point', 'coordinates': [-122.217964, 37.488336]}",search,2006,q2,30,q4,tech,mid company
28,Santa Clara,USA,37.384949,-121.96761,Intel,"[-121.96761, 37.384949]","{'type': 'Point', 'coordinates': [-121.96761, 37.384949]}",hardware,1968,q1,86300,q4,others,big company
29,Encino,USA,37.269175,-119.306607,SodaHead,"[-119.306607, 37.269175]","{'type': 'Point', 'coordinates': [-119.306607, 37.269175]}",web,2007,q2,25,q3,tech,small company
30,Agoura Hills,USA,34.155211,-118.756618,ClipBlast!,"[-118.756618, 34.155211]","{'type': 'Point', 'coordinates': [-118.756618, 34.155211]}",web,2005,q2,15,q3,tech,small company
31,San Francisco,USA,37.786183,-122.402195,Yelp,"[-122.402195, 37.786183]","{'type': 'Point', 'coordinates': [-122.402195, 37.786183]}",search,2004,q1,800,q4,tech,big company
32,Amsterdam,NLD,52.3745228,4.8948623,Wakoopa,"[4.8948623, 52.3745228]","{'type': 'Point', 'coordinates': [4.8948623, 52.3745228]}",web,2007,q2,8,q2,tech,small company
33,Southampton,GBR,50.9444598,-1.3610845,Zamzar,"[-1.3610845, 50.9444598]","{'type': 'Point', 'coordinates': [-1.3610845, 50.9444598]}",web,2006,q2,2,q1,tech,small company
34,Santa Clara,USA,37.374998,-121.977853,SideStep,"[-121.977853, 37.374998]","{'type': 'Point', 'coordinates': [-121.977853, 37.374998]}",web,1999,q1,75,q4,tech,mid company
35,Seattle,USA,47.620982,-122.359397,Farecast,"[-122.359397, 47.620982]","{'type': 'Point', 'coordinates': [-122.359397, 47.620982]}",search,2003,q1,26,q4,tech,mid company
36,New York,USA,40.7516611,-73.9843328,KickApps,"[-73.9843328, 40.7516611]","{'type': 'Point', 'coordinates': [-73.9843328, 40.7516611]}",enterprise,2004,q1,72,q4,others,mid company
37,Venice,USA,33.991101,-118.468707,KickApps,"[-118.468707, 33.991101]","{'type': 'Point', 'coordinates': [-118.468707, 33.991101]}",enterprise,2004,q1,72,q4,others,mid company
38,San Francisco,USA,37.7891086,-122.4016144,KickApps,"[-122.4016144, 37.7891086]","{'type': 'Point', 'coordinates': [-122.4016144, 37.7891086]}",enterprise,2004,q1,72,q4,others,mid company
39,London,GBR,51.5094731,-0.1356235,KickApps,"[-0.1356235, 51.5094731]","{'type': 'Point', 'coordinates': [-0.1356235, 51.5094731]}",enterprise,2004,q1,72,q4,others,mid company
40,Santa Monica,USA,34.0126379,-118.495155,ConVerdge,"[-118.495155, 34.0126379]","{'type': 'Point', 'coordinates': [-118.495155, 34.0126379]}",enterprise,2006,q2,25,q3,others,small company
41,Redwood City,USA,37.484619,-122.206893,RockYou,"[-122.206893, 37.484619]","{'type': 'Point', 'coordinates': [-122.206893, 37.484619]}",games_video,2005,q2,106,q4,gaming,mid company
42,San Francisco,USA,37.758113,-122.414689,Pageflakes,"[-122.414689, 37.758113]","{'type': 'Point', 'coordinates': [-122.414689, 37.758113]}",web,2006,q2,20,q3,tech,small company
43,Mill Valley,USA,37.90077,-122.511687,CrowdVine,"[-122.511687, 37.90077]","{'type': 'Point', 'coordinates': [-122.511687, 37.90077]}",web,2007,q2,10,q3,tech,small company
44,Sunnyvale,USA,37.418531,-122.025485,Flickr,"[-122.025485, 37.418531]","{'type': 'Point', 'coordinates': [-122.025485, 37.418531]}",web,2004,q1,36,q4,tech,mid company
45,Paris,FRA,48.866323,2.381514,WatZatSong,"[2.381514, 48.866323]","{'type': 'Point', 'coordinates': [2.381514, 48.866323]}",web,2006,q2,3,q1,tech,small company
46,Seattle,USA,47.618599,-122.358484,Newsvine,"[-122.358484, 47.618599]","{'type': 'Point', 'coordinates': [-122.358484, 47.618599]}",web,2005,q2,8,q2,tech,small company
47,Palo Alto,USA,37.437328,-122.159928,Terabitz,"[-122.159928, 37.437328]","{'type': 'Point', 'coordinates': [-122.159928, 37.437328]}",web,2006,q2,12,q3,tech,small company
48,Luxembourg,LUX,49.6026778,6.1329985,Jamendo,"[6.1329985, 49.6026778]","{'type': 'Point', 'coordinates': [6.1329985, 49.6026778]}",other,2005,q2,20,q3,others,small company
49,Mountain View,USA,37.423258,-122.073635,LinkedIn,"[-122.073635, 37.423258]","{'type': 'Point', 'coordinates': [-122.073635, 37.423258]}",social,2003,q1,4800,q4,others,big company
50,San Francisco,USA,37.779507,-122.39071,Eventbrite,"[-122.39071, 37.779507]","{'type': 'Point', 'coordinates': [-122.39071, 37.779507]}",web,2006,q2,200,q4,tech,mid company
51,Los Altos,USA,37.425801,-122.143701,Box,"[-122.143701, 37.425801]","{'type': 'Point', 'coordinates': [-122.143701, 37.425801]}",network_hosting,2005,q2,950,q4,others,big company
52,Seattle,USA,47.615313,-122.323408,iLike,"[-122.323408, 47.615313]","{'type': 'Point', 'coordinates': [-122.323408, 47.615313]}",games_video,2002,q1,28,q4,gaming,mid company
53,Foster City,USA,37.561877,-122.325248,Conduit,"[-122.325248, 37.561877]","{'type': 'Point', 'coordinates': [-122.325248, 37.561877]}",advertising,2005,q2,215,q4,others,mid company
54,San Francisco,USA,37.775196,-122.419204,GigaOM,"[-122.419204, 37.775196]","{'type': 'Point', 'coordinates': [-122.419204, 37.775196]}",news,2006,q2,75,q4,others,mid company
55,New York,USA,40.7143528,-74.0059731,GigaOM,"[-74.0059731, 40.7143528]","{'type': 'Point', 'coordinates': [-74.0059731, 40.7143528]}",news,2006,q2,75,q4,others,mid company
56,San Francisco,USA,37.775196,-122.419204,Seesmic,"[-122.419204, 37.775196]","{'type': 'Point', 'coordinates': [-122.419204, 37.775196]}",web,2007,q2,13,q3,tech,small company
57,Cincinnati,USA,39.06685,-84.351532,TechnologyGuide,"[-84.351532, 39.06685]","{'type': 'Point', 'coordinates': [-84.351532, 39.06685]}",web,2001,q1,10,q3,tech,small company
58,San Mateo,USA,37.553121,-122.301534,Zvents,"[-122.301534, 37.553121]","{'type': 'Point', 'coordinates': [-122.301534, 37.553121]}",web,2005,q2,55,q4,tech,mid company
59,San Francisco,USA,37.7618242,-122.3985871,Techmeme,"[-122.3985871, 37.7618242]","{'type': 'Point', 'coordinates': [-122.3985871, 37.7618242]}",web,2004,q1,11,q3,tech,small company
60,Boston,USA,42.350571,-71.076869,Carbonite,"[-71.076869, 42.350571]","{'type': 'Point', 'coordinates': [-71.076869, 42.350571]}",network_hosting,2006,q2,68,q4,others,mid company
61,Seattle,USA,47.603122,-122.333253,Redfin,"[-122.333253, 47.603122]","{'type': 'Point', 'coordinates': [-122.333253, 47.603122]}",real_estate,2004,q1,100,q4,others,mid company
62,Sunnyvale,USA,37.4219165,-122.0780632,Simply Hired,"[-122.0780632, 37.4219165]","{'type': 'Point', 'coordinates': [-122.0780632, 37.4219165]}",search,2004,q1,100,q4,tech,mid company
63,Redwood City,USA,37.479952,-122.178557,oDesk,"[-122.178557, 37.479952]","{'type': 'Point', 'coordinates': [-122.178557, 37.479952]}",web,2005,q2,120,q4,tech,mid company
64,Palo Alto,USA,37.451958,-122.116026,ooma,"[-122.116026, 37.451958]","{'type': 'Point', 'coordinates': [-122.116026, 37.451958]}",hardware,2004,q1,47,q4,others,mid company
65,Vashon,USA,47.420728,-122.450942,Recipezaar,"[-122.450942, 47.420728]","{'type': 'Point', 'coordinates': [-122.450942, 47.420728]}",web,1999,q1,5,q2,tech,small company
66,Los Gatos,USA,37.255118,-121.96533,ictv,"[-121.96533, 37.255118]","{'type': 'Point', 'coordinates': [-121.96533, 37.255118]}",web,1994,q1,80,q4,tech,mid company
67,San Francisco,USA,37.782263,-122.392142,GoingOn,"[-122.392142, 37.782263]","{'type': 'Point', 'coordinates': [-122.392142, 37.782263]}",software,2008,q3,40,q4,tech,mid company
68,Arlington,USA,38.897428,-77.072003,MyPublicInfo,"[-77.072003, 38.897428]","{'type': 'Point', 'coordinates': [-77.072003, 38.897428]}",web,2004,q1,7,q2,tech,small company
69,San Francisco,USA,37.766909,-122.406676,Flixster,"[-122.406676, 37.766909]","{'type': 'Point', 'coordinates': [-122.406676, 37.766909]}",web,2006,q2,75,q4,tech,mid company
70,Pittsburgh,USA,40.437985,-80.004195,Spreadshirt,"[-80.004195, 40.437985]","{'type': 'Point', 'coordinates': [-80.004195, 40.437985]}",advertising,2002,q1,230,q4,others,mid company
71,Palo Alto,USA,37.442949,-122.1615,Socialtext,"[-122.1615, 37.442949]","{'type': 'Point', 'coordinates': [-122.1615, 37.442949]}",enterprise,2002,q1,50,q4,others,mid company
72,Pleasanton,USA,37.6637279,-121.8731805,spigit,"[-121.8731805, 37.6637279]","{'type': 'Point', 'coordinates': [-121.8731805, 37.6637279]}",software,2006,q2,120,q4,tech,mid company
73,Reston,USA,38.9590083,-77.3592746,spigit,"[-77.3592746, 38.9590083]","{'type': 'Point', 'coordinates': [-77.3592746, 38.9590083]}",software,2006,q2,120,q4,tech,mid company
74,London,GBR,51.5170385,-0.1394759,spigit,"[-0.1394759, 51.5170385]","{'type': 'Point', 'coordinates': [-0.1394759, 51.5170385]}",software,2006,q2,120,q4,tech,mid company
75,San Jose,USA,37.321798,-121.979453,LiveWorld,"[-121.979453, 37.321798]","{'type': 'Point', 'coordinates': [-121.979453, 37.321798]}",web,1996,q1,75,q4,tech,mid company
76,London,GBR,51.500152,-0.126236,LiveWorld,"[-0.126236, 51.500152]","{'type': 'Point', 'coordinates': [-0.126236, 51.500152]}",web,1996,q1,75,q4,tech,mid company
77,Bagnacavallo,ITA,44.418166,11.978686,Clipperz,"[11.978686, 44.418166]","{'type': 'Point', 'coordinates': [11.978686, 44.418166]}",web,2005,q2,2,q1,tech,small company
78,Austin,USA,30.407545,-97.717667,Bazaarvoice,"[-97.717667, 30.407545]","{'type': 'Point', 'coordinates': [-97.717667, 30.407545]}",software,2005,q2,600,q4,tech,big company
79,San Francisco,USA,37.788668,-122.400558,hi5,"[-122.400558, 37.788668]","{'type': 'Point', 'coordinates': [-122.400558, 37.788668]}",games_video,2003,q1,100,q4,gaming,mid company
80,Chicago,USA,41.8892178,-87.6557234,37signals,"[-87.6557234, 41.8892178]","{'type': 'Point', 'coordinates': [-87.6557234, 41.8892178]}",public_relations,1999,q1,20,q3,others,small company
81,San Francisco,USA,37.7753,-122.4186,Tagged,"[-122.4186, 37.7753]","{'type': 'Point', 'coordinates': [-122.4186, 37.7753]}",social,2004,q1,162,q4,others,mid company
82,Menlo Park,USA,37.451026,-122.18676,Jaxtr,"[-122.18676, 37.451026]","{'type': 'Point', 'coordinates': [-122.18676, 37.451026]}",mobile,2005,q2,30,q4,tech,mid company
83,Boston,USA,42.340889,-71.051931,ScanScout,"[-71.051931, 42.340889]","{'type': 'Point', 'coordinates': [-71.051931, 42.340889]}",advertising,2005,q2,40,q4,others,mid company
84,New York,USA,40.739833,-73.993158,ScanScout,"[-73.993158, 40.739833]","{'type': 'Point', 'coordinates': [-73.993158, 40.739833]}",advertising,2005,q2,40,q4,others,mid company
85,Los Angeles,USA,34.050887,-118.459995,ScanScout,"[-118.459995, 34.050887]","{'type': 'Point', 'coordinates': [-118.459995, 34.050887]}",advertising,2005,q2,40,q4,others,mid company
86,San Mateo,USA,37.536172,-122.327323,NetSuite,"[-122.327323, 37.536172]","{'type': 'Point', 'coordinates': [-122.327323, 37.536172]}",enterprise,1998,q1,1600,q4,others,big company
87,Montecito,USA,34.42071,-119.641821,introNetworks,"[-119.641821, 34.42071]","{'type': 'Point', 'coordinates': [-119.641821, 34.42071]}",web,2003,q1,11,q3,tech,small company
88,San Mateo,USA,37.55909,-122.321836,Respectance,"[-122.321836, 37.55909]","{'type': 'Point', 'coordinates': [-122.321836, 37.55909]}",web,2006,q2,15,q3,tech,small company
89,Oklahoma City,USA,35.612679,-97.5736,ONEsite,"[-97.5736, 35.612679]","{'type': 'Point', 'coordinates': [-97.5736, 35.612679]}",other,2005,q2,50,q4,others,mid company
90,Greensburg,USA,40.30305,-79.462703,Wallhogs,"[-79.462703, 40.30305]","{'type': 'Point', 'coordinates': [-79.462703, 40.30305]}",public_relations,2006,q2,52,q4,others,mid company
91,Amsterdam,NLD,52.3640933,4.8919457,eBuddy,"[4.8919457, 52.3640933]","{'type': 'Point', 'coordinates': [4.8919457, 52.3640933]}",messaging,2003,q1,90,q4,others,mid company
92,San Francisco,USA,37.787683,-122.410943,eBuddy,"[-122.410943, 37.787683]","{'type': 'Point', 'coordinates': [-122.410943, 37.787683]}",messaging,2003,q1,90,q4,others,mid company
93,Singapore,SGP,51.500152,-0.126236,eBuddy,"[-0.126236, 51.500152]","{'type': 'Point', 'coordinates': [-0.126236, 51.500152]}",messaging,2003,q1,90,q4,others,mid company
94,San Francisco,USA,37.792394,-122.402349,Kiptronic,"[-122.402349, 37.792394]","{'type': 'Point', 'coordinates': [-122.402349, 37.792394]}",advertising,2005,q2,20,q3,others,small company
95,San Francisco,USA,37.775196,-122.419204,Grockit,"[-122.419204, 37.775196]","{'type': 'Point', 'coordinates': [-122.419204, 37.775196]}",social,2006,q2,25,q3,others,small company
96,San Francisco,USA,37.779392,-122.417928,FeVote,"[-122.417928, 37.779392]","{'type': 'Point', 'coordinates': [-122.417928, 37.779392]}",web,2007,q2,1,,tech,small company
97,San Mateo,USA,37.4858654,-122.2262606,Vuze,"[-122.2262606, 37.4858654]","{'type': 'Point', 'coordinates': [-122.2262606, 37.4858654]}",games_video,2005,q2,20,q3,gaming,small company
98,Phoenix,USA,33.429864,-111.944967,JumpBox,"[-111.944967, 33.429864]","{'type': 'Point', 'coordinates': [-111.944967, 33.429864]}",software,2006,q2,5,q2,tech,small company
99,Sunnyvale,USA,37.384651,-121.992132,LongJump,"[-121.992132, 37.384651]","{'type': 'Point', 'coordinates': [-121.992132, 37.384651]}",enterprise,1999,q1,30,q4,others,mid company
100,Seattle,USA,47.620716,-122.347533,Wishpot,"[-122.347533, 47.620716]","{'type': 'Point', 'coordinates': [-122.347533, 47.620716]}",ecommerce,2006,q2,10,q3,others,small company
101,San Jose,USA,37.320052,-121.877636,Adobe Systems,"[-121.877636, 37.320052]","{'type': 'Point', 'coordinates': [-121.877636, 37.320052]}",software,1982,q1,7173,q4,tech,big company
102,Seattle,USA,47.5999337,-122.3276962,PayScale,"[-122.3276962, 47.5999337]","{'type': 'Point', 'coordinates': [-122.3276962, 47.5999337]}",software,1999,q1,130,q4,tech,mid company
103,New York,USA,40.757929,-73.985506,Clipmarks,"[-73.985506, 40.757929]","{'type': 'Point', 'coordinates': [-73.985506, 40.757929]}",photo_video,2003,q1,10,q3,others,small company
104,Sydney,AUS,-33.722577,150.981801,Boonex,"[150.981801, -33.722577]","{'type': 'Point', 'coordinates': [150.981801, -33.722577]}",software,2000,q1,16,q3,tech,small company
105,Boulder,USA,40.010492,-105.276843,IntenseDebate,"[-105.276843, 40.010492]","{'type': 'Point', 'coordinates': [-105.276843, 40.010492]}",web,2006,q2,4,q2,tech,small company
106,Nacka Strand,SWE,59.3167843,18.1582777,Rebtel,"[18.1582777, 59.3167843]","{'type': 'Point', 'coordinates': [18.1582777, 59.3167843]}",mobile,2006,q2,75,q4,tech,mid company
107,Seattle,USA,47.61968,-122.356756,BuddyTV,"[-122.356756, 47.61968]","{'type': 'Point', 'coordinates': [-122.356756, 47.61968]}",games_video,2005,q2,20,q3,gaming,small company
108,Mountain View,USA,37.400465,-122.073003,Buxfer,"[-122.073003, 37.400465]","{'type': 'Point', 'coordinates': [-122.073003, 37.400465]}",web,2007,q2,4,q2,tech,small company
109,San Diego,USA,37.09024,-95.712891,Sony,"[-95.712891, 37.09024]","{'type': 'Point', 'coordinates': [-95.712891, 37.09024]}",hardware,1946,q1,180500,q4,others,big company
110,Sao Paulo,BRA,-23.558584,-46.679287,boo-box,"[-46.679287, -23.558584]","{'type': 'Point', 'coordinates': [-46.679287, -23.558584]}",advertising,2007,q2,50,q4,others,mid company
111,Campbell,USA,37.288974,-121.935688,Hightail,"[-121.935688, 37.288974]","{'type': 'Point', 'coordinates': [-121.935688, 37.288974]}",network_hosting,2004,q1,200,q4,others,mid company
112,San Jose,USA,37.294465,-121.927696,PayPal,"[-121.927696, 37.294465]","{'type': 'Point', 'coordinates': [-121.927696, 37.294465]}",finance,1998,q1,300000,q4,others,big company
113,Burbank,USA,34.156802,-118.324987,The Walt Disney Company,"[-118.324987, 34.156802]","{'type': 'Point', 'coordinates': [-118.324987, 34.156802]}",games_video,1923,q1,25000,q4,gaming,big company
114,Tel Aviv,ISR,32.0554,34.7595,MeeMix,"[34.7595, 32.0554]","{'type': 'Point', 'coordinates': [34.7595, 32.0554]}",web,2006,q2,9,q3,tech,small company
115,New York,USA,40.7311317,-73.9919311,AOL,"[-73.9919311, 40.7311317]","{'type': 'Point', 'coordinates': [-73.9919311, 40.7311317]}",web,1985,q1,8000,q4,tech,big company
116,Mountain View,USA,37.3927975,-122.0727749,IMVU,"[-122.0727749, 37.3927975]","{'type': 'Point', 'coordinates': [-122.0727749, 37.3927975]}",web,2004,q1,150,q4,tech,mid company
117,Santa Monica,USA,34.01676,-118.495566,Userplane,"[-118.495566, 34.01676]","{'type': 'Point', 'coordinates': [-118.495566, 34.01676]}",enterprise,2001,q1,10,q3,others,small company
118,Bowling Green,USA,37.018244,-86.463026,Outdoorzy,"[-86.463026, 37.018244]","{'type': 'Point', 'coordinates': [-86.463026, 37.018244]}",network_hosting,2006,q2,2,q1,others,small company
119,San Francisco,USA,40.270666,-74.761403,Scrybe,"[-74.761403, 40.270666]","{'type': 'Point', 'coordinates': [-74.761403, 40.270666]}",enterprise,2007,q2,20,q3,others,small company
120,Woodbridge,CAN,43.76969,-79.549577,Webkinz,"[-79.549577, 43.76969]","{'type': 'Point', 'coordinates': [-79.549577, 43.76969]}",web,2005,q2,8657,q4,tech,big company
121,San francisco,USA,38.0729365,-122.1879633,Echo,"[-122.1879633, 38.0729365]","{'type': 'Point', 'coordinates': [-122.1879633, 38.0729365]}",enterprise,2007,q2,50,q4,others,mid company
122,Menlo Park,USA,37.491356,-122.228843,Flock,"[-122.228843, 37.491356]","{'type': 'Point', 'coordinates': [-122.228843, 37.491356]}",web,2005,q2,40,q4,tech,mid company
123,Cambridge,USA,42.364059,-71.08907,Akamai Technologies,"[-71.08907, 42.364059]","{'type': 'Point', 'coordinates': [-71.08907, 42.364059]}",enterprise,1998,q1,1000,q4,others,big company
124,London,GBR,51.785428,-1.197534,Curverider,"[-1.197534, 51.785428]","{'type': 'Point', 'coordinates': [-1.197534, 51.785428]}",network_hosting,2005,q2,5,q2,others,small company
125,New York,USA,40.740251,-73.990004,SelectMinds,"[-73.990004, 40.740251]","{'type': 'Point', 'coordinates': [-73.990004, 40.740251]}",network_hosting,2000,q1,55,q4,others,mid company
126,Boulder,USA,40.010492,-105.276843,Techstars,"[-105.276843, 40.010492]","{'type': 'Point', 'coordinates': [-105.276843, 40.010492]}",finance,2006,q2,30,q4,others,mid company
127,San Francisco,USA,37.795555,-122.400729,Weebly,"[-122.400729, 37.795555]","{'type': 'Point', 'coordinates': [-122.400729, 37.795555]}",web,2006,q2,70,q4,tech,mid company
128,San Francisco,USA,37.790998,-122.394668,BitTorrent,"[-122.394668, 37.790998]","{'type': 'Point', 'coordinates': [-122.394668, 37.790998]}",web,2004,q1,80,q4,tech,mid company
129,Tokyo,JPN,35.6725213,139.7326754,Six Apart,"[139.7326754, 35.6725213]","{'type': 'Point', 'coordinates': [139.7326754, 35.6725213]}",enterprise,2001,q1,50,q4,others,mid company
130,San Francisco,USA,37.786942,-122.401245,Kongregate,"[-122.401245, 37.786942]","{'type': 'Point', 'coordinates': [-122.401245, 37.786942]}",games_video,2006,q2,20,q3,gaming,small company
131,Boulder,USA,40.0186731,-105.2762236,Socialthing,"[-105.2762236, 40.0186731]","{'type': 'Point', 'coordinates': [-105.2762236, 40.0186731]}",network_hosting,2007,q2,5,q2,others,small company
132,Palo Alto,USA,40.010492,-105.276843,Filtrbox,"[-105.276843, 40.010492]","{'type': 'Point', 'coordinates': [-105.276843, 40.010492]}",web,2007,q2,14,q3,tech,small company
133,Boston,USA,42.35892,-71.05781,Cloudant,"[-71.05781, 42.35892]","{'type': 'Point', 'coordinates': [-71.05781, 42.35892]}",enterprise,2008,q3,70,q4,others,mid company
134,San Francisco,USA,37.789488,-122.397593,Zivity,"[-122.397593, 37.789488]","{'type': 'Point', 'coordinates': [-122.397593, 37.789488]}",network_hosting,2007,q2,16,q3,others,small company
135,San Jose,USA,37.32052,-121.948399,BlueLithium,"[-121.948399, 37.32052]","{'type': 'Point', 'coordinates': [-121.948399, 37.32052]}",advertising,2004,q1,135,q4,others,mid company
136,Palo Alto,USA,37.427235,-122.145783,Doostang,"[-122.145783, 37.427235]","{'type': 'Point', 'coordinates': [-122.145783, 37.427235]}",web,2005,q2,10,q3,tech,small company
137,Waltham,USA,42.38532,-71.207055,ZoomInfo,"[-71.207055, 42.38532]","{'type': 'Point', 'coordinates': [-71.207055, 42.38532]}",search,2000,q1,800,q4,tech,big company
138,Santa Clara,USA,37.394791,-121.955463,Sun Microsystems,"[-121.955463, 37.394791]","{'type': 'Point', 'coordinates': [-121.955463, 37.394791]}",enterprise,1982,q1,33350,q4,others,big company
139,Beverly Hills,USA,34.076061,-118.372953,MySpace,"[-118.372953, 34.076061]","{'type': 'Point', 'coordinates': [-118.372953, 34.076061]}",network_hosting,2003,q1,800,q4,others,big company
140,Denver,USA,39.755092,-104.988123,NewsGator,"[-104.988123, 39.755092]","{'type': 'Point', 'coordinates': [-104.988123, 39.755092]}",enterprise,2004,q1,90,q4,others,mid company
141,Santa Monica,USA,34.018275,-118.495025,Docstoc,"[-118.495025, 34.018275]","{'type': 'Point', 'coordinates': [-118.495025, 34.018275]}",web,2007,q2,40,q4,tech,mid company
142,Kuala Lumpur,MYS,3.139003,101.686855,Friendster,"[101.686855, 3.139003]","{'type': 'Point', 'coordinates': [101.686855, 3.139003]}",web,2001,q1,70,q4,tech,mid company
143,San Francisco,USA,37.710677,-122.39323,Greystripe,"[-122.39323, 37.710677]","{'type': 'Point', 'coordinates': [-122.39323, 37.710677]}",advertising,2005,q2,90,q4,others,mid company
144,San Francisco,USA,37.766909,-122.406676,Trulia,"[-122.406676, 37.766909]","{'type': 'Point', 'coordinates': [-122.406676, 37.766909]}",search,2004,q1,500,q4,tech,big company
145,Emeryville,USA,37.836957,-122.286493,TubeMogul,"[-122.286493, 37.836957]","{'type': 'Point', 'coordinates': [-122.286493, 37.836957]}",advertising,2006,q2,230,q4,others,mid company
146,Seattle,USA,55.378051,-3.435973,dpreview,"[-3.435973, 55.378051]","{'type': 'Point', 'coordinates': [-3.435973, 55.378051]}",web,1998,q1,13,q3,tech,small company
147,Newton,USA,37.09024,-95.712891,TechTarget,"[-95.712891, 37.09024]","{'type': 'Point', 'coordinates': [-95.712891, 37.09024]}",enterprise,1999,q1,600,q4,others,big company
148,London,GBR,51.5108803,-0.1418973,Seedcamp,"[-0.1418973, 51.5108803]","{'type': 'Point', 'coordinates': [-0.1418973, 51.5108803]}",finance,2007,q2,4,q2,others,small company
149,Fort Lauderdale,USA,37.09024,-95.712891,Sportsline,"[-95.712891, 37.09024]","{'type': 'Point', 'coordinates': [-95.712891, 37.09024]}",web,1994,q1,264,q4,tech,big company
150,Boston,USA,42.350274,-71.058768,MocoSpace,"[-71.058768, 42.350274]","{'type': 'Point', 'coordinates': [-71.058768, 42.350274]}",games_video,2005,q2,25,q3,gaming,small company
151,Vancouver,CAN,3.046111,-75.066111,airG,"[-75.066111, 3.046111]","{'type': 'Point', 'coordinates': [-75.066111, 3.046111]}",search,2000,q1,180,q4,tech,mid company
152,Bellevue,USA,47.597965,-122.151158,YouBeQB,"[-122.151158, 47.597965]","{'type': 'Point', 'coordinates': [-122.151158, 47.597965]}",games_video,2008,q3,8,q2,gaming,small company
153,Kansas City,USA,39.044694,-94.597896,Adknowledge,"[-94.597896, 39.044694]","{'type': 'Point', 'coordinates': [-94.597896, 39.044694]}",advertising,2004,q1,300,q4,others,big company
154,New York,USA,40.748901,-73.992463,Adknowledge,"[-73.992463, 40.748901]","{'type': 'Point', 'coordinates': [-73.992463, 40.748901]}",advertising,2004,q1,300,q4,others,big company
155,San Francisco,USA,37.78866,-122.401406,Adknowledge,"[-122.401406, 37.78866]","{'type': 'Point', 'coordinates': [-122.401406, 37.78866]}",advertising,2004,q1,300,q4,others,big company
156,Fort Myers,USA,26.580095,-81.879069,Adknowledge,"[-81.879069, 26.580095]","{'type': 'Point', 'coordinates': [-81.879069, 26.580095]}",advertising,2004,q1,300,q4,others,big company
157,Toronto,CAN,43.6474554,-79.3953743,Adknowledge,"[-79.3953743, 43.6474554]","{'type': 'Point', 'coordinates': [-79.3953743, 43.6474554]}",advertising,2004,q1,300,q4,others,big company
158,"Covent Garden, London",GBR,51.5114403,-0.1229212,Adknowledge,"[-0.1229212, 51.5114403]","{'type': 'Point', 'coordinates': [-0.1229212, 51.5114403]}",advertising,2004,q1,300,q4,others,big company
159,Munich,DEU,48.1635092,11.5582609,Adknowledge,"[11.5582609, 48.1635092]","{'type': 'Point', 'coordinates': [11.5582609, 48.1635092]}",advertising,2004,q1,300,q4,others,big company
160,Paris,FRA,48.8506065,2.3797825,Adknowledge,"[2.3797825, 48.8506065]","{'type': 'Point', 'coordinates': [2.3797825, 48.8506065]}",advertising,2004,q1,300,q4,others,big company
161,Shanghai,CHN,31.222622,121.4770384,Adknowledge,"[121.4770384, 31.222622]","{'type': 'Point', 'coordinates': [121.4770384, 31.222622]}",advertising,2004,q1,300,q4,others,big company
162,San Francisco,USA,37.785647,-122.405265,OpenTable,"[-122.405265, 37.785647]","{'type': 'Point', 'coordinates': [-122.405265, 37.785647]}",web,1998,q1,550,q4,tech,big company
163,Morrisville,USA,35.854483,-78.815635,ChannelAdvisor,"[-78.815635, 35.854483]","{'type': 'Point', 'coordinates': [-78.815635, 35.854483]}",search,2001,q1,300,q4,tech,big company
164,New York,USA,40.757929,-73.985506,Fotolog,"[-73.985506, 40.757929]","{'type': 'Point', 'coordinates': [-73.985506, 40.757929]}",network_hosting,2002,q1,40,q4,others,mid company
165,New York,USA,40.725435,-73.997395,Thumbplay,"[-73.997395, 40.725435]","{'type': 'Point', 'coordinates': [-73.997395, 40.725435]}",music,2004,q1,70,q4,others,mid company
166,New York,USA,40.707921,-74.004792,Tutor,"[-74.004792, 40.707921]","{'type': 'Point', 'coordinates': [-74.004792, 40.707921]}",web,1998,q1,55,q4,tech,mid company
167,San Francisco,USA,37.775196,-122.419204,MicroPlace,"[-122.419204, 37.775196]","{'type': 'Point', 'coordinates': [-122.419204, 37.775196]}",web,2007,q2,15,q3,tech,small company
168,Seattle,USA,47.5999337,-122.3276962,EyeJot,"[-122.3276962, 47.5999337]","{'type': 'Point', 'coordinates': [-122.3276962, 47.5999337]}",web,2007,q2,5,q2,tech,small company
169,Toronto,CAN,43.799511,-79.348037,Contrastream,"[-79.348037, 43.799511]","{'type': 'Point', 'coordinates': [-79.348037, 43.799511]}",games_video,2007,q2,1,,gaming,small company
170,New York,USA,40.643438,-73.886452,Daylife,"[-73.886452, 40.643438]","{'type': 'Point', 'coordinates': [-73.886452, 40.643438]}",enterprise,2006,q2,25,q3,others,small company
171,Palo Alto,USA,37.42746,-122.143915,SayNow,"[-122.143915, 37.42746]","{'type': 'Point', 'coordinates': [-122.143915, 37.42746]}",mobile,2005,q2,20,q3,tech,small company
172,San Francisco,USA,37.781265,-122.393229,Crunchyroll,"[-122.393229, 37.781265]","{'type': 'Point', 'coordinates': [-122.393229, 37.781265]}",games_video,2008,q3,50,q4,gaming,mid company
173,Santa Clara,USA,37.387114,-121.973228,PixSense,"[-121.973228, 37.387114]","{'type': 'Point', 'coordinates': [-121.973228, 37.387114]}",mobile,2003,q1,35,q4,tech,mid company
174,Brussel,BEL,50.796645,4.400604,ContactOffice,"[4.400604, 50.796645]","{'type': 'Point', 'coordinates': [4.400604, 50.796645]}",web,2000,q1,10,q3,tech,small company
175,New York,USA,40.74406,-74.004592,Behance,"[-74.004592, 40.74406]","{'type': 'Point', 'coordinates': [-74.004592, 40.74406]}",web,2006,q2,30,q4,tech,mid company
176,Rancho Cucamonga,USA,34.099253,-117.572967,ThemBid,"[-117.572967, 34.099253]","{'type': 'Point', 'coordinates': [-117.572967, 34.099253]}",ecommerce,2007,q2,7,q2,others,small company
177,Los Angeles,USA,34.031276,-118.456806,hulu,"[-118.456806, 34.031276]","{'type': 'Point', 'coordinates': [-118.456806, 34.031276]}",games_video,2007,q2,153,q4,gaming,mid company
178,London,GBR,51.5195795,-0.1065551,FAROO,"[-0.1065551, 51.5195795]","{'type': 'Point', 'coordinates': [-0.1065551, 51.5195795]}",search,2007,q2,5,q2,tech,small company
179,Eden Prairie,USA,44.865243,-93.4094629,Yugma,"[-93.4094629, 44.865243]","{'type': 'Point', 'coordinates': [-93.4094629, 44.865243]}",games_video,2003,q1,38,q4,gaming,mid company
180,San Francisco,USA,37.779624,-122.391236,imeem,"[-122.391236, 37.779624]","{'type': 'Point', 'coordinates': [-122.391236, 37.779624]}",music,2003,q1,55,q4,others,mid company
181,New York,USA,40.775537,-73.981709,OrganizedWisdom,"[-73.981709, 40.775537]","{'type': 'Point', 'coordinates': [-73.981709, 40.775537]}",other,2007,q2,18,q3,others,small company
182,New York,USA,40.757929,-73.985506,PeekYou,"[-73.985506, 40.757929]","{'type': 'Point', 'coordinates': [-73.985506, 40.757929]}",search,2012,q4,20,q3,tech,startup
183,Pleasant Grove,USA,40.357978,-111.777531,Mozy,"[-111.777531, 40.357978]","{'type': 'Point', 'coordinates': [-111.777531, 40.357978]}",public_relations,2005,q2,26,q4,others,mid company
184,McLean,USA,38.003376,-79.420926,Mixx,"[-79.420926, 38.003376]","{'type': 'Point', 'coordinates': [-79.420926, 38.003376]}",web,2007,q2,11,q3,tech,small company
185,San Francisco,USA,37.764169,-122.402021,TripIt,"[-122.402021, 37.764169]","{'type': 'Point', 'coordinates': [-122.402021, 37.764169]}",travel,2006,q2,63,q4,others,mid company
186,Los Altos,USA,33.8171,-111.9035,GENWI,"[-111.9035, 33.8171]","{'type': 'Point', 'coordinates': [-111.9035, 33.8171]}",mobile,2010,q4,25,q3,tech,startup
187,La Jolla,USA,32.847521,-117.274609,app2you,"[-117.274609, 32.847521]","{'type': 'Point', 'coordinates': [-117.274609, 32.847521]}",web,2006,q2,4,q2,tech,small company
188,METZ,FRA,49.1004,6.182658,HylioSoft,"[6.182658, 49.1004]","{'type': 'Point', 'coordinates': [6.182658, 49.1004]}",web,2004,q1,3,q1,tech,small company
189,San Francisco,USA,37.793742,-122.421341,YourStreet,"[-122.421341, 37.793742]","{'type': 'Point', 'coordinates': [-122.421341, 37.793742]}",web,2006,q2,6,q2,tech,small company
190,Portland,USA,45.5241278,-122.675448,Vidoop,"[-122.675448, 45.5241278]","{'type': 'Point', 'coordinates': [-122.675448, 45.5241278]}",software,2006,q2,30,q4,tech,mid company
191,Montreal,CAN,45.506643,-73.566634,SmartHippo,"[-73.566634, 45.506643]","{'type': 'Point', 'coordinates': [-73.566634, 45.506643]}",ecommerce,2005,q2,10,q3,others,small company
192,Seattle,USA,47.6015315,-122.335943,FlowPlay,"[-122.335943, 47.6015315]","{'type': 'Point', 'coordinates': [-122.335943, 47.6015315]}",games_video,2006,q2,30,q4,gaming,mid company
193,The Woodlands,USA,30.182107,-95.536,IMSafer,"[-95.536, 30.182107]","{'type': 'Point', 'coordinates': [-95.536, 30.182107]}",web,2006,q2,5,q2,tech,small company
194,Sammamish,USA,47.585114,-122.084356,Feedjit,"[-122.084356, 47.585114]","{'type': 'Point', 'coordinates': [-122.084356, 47.585114]}",web,2007,q2,2,q1,tech,small company
195,Chicago,USA,41.890376,-87.63406,Viewpoints,"[-87.63406, 41.890376]","{'type': 'Point', 'coordinates': [-87.63406, 41.890376]}",web,2006,q2,15,q3,tech,small company
196,Boulder,USA,40.01621,-105.28131,OneRiot,"[-105.28131, 40.01621]","{'type': 'Point', 'coordinates': [-105.28131, 40.01621]}",advertising,2006,q2,32,q4,others,mid company
197,Cambridge,USA,42.375392,-71.118487,UpDown,"[-71.118487, 42.375392]","{'type': 'Point', 'coordinates': [-71.118487, 42.375392]}",web,2007,q2,5,q2,tech,small company
198,London,GBR,51.519819,-0.136174,Webjam,"[-0.136174, 51.519819]","{'type': 'Point', 'coordinates': [-0.136174, 51.519819]}",enterprise,2006,q2,18,q3,others,small company
199,Singapore,SGP,37.580304,-122.343679,mig33,"[-122.343679, 37.580304]","{'type': 'Point', 'coordinates': [-122.343679, 37.580304]}",games_video,2005,q2,100,q4,gaming,mid company
200,Cambridge,USA,42.375392,-71.118487,GamerDNA,"[-71.118487, 42.375392]","{'type': 'Point', 'coordinates': [-71.118487, 42.375392]}",web,2006,q2,13,q3,tech,small company
201,Los Gatos,USA,37.222604,-121.983814,Houseglue,"[-121.983814, 37.222604]","{'type': 'Point', 'coordinates': [-121.983814, 37.222604]}",web,2007,q2,5,q2,tech,small company
202,Berkeley,USA,37.887864,-122.26999,Realius,"[-122.26999, 37.887864]","{'type': 'Point', 'coordinates': [-122.26999, 37.887864]}",games_video,2006,q2,3,q1,gaming,small company
203,Solana Beach,USA,33.020832,-117.077311,Metaplace,"[-117.077311, 33.020832]","{'type': 'Point', 'coordinates': [-117.077311, 33.020832]}",games_video,2006,q2,12,q3,gaming,small company
204,San Mateo,USA,37.566879,-122.323895,Fixya,"[-122.323895, 37.566879]","{'type': 'Point', 'coordinates': [-122.323895, 37.566879]}",web,2013,q4,30,q4,tech,mid company
205,Irving,USA,32.860831,-96.9403,Syntraxis,"[-96.9403, 32.860831]","{'type': 'Point', 'coordinates': [-96.9403, 32.860831]}",web,2006,q2,6,q2,tech,small company
206,San Mateo,USA,37.559287,-122.302262,Spoke,"[-122.302262, 37.559287]","{'type': 'Point', 'coordinates': [-122.302262, 37.559287]}",software,2002,q1,8,q2,tech,small company
207,Mountain View,USA,37.418491,-122.08744,Mozilla,"[-122.08744, 37.418491]","{'type': 'Point', 'coordinates': [-122.08744, 37.418491]}",web,1998,q1,800,q4,tech,big company
208,Philadelphia,USA,39.956259,-75.194657,Styky,"[-75.194657, 39.956259]","{'type': 'Point', 'coordinates': [-75.194657, 39.956259]}",mobile,2003,q1,3,q1,tech,small company
209,New York,USA,40.740337,-73.993127,Empressr,"[-73.993127, 40.740337]","{'type': 'Point', 'coordinates': [-73.993127, 40.740337]}",public_relations,2006,q2,35,q4,others,mid company
210,San Francisco,USA,37.779558,-122.393041,GroupSwim,"[-122.393041, 37.779558]","{'type': 'Point', 'coordinates': [-122.393041, 37.779558]}",software,2005,q2,9,q3,tech,small company
211,,FIN,60.170514,24.827224,Nokia,"[24.827224, 60.170514]","{'type': 'Point', 'coordinates': [24.827224, 60.170514]}",mobile,1865,q1,125000,q4,tech,big company
212,Tel Aviv,ISR,32.0554,34.7595,SuTree,"[34.7595, 32.0554]","{'type': 'Point', 'coordinates': [34.7595, 32.0554]}",games_video,2006,q2,5,q2,gaming,small company
213,London,GBR,51.54236,-0.149522,Jiglu,"[-0.149522, 51.54236]","{'type': 'Point', 'coordinates': [-0.149522, 51.54236]}",software,2003,q1,3,q1,tech,small company
214,Van Nuys,USA,34.210785,-118.474261,Dopetracks,"[-118.474261, 34.210785]","{'type': 'Point', 'coordinates': [-118.474261, 34.210785]}",web,2007,q2,4,q2,tech,small company
215,Melbourne,USA,28.074742,-80.632606,itsmylife,"[-80.632606, 28.074742]","{'type': 'Point', 'coordinates': [-80.632606, 28.074742]}",web,2003,q1,2,q1,tech,small company
216,Mountain View,USA,37.401355,-122.104099,SueEasy,"[-122.104099, 37.401355]","{'type': 'Point', 'coordinates': [-122.104099, 37.401355]}",web,2007,q2,6,q2,tech,small company
217,New York,USA,40.756799,-73.976348,Worklight,"[-73.976348, 40.756799]","{'type': 'Point', 'coordinates': [-73.976348, 40.756799]}",mobile,2006,q2,30,q4,tech,mid company
218,Seattle,USA,47.6011125,-122.3293984,Zillow,"[-122.3293984, 47.6011125]","{'type': 'Point', 'coordinates': [-122.3293984, 47.6011125]}",real_estate,2005,q2,600,q4,others,big company
219,Seattle,USA,47.620716,-122.347533,Moz,"[-122.347533, 47.620716]","{'type': 'Point', 'coordinates': [-122.347533, 47.620716]}",search,2002,q1,130,q4,tech,mid company
220,Palo Alto,USA,37.557637,-122.285714,Zimbra,"[-122.285714, 37.557637]","{'type': 'Point', 'coordinates': [-122.285714, 37.557637]}",enterprise,2003,q1,200,q4,others,mid company
221,,GBR,55.378051,-3.435973,FlexiScale,"[-3.435973, 55.378051]","{'type': 'Point', 'coordinates': [-3.435973, 55.378051]}",network_hosting,1997,q1,24,q3,others,small company
222,Venice,USA,34.011335,-118.468458,JibJab,"[-118.468458, 34.011335]","{'type': 'Point', 'coordinates': [-118.468458, 34.011335]}",web,1999,q1,37,q4,tech,mid company
223,,USA,32.856744,-117.20717,RecipeMatcher,"[-117.20717, 32.856744]","{'type': 'Point', 'coordinates': [-117.20717, 32.856744]}",web,2007,q2,2,q1,tech,small company
224,Berkeley,USA,37.862209,-122.298168,earthmine,"[-122.298168, 37.862209]","{'type': 'Point', 'coordinates': [-122.298168, 37.862209]}",enterprise,2006,q2,30,q4,others,mid company
225,San Francisco,USA,37.856331,-122.495222,Whiskey Media,"[-122.495222, 37.856331]","{'type': 'Point', 'coordinates': [-122.495222, 37.856331]}",web,2007,q2,12,q3,tech,small company
226,Madrid,ESP,40.530724,-3.632687,Fon,"[-3.632687, 40.530724]","{'type': 'Point', 'coordinates': [-3.632687, 40.530724]}",mobile,2006,q2,100,q4,tech,mid company
227,Norderstedt,DEU,53.707739,10.023246,alluc,"[10.023246, 53.707739]","{'type': 'Point', 'coordinates': [10.023246, 53.707739]}",games_video,2009,q4,7,q2,gaming,startup
228,Mountain View,USA,37.386175,-122.083487,Polyvore,"[-122.083487, 37.386175]","{'type': 'Point', 'coordinates': [-122.083487, 37.386175]}",web,2007,q2,73,q4,tech,mid company
229,Seattle,USA,47.649027,-122.346299,AdReady,"[-122.346299, 47.649027]","{'type': 'Point', 'coordinates': [-122.346299, 47.649027]}",advertising,2006,q2,33,q4,others,mid company
230,San Francisco,USA,37.792968,-122.40414,Blurb,"[-122.40414, 37.792968]","{'type': 'Point', 'coordinates': [-122.40414, 37.792968]}",ecommerce,2005,q2,150,q4,others,mid company
231,Mountain View,USA,37.09024,-95.712891,23andMe,"[-95.712891, 37.09024]","{'type': 'Point', 'coordinates': [-95.712891, 37.09024]}",biotech,2006,q2,80,q4,others,mid company
232,San Francisco,USA,37.744274,-122.421344,Automattic,"[-122.421344, 37.744274]","{'type': 'Point', 'coordinates': [-122.421344, 37.744274]}",web,2005,q2,200,q4,tech,mid company
233,San Francisco,USA,37.782809,-122.394354,The Climate Corporation,"[-122.394354, 37.782809]","{'type': 'Point', 'coordinates': [-122.394354, 37.782809]}",cleantech,2006,q2,150,q4,others,mid company
234,Seattle,USA,47.5984767,-122.3331466,The Climate Corporation,"[-122.3331466, 47.5984767]","{'type': 'Point', 'coordinates': [-122.3331466, 47.5984767]}",cleantech,2006,q2,150,q4,others,mid company
235,San Mateo,USA,37.553743,-122.300246,Veodia,"[-122.300246, 37.553743]","{'type': 'Point', 'coordinates': [-122.300246, 37.553743]}",games_video,2006,q2,15,q3,gaming,small company
236,New York,USA,40.621591,-73.960717,Payoneer,"[-73.960717, 40.621591]","{'type': 'Point', 'coordinates': [-73.960717, 40.621591]}",other,2005,q2,200,q4,others,mid company
237,San Luis Obispo,USA,37.09024,-95.712891,Shopatron,"[-95.712891, 37.09024]","{'type': 'Point', 'coordinates': [-95.712891, 37.09024]}",enterprise,2001,q1,166,q4,others,mid company
238,Palo Alto,USA,37.445326,-122.160671,EchoSign,"[-122.160671, 37.445326]","{'type': 'Point', 'coordinates': [-122.160671, 37.445326]}",web,2005,q2,100,q4,tech,mid company
239,Conshohocken,USA,40.09665,-75.298032,XLNTads,"[-75.298032, 40.09665]","{'type': 'Point', 'coordinates': [-75.298032, 40.09665]}",web,2006,q2,6,q2,tech,small company
240,Eden Prairie,USA,44.871371,-93.407837,JobDig,"[-93.407837, 44.871371]","{'type': 'Point', 'coordinates': [-93.407837, 44.871371]}",advertising,2000,q1,85,q4,others,mid company
241,Mountain View,USA,37.388095,-122.08276,TrialPay,"[-122.08276, 37.388095]","{'type': 'Point', 'coordinates': [-122.08276, 37.388095]}",advertising,2006,q2,100,q4,others,mid company
242,San Francisco,USA,37.772542,-122.430127,Crusher,"[-122.430127, 37.772542]","{'type': 'Point', 'coordinates': [-122.430127, 37.772542]}",web,2006,q2,3,q1,tech,small company
243,Richmond,CAN,49.25403,-123.115208,Ubertor,"[-123.115208, 49.25403]","{'type': 'Point', 'coordinates': [-123.115208, 49.25403]}",web,2000,q1,20,q3,tech,small company
244,,CHN,-34.788039,138.6959288,Moko Social Media,"[138.6959288, -34.788039]","{'type': 'Point', 'coordinates': [138.6959288, -34.788039]}",mobile,1991,q1,60,q4,tech,mid company
245,Campbell,USA,37.285133,-121.932962,Firetide,"[-121.932962, 37.285133]","{'type': 'Point', 'coordinates': [-121.932962, 37.285133]}",mobile,2003,q1,100,q4,tech,mid company
246,Burlingame,USA,37.590056,-122.347654,BitGravity,"[-122.347654, 37.590056]","{'type': 'Point', 'coordinates': [-122.347654, 37.590056]}",network_hosting,2006,q2,50,q4,others,mid company
247,London,GBR,51.604922,0.239866,Skinkers,"[0.239866, 51.604922]","{'type': 'Point', 'coordinates': [0.239866, 51.604922]}",software,1999,q1,12,q3,tech,small company
248,Mountain View,USA,37.43938,-122.158804,Gigya,"[-122.158804, 37.43938]","{'type': 'Point', 'coordinates': [-122.158804, 37.43938]}",enterprise,2006,q2,230,q4,others,mid company
249,San Jose,USA,37.332271,-122.006539,Baynote,"[-122.006539, 37.332271]","{'type': 'Point', 'coordinates': [-122.006539, 37.332271]}",software,2004,q1,80,q4,tech,mid company
250,Montreal,CAN,45.545447,-73.639076,Defensio,"[-73.639076, 45.545447]","{'type': 'Point', 'coordinates': [-73.639076, 45.545447]}",security,2007,q2,3,q1,others,small company
251,Los Altos,USA,37.351894,-122.085807,SezWho,"[-122.085807, 37.351894]","{'type': 'Point', 'coordinates': [-122.085807, 37.351894]}",web,2006,q2,9,q3,tech,small company
252,San Francisco,USA,37.786906,-122.397672,Disqus,"[-122.397672, 37.786906]","{'type': 'Point', 'coordinates': [-122.397672, 37.786906]}",web,2007,q2,43,q4,tech,mid company
253,Campbell,USA,37.279132,-121.956295,DraftMix,"[-121.956295, 37.279132]","{'type': 'Point', 'coordinates': [-121.956295, 37.279132]}",games_video,2007,q2,3,q1,gaming,small company
254,,USA,38.977092,-94.370901,FilmCrave,"[-94.370901, 38.977092]","{'type': 'Point', 'coordinates': [-94.370901, 38.977092]}",games_video,2007,q2,3,q1,gaming,small company
255,Lincoln,USA,42.402378,-71.288568,StylePath,"[-71.288568, 42.402378]","{'type': 'Point', 'coordinates': [-71.288568, 42.402378]}",web,2007,q2,4,q2,tech,small company
256,Centreville,USA,38.84919,-77.4582,BrainKeeper,"[-77.4582, 38.84919]","{'type': 'Point', 'coordinates': [-77.4582, 38.84919]}",web,2005,q2,10,q3,tech,small company
257,Cambridge,GBR,52.195668,0.130647,Evi,"[0.130647, 52.195668]","{'type': 'Point', 'coordinates': [0.130647, 52.195668]}",search,2005,q2,25,q3,tech,small company
258,Los Angleles,USA,34.064139,-118.468672,GotCast,"[-118.468672, 34.064139]","{'type': 'Point', 'coordinates': [-118.468672, 34.064139]}",games_video,2007,q2,5,q2,gaming,small company
259,Tel Aviv,ISR,32.0554,34.7595,Yedda,"[34.7595, 32.0554]","{'type': 'Point', 'coordinates': [34.7595, 32.0554]}",web,2006,q2,5,q2,tech,small company
260,Emeryville,USA,37.838225,-122.296411,RepairPal,"[-122.296411, 37.838225]","{'type': 'Point', 'coordinates': [-122.296411, 37.838225]}",web,2007,q2,25,q3,tech,small company
261,Berlin,DEU,52.523402,13.398694,Plazes,"[13.398694, 52.523402]","{'type': 'Point', 'coordinates': [13.398694, 52.523402]}",web,2006,q2,15,q3,tech,small company
262,San Francisco,USA,37.781262,-122.394958,Dipity,"[-122.394958, 37.781262]","{'type': 'Point', 'coordinates': [-122.394958, 37.781262]}",web,2007,q2,4,q2,tech,small company
263,Los Angeles,USA,33.982431,-118.426707,StreetFire,"[-118.426707, 33.982431]","{'type': 'Point', 'coordinates': [-118.426707, 33.982431]}",web,2004,q1,12,q3,tech,small company
264,San Mateo,USA,37.530893,-122.245087,MyBuys,"[-122.245087, 37.530893]","{'type': 'Point', 'coordinates': [-122.245087, 37.530893]}",advertising,2006,q2,120,q4,others,mid company
265,Ann Arbor,USA,42.277416,-83.733276,MyBuys,"[-83.733276, 42.277416]","{'type': 'Point', 'coordinates': [-83.733276, 42.277416]}",advertising,2006,q2,120,q4,others,mid company
266,Branchburg,USA,40.59865,-74.67117,Congoo,"[-74.67117, 40.59865]","{'type': 'Point', 'coordinates': [-74.67117, 40.59865]}",web,2005,q2,5,q2,tech,small company
267,Redmond,USA,47.643583,-122.128585,Microsoft,"[-122.128585, 47.643583]","{'type': 'Point', 'coordinates': [-122.128585, 47.643583]}",software,1974,q1,90000,q4,tech,big company
268,Boise,USA,43.613184,-116.209356,Microsoft,"[-116.209356, 43.613184]","{'type': 'Point', 'coordinates': [-116.209356, 43.613184]}",software,1974,q1,90000,q4,tech,big company
269,Orem,USA,40.323902,-111.68192,Omniture,"[-111.68192, 40.323902]","{'type': 'Point', 'coordinates': [-111.68192, 40.323902]}",advertising,1996,q1,1000,q4,others,big company
270,Austin,USA,30.269452,-97.742682,Springbox,"[-97.742682, 30.269452]","{'type': 'Point', 'coordinates': [-97.742682, 30.269452]}",web,2004,q1,65,q4,tech,mid company
271,Los Angeles,USA,34.0065488,-118.3923578,Springbox,"[-118.3923578, 34.0065488]","{'type': 'Point', 'coordinates': [-118.3923578, 34.0065488]}",web,2004,q1,65,q4,tech,mid company
272,Santa Clara,USA,37.399208,-121.97895,Vobile,"[-121.97895, 37.399208]","{'type': 'Point', 'coordinates': [-121.97895, 37.399208]}",web,2005,q2,120,q4,tech,mid company
273,San Diego,USA,32.903248,-117.175733,Verimatrix,"[-117.175733, 32.903248]","{'type': 'Point', 'coordinates': [-117.175733, 32.903248]}",software,1999,q1,100,q4,tech,mid company
274,Seattle,USA,47.6018824,-122.3355636,Jackson Fish Market,"[-122.3355636, 47.6018824]","{'type': 'Point', 'coordinates': [-122.3355636, 47.6018824]}",software,2006,q2,3,q1,tech,small company
275,Seattle,USA,47.620716,-122.347533,RealSelf,"[-122.347533, 47.620716]","{'type': 'Point', 'coordinates': [-122.347533, 47.620716]}",web,2006,q2,23,q3,tech,small company
276,Marina del Rey,USA,33.971132,-118.455798,littleye,"[-118.455798, 33.971132]","{'type': 'Point', 'coordinates': [-118.455798, 33.971132]}",software,2007,q2,3,q1,tech,small company
277,Cary,USA,37.281651,-121.941184,Bloglines,"[-121.941184, 37.281651]","{'type': 'Point', 'coordinates': [-121.941184, 37.281651]}",web,2003,q1,30,q4,tech,mid company
278,San Francisco,USA,37.803847,-122.402468,GameLayers,"[-122.402468, 37.803847]","{'type': 'Point', 'coordinates': [-122.402468, 37.803847]}",web,2007,q2,5,q2,tech,small company
279,Venice,USA,33.999004,-118.472297,Mogreet,"[-118.472297, 33.999004]","{'type': 'Point', 'coordinates': [-118.472297, 33.999004]}",mobile,2006,q2,30,q4,tech,mid company
280,Hamden,USA,41.355252,-72.930855,Entrecard,"[-72.930855, 41.355252]","{'type': 'Point', 'coordinates': [-72.930855, 41.355252]}",ecommerce,2007,q2,1,,others,small company
281,Greenwood Village,USA,39.613859,-104.894986,Kaango,"[-104.894986, 39.613859]","{'type': 'Point', 'coordinates': [-104.894986, 39.613859]}",advertising,2007,q2,10,q3,others,small company
282,New York,USA,38.984172,-77.095965,WEbook,"[-77.095965, 38.984172]","{'type': 'Point', 'coordinates': [-77.095965, 38.984172]}",web,2007,q2,10,q3,tech,small company
283,Chelmsford,USA,42.591704,-71.319348,OurStage,"[-71.319348, 42.591704]","{'type': 'Point', 'coordinates': [-71.319348, 42.591704]}",music,2006,q2,1,,others,small company
284,Waterloo,CAN,43.4747042,-80.5463811,ProductWiki,"[-80.5463811, 43.4747042]","{'type': 'Point', 'coordinates': [-80.5463811, 43.4747042]}",public_relations,2005,q2,8,q2,others,small company
285,San Francisco,USA,37.78274,-122.390945,Splunk,"[-122.390945, 37.78274]","{'type': 'Point', 'coordinates': [-122.390945, 37.78274]}",software,2003,q1,500,q4,tech,big company
286,San Mateo,USA,37.5583159,-122.2862187,LucidEra,"[-122.2862187, 37.5583159]","{'type': 'Point', 'coordinates': [-122.2862187, 37.5583159]}",enterprise,2005,q2,40,q4,others,mid company
287,Vienna,USA,41.878643,-87.636706,Localeze,"[-87.636706, 41.878643]","{'type': 'Point', 'coordinates': [-87.636706, 41.878643]}",search,2001,q1,1,,tech,small company
288,Palo Alto,USA,37.520592,-122.255907,TrustedID,"[-122.255907, 37.520592]","{'type': 'Point', 'coordinates': [-122.255907, 37.520592]}",security,2005,q2,120,q4,others,mid company
289,Emeryville,USA,37.8454819,-122.296342,Seeqpod,"[-122.296342, 37.8454819]","{'type': 'Point', 'coordinates': [-122.296342, 37.8454819]}",search,2005,q2,25,q3,tech,small company
290,Toronto,CAN,43.744031,-79.435661,AddLiveVoice,"[-79.435661, 43.744031]","{'type': 'Point', 'coordinates': [-79.435661, 43.744031]}",web,2006,q2,5,q2,tech,small company
291,"Victoria, BC",CAN,48.450576,-123.383426,SkreemR Search,"[-123.383426, 48.450576]","{'type': 'Point', 'coordinates': [-123.383426, 48.450576]}",search,2007,q2,3,q1,tech,small company
292,Kansas City,USA,38.9143473,-94.4284985,Doodlekit,"[-94.4284985, 38.9143473]","{'type': 'Point', 'coordinates': [-94.4284985, 38.9143473]}",web,2006,q2,2,q1,tech,small company
293,Seattle,USA,47.598968,-122.332904,Snapvine,"[-122.332904, 47.598968]","{'type': 'Point', 'coordinates': [-122.332904, 47.598968]}",other,2005,q2,20,q3,others,small company
294,New York,USA,40.742459,-73.9918126,Yodle,"[-73.9918126, 40.742459]","{'type': 'Point', 'coordinates': [-73.9918126, 40.742459]}",advertising,2005,q2,1000,q4,others,big company
295,Austin,USA,30.378658,-97.731249,Yodle,"[-97.731249, 30.378658]","{'type': 'Point', 'coordinates': [-97.731249, 30.378658]}",advertising,2005,q2,1000,q4,others,big company
296,Charlotte,USA,35.139441,-80.916109,Yodle,"[-80.916109, 35.139441]","{'type': 'Point', 'coordinates': [-80.916109, 35.139441]}",advertising,2005,q2,1000,q4,others,big company
297,Scottsdale,USA,33.464377,-111.924855,Yodle,"[-111.924855, 33.464377]","{'type': 'Point', 'coordinates': [-111.924855, 33.464377]}",advertising,2005,q2,1000,q4,others,big company
298,Buford,USA,34.105226,-84.03398,Yodle,"[-84.03398, 34.105226]","{'type': 'Point', 'coordinates': [-84.03398, 34.105226]}",advertising,2005,q2,1000,q4,others,big company
299,Paris,FRA,48.8780596,2.3283853,Deezer,"[2.3283853, 48.8780596]","{'type': 'Point', 'coordinates': [2.3283853, 48.8780596]}",music,2006,q2,200,q4,others,mid company
300,North Palm Beach,USA,26.820375,-80.058401,divorce360,"[-80.058401, 26.820375]","{'type': 'Point', 'coordinates': [-80.058401, 26.820375]}",web,2007,q2,6,q2,tech,small company
301,Hamburg,DEU,53.540804,9.993586,MyNeighborhood,"[9.993586, 53.540804]","{'type': 'Point', 'coordinates': [9.993586, 53.540804]}",web,2007,q2,3,q1,tech,small company
302,Cambridge,USA,42.375392,-71.118487,HubSpot,"[-71.118487, 42.375392]","{'type': 'Point', 'coordinates': [-71.118487, 42.375392]}",software,2006,q2,650,q4,tech,big company
303,Paris,FRA,46.227638,2.213749,Kewego,"[2.213749, 46.227638]","{'type': 'Point', 'coordinates': [2.213749, 46.227638]}",games_video,2003,q1,65,q4,gaming,mid company
304,Monterey,USA,36.611645,-121.898539,CrossLoop,"[-121.898539, 36.611645]","{'type': 'Point', 'coordinates': [-121.898539, 36.611645]}",web,2006,q2,8,q2,tech,small company
305,piscataway,USA,40.532457,-74.453466,eventsbot,"[-74.453466, 40.532457]","{'type': 'Point', 'coordinates': [-74.453466, 40.532457]}",web,2007,q2,10,q3,tech,small company
306,Hackensack,USA,40.909378,-74.033707,Vidyo,"[-74.033707, 40.909378]","{'type': 'Point', 'coordinates': [-74.033707, 40.909378]}",messaging,2005,q2,80,q4,others,mid company
307,Paris,FRA,48.8747064,2.3304161,Viadeo,"[2.3304161, 48.8747064]","{'type': 'Point', 'coordinates': [2.3304161, 48.8747064]}",social,2004,q1,400,q4,others,big company
308,Chicago,USA,41.907647,-87.649878,GrubHub,"[-87.649878, 41.907647]","{'type': 'Point', 'coordinates': [-87.649878, 41.907647]}",hospitality,2004,q1,250,q4,others,big company
309,,USA,37.09024,-95.712891,eBurl,"[-95.712891, 37.09024]","{'type': 'Point', 'coordinates': [-95.712891, 37.09024]}",web,2007,q2,1,,tech,small company
310,San Francisco,USA,37.7799872,-122.3975878,LiveJournal,"[-122.3975878, 37.7799872]","{'type': 'Point', 'coordinates': [-122.3975878, 37.7799872]}",software,1999,q1,25,q3,tech,small company
311,Brooklyn,USA,40.6772802,-74.0094471,Vemo,"[-74.0094471, 40.6772802]","{'type': 'Point', 'coordinates': [-74.0094471, 40.6772802]}",enterprise,2005,q2,3,q1,others,small company
312,Mountain View,USA,37.386665,-122.084171,Ribbit,"[-122.084171, 37.386665]","{'type': 'Point', 'coordinates': [-122.084171, 37.386665]}",mobile,2005,q2,28,q4,tech,mid company
313,San Francisco,USA,37.7876952,-122.3991505,HubPages,"[-122.3991505, 37.7876952]","{'type': 'Point', 'coordinates': [-122.3991505, 37.7876952]}",web,2006,q2,21,q3,tech,small company
314,Hastings-on-Hudson,USA,41.035749,-73.865287,Squidoo,"[-73.865287, 41.035749]","{'type': 'Point', 'coordinates': [-73.865287, 41.035749]}",web,2005,q2,14,q3,tech,small company
315,Berkeley,USA,37.864221,-122.265466,Vyew,"[-122.265466, 37.864221]","{'type': 'Point', 'coordinates': [-122.265466, 37.864221]}",web,2004,q1,10,q3,tech,small company
316,,USA,40.7508,-73.996122,GoLark,"[-73.996122, 40.7508]","{'type': 'Point', 'coordinates': [-73.996122, 40.7508]}",web,2007,q2,3,q1,tech,small company
317,Dallas,USA,32.863466,-96.791739,Match,"[-96.791739, 32.863466]","{'type': 'Point', 'coordinates': [-96.791739, 32.863466]}",web,1995,q1,350,q4,tech,big company
318,Redwood City,USA,37.486368,-122.230116,Qik,"[-122.230116, 37.486368]","{'type': 'Point', 'coordinates': [-122.230116, 37.486368]}",mobile,2006,q2,60,q4,tech,mid company
319,Tel-Aviv,ISR,32.0554,34.7595,Flixwagon,"[34.7595, 32.0554]","{'type': 'Point', 'coordinates': [34.7595, 32.0554]}",mobile,2007,q2,10,q3,tech,small company
320,San Jose,USA,37.4050988,-121.9477639,CDNetworks,"[-121.9477639, 37.4050988]","{'type': 'Point', 'coordinates': [-121.9477639, 37.4050988]}",network_hosting,2000,q1,350,q4,others,big company
321,San Francisco,USA,37.78624,-122.39897,Mobissimo,"[-122.39897, 37.78624]","{'type': 'Point', 'coordinates': [-122.39897, 37.78624]}",search,2003,q1,15,q3,tech,small company
322,Burlington,USA,42.524527,-71.137784,Acquia,"[-71.137784, 42.524527]","{'type': 'Point', 'coordinates': [-71.137784, 42.524527]}",enterprise,2007,q2,400,q4,others,big company
323,San Diego,USA,32.939673,-117.240799,Chumby,"[-117.240799, 32.939673]","{'type': 'Point', 'coordinates': [-117.240799, 32.939673]}",hardware,2005,q2,20,q3,others,small company
324,Brooklyn,USA,40.694731,-73.983268,Etsy,"[-73.983268, 40.694731]","{'type': 'Point', 'coordinates': [-73.983268, 40.694731]}",ecommerce,2005,q2,300,q4,others,big company
325,Palo Alto,USA,37.496737,-122.245323,Tesla Motors,"[-122.245323, 37.496737]","{'type': 'Point', 'coordinates': [-122.245323, 37.496737]}",automotive,2003,q1,500,q4,others,big company
326,Redwood City,USA,37.3208403,-121.9479223,Bunchball,"[-121.9479223, 37.3208403]","{'type': 'Point', 'coordinates': [-121.9479223, 37.3208403]}",software,2005,q2,60,q4,tech,mid company
327,Cupertino,USA,37.330534,-122.028961,Apple,"[-122.028961, 37.330534]","{'type': 'Point', 'coordinates': [-122.028961, 37.330534]}",hardware,1976,q1,80000,q4,others,big company
328,Edison,USA,40.565602,-74.331811,LiveHire,"[-74.331811, 40.565602]","{'type': 'Point', 'coordinates': [-74.331811, 40.565602]}",games_video,2007,q2,5,q2,gaming,small company
329,New York,USA,40.754698,-73.992152,Xanga,"[-73.992152, 40.754698]","{'type': 'Point', 'coordinates': [-73.992152, 40.754698]}",web,1999,q1,22,q3,tech,small company
330,New York,USA,37.402802,-122.117418,TravelMuse,"[-122.117418, 37.402802]","{'type': 'Point', 'coordinates': [-122.117418, 37.402802]}",web,2007,q2,11,q3,tech,small company
331,,USA,37.09024,-95.712891,ice,"[-95.712891, 37.09024]","{'type': 'Point', 'coordinates': [-95.712891, 37.09024]}",ecommerce,1999,q1,80,q4,others,mid company
332,San Francisco,USA,37.763652,-122.421778,Mogad,"[-122.421778, 37.763652]","{'type': 'Point', 'coordinates': [-122.421778, 37.763652]}",network_hosting,2007,q2,2,q1,others,small company
333,Sunnyvale,USA,37.385225,-121.991912,4Home,"[-121.991912, 37.385225]","{'type': 'Point', 'coordinates': [-121.991912, 37.385225]}",software,2006,q2,36,q4,tech,mid company
334,Seattle,USA,47.6399006,-122.1914274,Livemocha,"[-122.1914274, 47.6399006]","{'type': 'Point', 'coordinates': [-122.1914274, 47.6399006]}",education,2007,q2,35,q4,others,mid company
335,Carrollton,USA,33.020526,-96.848836,Woot,"[-96.848836, 33.020526]","{'type': 'Point', 'coordinates': [-96.848836, 33.020526]}",web,2004,q1,200,q4,tech,mid company
336,Chicago,USA,41.883551,-87.636411,Mpayy,"[-87.636411, 41.883551]","{'type': 'Point', 'coordinates': [-87.636411, 41.883551]}",ecommerce,2007,q2,2,q1,others,small company
337,San Mateo,USA,37.553743,-122.300246,fabrik,"[-122.300246, 37.553743]","{'type': 'Point', 'coordinates': [-122.300246, 37.553743]}",network_hosting,2005,q2,175,q4,others,mid company
338,San Francisco,USA,37.798853,-122.398599,Widgetbox,"[-122.398599, 37.798853]","{'type': 'Point', 'coordinates': [-122.398599, 37.798853]}",other,2012,q4,30,q4,others,mid company
339,Los Angeles,USA,34.051368,-118.256305,Oversee,"[-118.256305, 34.051368]","{'type': 'Point', 'coordinates': [-118.256305, 34.051368]}",web,2000,q1,150,q4,tech,mid company
340,San Mateo,USA,37.557637,-122.285714,SuccessFactors,"[-122.285714, 37.557637]","{'type': 'Point', 'coordinates': [-122.285714, 37.557637]}",enterprise,2001,q1,1200,q4,others,big company
341,Brno,CZE,49.2259017,16.5692822,Webnode,"[16.5692822, 49.2259017]","{'type': 'Point', 'coordinates': [16.5692822, 49.2259017]}",network_hosting,2008,q3,30,q4,others,mid company
342,London,GBR,51.500152,-0.126236,WAYN,"[-0.126236, 51.500152]","{'type': 'Point', 'coordinates': [-0.126236, 51.500152]}",network_hosting,2002,q1,42,q4,others,mid company
343,,ARG,37.09024,-95.712891,Boobik,"[-95.712891, 37.09024]","{'type': 'Point', 'coordinates': [-95.712891, 37.09024]}",web,2007,q2,3,q1,tech,small company
344,London,GBR,51.522413,-0.0926903,UnLtdWorld,"[-0.0926903, 51.522413]","{'type': 'Point', 'coordinates': [-0.0926903, 51.522413]}",enterprise,2007,q2,4,q2,others,small company
345,Kolkata,IND,22.572646,88.363895,Scrabulous,"[88.363895, 22.572646]","{'type': 'Point', 'coordinates': [88.363895, 22.572646]}",games_video,2006,q2,30,q4,gaming,mid company
346,Linkoping,SWE,58.415755,15.625419,Twingly,"[15.625419, 58.415755]","{'type': 'Point', 'coordinates': [15.625419, 58.415755]}",search,2006,q2,12,q3,tech,small company
347,Simi Valley,USA,34.280555,-118.691285,ReimagineMemories,"[-118.691285, 34.280555]","{'type': 'Point', 'coordinates': [-118.691285, 34.280555]}",web,2005,q2,2,q1,tech,small company
348,Arvada,USA,39.851338,-105.139804,Blogonize,"[-105.139804, 39.851338]","{'type': 'Point', 'coordinates': [-105.139804, 39.851338]}",web,2007,q2,1,,tech,small company
349,Palo Alto,USA,37.766909,-122.406676,Proximic,"[-122.406676, 37.766909]","{'type': 'Point', 'coordinates': [-122.406676, 37.766909]}",analytics,2006,q2,20,q3,others,small company
350,Hamburg,DEU,53.555554,9.98793,XING,"[9.98793, 53.555554]","{'type': 'Point', 'coordinates': [9.98793, 53.555554]}",network_hosting,2003,q1,500,q4,others,big company
351,San Francisco,USA,37.7891288,-122.4020276,Roost,"[-122.4020276, 37.7891288]","{'type': 'Point', 'coordinates': [-122.4020276, 37.7891288]}",software,2007,q2,15,q3,tech,small company
352,Boulder,USA,40.01621,-105.28131,Lijit Networks,"[-105.28131, 40.01621]","{'type': 'Point', 'coordinates': [-105.28131, 40.01621]}",advertising,2006,q2,50,q4,others,mid company
353,Limerick,IRL,52.6638571,-8.6267726,WorldTV,"[-8.6267726, 52.6638571]","{'type': 'Point', 'coordinates': [-8.6267726, 52.6638571]}",games_video,2006,q2,5,q2,gaming,small company
354,London,GBR,51.5001524,-0.1262362,WorldTV,"[-0.1262362, 51.5001524]","{'type': 'Point', 'coordinates': [-0.1262362, 51.5001524]}",games_video,2006,q2,5,q2,gaming,small company
355,Santa Monica,USA,34.031764,-118.461884,WonderHowTo,"[-118.461884, 34.031764]","{'type': 'Point', 'coordinates': [-118.461884, 34.031764]}",games_video,2008,q3,12,q3,gaming,small company
356,Wake Forest,USA,39.3996,-84.5615,5pm,"[-84.5615, 39.3996]","{'type': 'Point', 'coordinates': [-84.5615, 39.3996]}",software,2003,q1,6,q2,tech,small company
357,San Francisco,USA,37.2906027,-121.9317853,clipsync,"[-121.9317853, 37.2906027]","{'type': 'Point', 'coordinates': [-121.9317853, 37.2906027]}",web,2007,q2,28,q4,tech,mid company
358,San Francisco,USA,37.775196,-122.419204,Heroku,"[-122.419204, 37.775196]","{'type': 'Point', 'coordinates': [-122.419204, 37.775196]}",enterprise,2007,q2,80,q4,others,mid company
359,Schaumburg,USA,42.027319,-88.079763,Motorola Solutions,"[-88.079763, 42.027319]","{'type': 'Point', 'coordinates': [-88.079763, 42.027319]}",enterprise,1928,q1,51000,q4,others,big company
360,San Francisco,USA,37.788266,-122.403865,Lookery,"[-122.403865, 37.788266]","{'type': 'Point', 'coordinates': [-122.403865, 37.788266]}",web,2007,q2,9,q3,tech,small company
361,Cambridge,USA,42.398424,-71.130297,Lookery,"[-71.130297, 42.398424]","{'type': 'Point', 'coordinates': [-71.130297, 42.398424]}",web,2007,q2,9,q3,tech,small company
362,San Francisco,USA,37.788827,-122.38944,XLR8 Mobile,"[-122.38944, 37.788827]","{'type': 'Point', 'coordinates': [-122.38944, 37.788827]}",web,2006,q2,21,q3,tech,small company
363,Mountain View,USA,37.392962,-122.079114,Mill River Labs,"[-122.079114, 37.392962]","{'type': 'Point', 'coordinates': [-122.079114, 37.392962]}",web,2007,q2,5,q2,tech,small company
364,Berkeley,USA,37.864256,-122.26694,FotoFlexer,"[-122.26694, 37.864256]","{'type': 'Point', 'coordinates': [-122.26694, 37.864256]}",public_relations,2007,q2,17,q3,others,small company
365,Louisville,USA,38.257035,-85.717393,First30Days,"[-85.717393, 38.257035]","{'type': 'Point', 'coordinates': [-85.717393, 38.257035]}",web,2008,q3,17,q3,tech,small company
366,Nashua,USA,42.710437,-71.44698,LimeAll,"[-71.44698, 42.710437]","{'type': 'Point', 'coordinates': [-71.44698, 42.710437]}",web,2007,q2,2,q1,tech,small company
367,Tolouse,FRA,43.604071,1.434685,Web2Wave,"[1.434685, 43.604071]","{'type': 'Point', 'coordinates': [1.434685, 43.604071]}",web,2007,q2,3,q1,tech,small company
368,Athens,USA,33.90886,-83.324521,Maugans Corp,"[-83.324521, 33.90886]","{'type': 'Point', 'coordinates': [-83.324521, 33.90886]}",web,2002,q1,4,q2,tech,small company
369,Overland Park,USA,38.89055,-94.671644,iModules Software,"[-94.671644, 38.89055]","{'type': 'Point', 'coordinates': [-94.671644, 38.89055]}",web,2000,q1,67,q4,tech,mid company
370,Bellevue,USA,47.58181,-122.154837,Expedia,"[-122.154837, 47.58181]","{'type': 'Point', 'coordinates': [-122.154837, 47.58181]}",web,1996,q1,4400,q4,tech,big company
371,Austin,USA,30.384453,-97.709809,BreakingPoint Systems,"[-97.709809, 30.384453]","{'type': 'Point', 'coordinates': [-97.709809, 30.384453]}",security,2005,q2,109,q4,others,mid company
372,Reston,USA,38.9530391,-77.3479238,VisualCV,"[-77.3479238, 38.9530391]","{'type': 'Point', 'coordinates': [-77.3479238, 38.9530391]}",web,2006,q2,5,q2,tech,small company
373,,USA,38.003376,-79.420926,HonestMall,"[-79.420926, 38.003376]","{'type': 'Point', 'coordinates': [-79.420926, 38.003376]}",web,2004,q1,30,q4,tech,mid company
374,Honolulu,USA,21.338849,-157.837351,FutonMedia,"[-157.837351, 21.338849]","{'type': 'Point', 'coordinates': [-157.837351, 21.338849]}",web,2007,q2,2,q1,tech,small company
375,West Hollywood,USA,34.096359,-118.371279,Mibura,"[-118.371279, 34.096359]","{'type': 'Point', 'coordinates': [-118.371279, 34.096359]}",enterprise,2008,q3,10,q3,others,small company
376,Barcelona,ESP,41.383182,2.163697,]project-open[,"[2.163697, 41.383182]","{'type': 'Point', 'coordinates': [2.163697, 41.383182]}",software,2003,q1,3,q1,tech,small company
377,Whistler,CAN,50.123306,-122.96391,ZiFiMusic,"[-122.96391, 50.123306]","{'type': 'Point', 'coordinates': [-122.96391, 50.123306]}",web,2007,q2,1,,tech,small company
378,Kirkland,USA,47.704875,-122.187925,PokerPlayersSocialNetwork,"[-122.187925, 47.704875]","{'type': 'Point', 'coordinates': [-122.187925, 47.704875]}",web,2008,q3,3,q1,tech,small company
379,Philadelphia,USA,39.952229,-75.162644,myfirstpaycheck,"[-75.162644, 39.952229]","{'type': 'Point', 'coordinates': [-75.162644, 39.952229]}",web,2007,q2,4,q2,tech,small company
380,Winston Salem,USA,36.09506,-80.241433,VerticalCurve,"[-80.241433, 36.09506]","{'type': 'Point', 'coordinates': [-80.241433, 36.09506]}",web,2002,q1,5,q2,tech,small company
381,Goleta,USA,34.431454,-119.855405,Citrix Online,"[-119.855405, 34.431454]","{'type': 'Point', 'coordinates': [-119.855405, 34.431454]}",web,2003,q1,700,q4,tech,big company
382,Sydney,AUS,-34.054416,151.039775,thatsmymouse,"[151.039775, -34.054416]","{'type': 'Point', 'coordinates': [151.039775, -34.054416]}",web,2008,q3,3,q1,tech,small company
383,Sam Jose,USA,37.349317,-121.878844,MerchantOS,"[-121.878844, 37.349317]","{'type': 'Point', 'coordinates': [-121.878844, 37.349317]}",web,2003,q1,2,q1,tech,small company
384,los altos,USA,37.377624,-122.113773,SimpleFeed,"[-122.113773, 37.377624]","{'type': 'Point', 'coordinates': [-122.113773, 37.377624]}",web,2004,q1,22,q3,tech,small company
385,Vancouver,CAN,49.285173,-123.095238,memelabs,"[-123.095238, 49.285173]","{'type': 'Point', 'coordinates': [-123.095238, 49.285173]}",web,2006,q2,10,q3,tech,small company
386,Seattle,USA,47.6064,-122.3308,PopShops,"[-122.3308, 47.6064]","{'type': 'Point', 'coordinates': [-122.3308, 47.6064]}",web,2006,q2,3,q1,tech,small company
387,Seattle,USA,47.599136,-122.334393,Mergelab,"[-122.334393, 47.599136]","{'type': 'Point', 'coordinates': [-122.334393, 47.599136]}",web,2007,q2,3,q1,tech,small company
388,Seattle,USA,47.650674,-122.349863,Survey Analytics,"[-122.349863, 47.650674]","{'type': 'Point', 'coordinates': [-122.349863, 47.650674]}",web,2003,q1,100,q4,tech,mid company
389,San Francisco,USA,37.762512,-122.46649,Craigslist,"[-122.46649, 37.762512]","{'type': 'Point', 'coordinates': [-122.46649, 37.762512]}",web,1995,q1,25,q3,tech,small company
390,Seattle,USA,47.615313,-122.323408,eNotes,"[-122.323408, 47.615313]","{'type': 'Point', 'coordinates': [-122.323408, 47.615313]}",web,2004,q1,11,q3,tech,small company
391,Alameda,USA,37.773545,-122.278487,TripnTale,"[-122.278487, 37.773545]","{'type': 'Point', 'coordinates': [-122.278487, 37.773545]}",web,2007,q2,3,q1,tech,small company
392,Encino,USA,34.09846,-118.332885,mobileStorm,"[-118.332885, 34.09846]","{'type': 'Point', 'coordinates': [-118.332885, 34.09846]}",public_relations,1999,q1,40,q4,others,mid company
393,Seattle,USA,47.680496,-122.120938,TalentSpring,"[-122.120938, 47.680496]","{'type': 'Point', 'coordinates': [-122.120938, 47.680496]}",web,2006,q2,9,q3,tech,small company
394,Doha,QAT,25.2948,51.5082,Triptuber,"[51.5082, 25.2948]","{'type': 'Point', 'coordinates': [51.5082, 25.2948]}",games_video,2008,q3,2,q1,gaming,small company
395,chicago,USA,41.955054,-87.673059,skinnyCorp,"[-87.673059, 41.955054]","{'type': 'Point', 'coordinates': [-87.673059, 41.955054]}",web,2001,q1,45,q4,tech,mid company
396,Palo Alto,USA,37.407752,-122.154565,Collarity,"[-122.154565, 37.407752]","{'type': 'Point', 'coordinates': [-122.154565, 37.407752]}",advertising,2005,q2,30,q4,others,mid company
397,Bangalore,IND,12.933644,77.628576,Vaakya Technologies,"[77.628576, 12.933644]","{'type': 'Point', 'coordinates': [77.628576, 12.933644]}",software,2003,q1,40,q4,tech,mid company
398,New York,USA,40.707253,-74.007413,Metromole,"[-74.007413, 40.707253]","{'type': 'Point', 'coordinates': [-74.007413, 40.707253]}",web,2007,q2,3,q1,tech,small company
399,Gdynia,POL,54.538851,18.467386,apivision,"[18.467386, 54.538851]","{'type': 'Point', 'coordinates': [18.467386, 54.538851]}",web,2003,q1,2,q1,tech,small company
400,Utrecht,NLD,52.0799794,5.1230002,Mininova,"[5.1230002, 52.0799794]","{'type': 'Point', 'coordinates': [5.1230002, 52.0799794]}",search,2005,q2,5,q2,tech,small company
401,San Francisco,USA,37.790032,-122.404488,Unknown Vector,"[-122.404488, 37.790032]","{'type': 'Point', 'coordinates': [-122.404488, 37.790032]}",web,2008,q3,7,q2,tech,small company
402,East Brunswick,USA,40.407946,-74.411658,Jet Numbers,"[-74.411658, 40.407946]","{'type': 'Point', 'coordinates': [-74.411658, 40.407946]}",web,2006,q2,5,q2,tech,small company
403,Brooklyn,USA,40.684257,-73.961981,Brownstoner Media,"[-73.961981, 40.684257]","{'type': 'Point', 'coordinates': [-73.961981, 40.684257]}",web,2004,q1,2,q1,tech,small company
404,Westminster,USA,39.89674,-105.07359,SpotXchange,"[-105.07359, 39.89674]","{'type': 'Point', 'coordinates': [-105.07359, 39.89674]}",advertising,2006,q2,24,q3,others,small company
405,Bellevue,USA,47.6097449,-122.196699,Limeade,"[-122.196699, 47.6097449]","{'type': 'Point', 'coordinates': [-122.196699, 47.6097449]}",health,2006,q2,55,q4,others,mid company
406,Los Angeles,USA,34.059721,-118.425401,PlanJam,"[-118.425401, 34.059721]","{'type': 'Point', 'coordinates': [-118.425401, 34.059721]}",web,2006,q2,3,q1,tech,small company
407,Philadelphia,USA,39.9564403,-75.1961715,Vuzit,"[-75.1961715, 39.9564403]","{'type': 'Point', 'coordinates': [-75.1961715, 39.9564403]}",software,2006,q2,6,q2,tech,small company
408,Manchester,GBR,53.443183,-2.318142,VisitorNetworks,"[-2.318142, 53.443183]","{'type': 'Point', 'coordinates': [-2.318142, 53.443183]}",hardware,2006,q2,6,q2,others,small company
409,Palo Alto,USA,37.383844,-121.918319,Mixbook,"[-121.918319, 37.383844]","{'type': 'Point', 'coordinates': [-121.918319, 37.383844]}",web,2006,q2,90,q4,tech,mid company
410,San Francisco,USA,37.776467,-122.395792,Kazowie,"[-122.395792, 37.776467]","{'type': 'Point', 'coordinates': [-122.395792, 37.776467]}",web,2007,q2,6,q2,tech,small company
411,Acton,USA,42.445825,-71.434135,Otrib,"[-71.434135, 42.445825]","{'type': 'Point', 'coordinates': [-71.434135, 42.445825]}",web,2007,q2,2,q1,tech,small company
412,Linz,AUT,48.305996,14.285917,tomatic,"[14.285917, 48.305996]","{'type': 'Point', 'coordinates': [14.285917, 48.305996]}",web,2007,q2,1,,tech,small company
413,Westminster,USA,39.89674,-105.07359,Booyah Networks,"[-105.07359, 39.89674]","{'type': 'Point', 'coordinates': [-105.07359, 39.89674]}",web,2001,q1,42,q4,tech,mid company
414,New York,USA,40.75033,-73.968173,HeadStrong Brain Gym,"[-73.968173, 40.75033]","{'type': 'Point', 'coordinates': [-73.968173, 40.75033]}",software,2006,q2,5,q2,tech,small company
415,Palo Alto,USA,37.451255,-122.117133,Paglo,"[-122.117133, 37.451255]","{'type': 'Point', 'coordinates': [-122.117133, 37.451255]}",search,2007,q2,9,q3,tech,small company
416,Orem,USA,40.32462,-111.679755,Bungee Labs,"[-111.679755, 40.32462]","{'type': 'Point', 'coordinates': [-111.679755, 40.32462]}",software,2002,q1,38,q4,tech,mid company
417,Bellevue,USA,47.6106,-122.1997,Yodio,"[-122.1997, 47.6106]","{'type': 'Point', 'coordinates': [-122.1997, 47.6106]}",web,2005,q2,4,q2,tech,small company
418,San Jose,USA,37.244187,-121.9053,JukeFly,"[-121.9053, 37.244187]","{'type': 'Point', 'coordinates': [-121.9053, 37.244187]}",games_video,2007,q2,2,q1,gaming,small company
419,Roseville,USA,38.744194,-121.234636,LittleEngine,"[-121.234636, 38.744194]","{'type': 'Point', 'coordinates': [-121.234636, 38.744194]}",web,2007,q2,5,q2,tech,small company
420,Seattle,USA,47.66274,-122.300863,Movaya,"[-122.300863, 47.66274]","{'type': 'Point', 'coordinates': [-122.300863, 47.66274]}",software,2006,q2,20,q3,tech,small company
421,Costa Mesa,USA,33.689171,-117.874221,Experian,"[-117.874221, 33.689171]","{'type': 'Point', 'coordinates': [-117.874221, 33.689171]}",web,1980,q1,15500,q4,tech,big company
422,,USA,26.524058,-80.064158,Cellware,"[-80.064158, 26.524058]","{'type': 'Point', 'coordinates': [-80.064158, 26.524058]}",web,2007,q2,25,q3,tech,small company
423,Seattle,USA,47.634444,-122.3419,LyfeSystems,"[-122.3419, 47.634444]","{'type': 'Point', 'coordinates': [-122.3419, 47.634444]}",web,2007,q2,9,q3,tech,small company
424,San Carlos,USA,37.494965,-122.267654,Kaddoz,"[-122.267654, 37.494965]","{'type': 'Point', 'coordinates': [-122.267654, 37.494965]}",web,2007,q2,4,q2,tech,small company
425,San Francisco,USA,37.798853,-122.398599,ManageMyAdvertising,"[-122.398599, 37.798853]","{'type': 'Point', 'coordinates': [-122.398599, 37.798853]}",web,1997,q1,1,,tech,small company
426,Roubaix,FRA,50.694712,3.165225,Poodz,"[3.165225, 50.694712]","{'type': 'Point', 'coordinates': [3.165225, 50.694712]}",web,2008,q3,5,q2,tech,small company
427,London,GBR,51.5220072,-0.0766034,Bragster,"[-0.0766034, 51.5220072]","{'type': 'Point', 'coordinates': [-0.0766034, 51.5220072]}",web,2007,q2,10,q3,tech,small company
428,Los Angeles,USA,34.064629,-118.469316,Jirbo,"[-118.469316, 34.064629]","{'type': 'Point', 'coordinates': [-118.469316, 34.064629]}",mobile,2008,q3,23,q3,tech,small company
429,New York,USA,40.752325,-73.988477,Oddcast,"[-73.988477, 40.752325]","{'type': 'Point', 'coordinates': [-73.988477, 40.752325]}",web,1999,q1,65,q4,tech,mid company
430,Duluth,USA,33.984004,-84.092596,uVuMobile,"[-84.092596, 33.984004]","{'type': 'Point', 'coordinates': [-84.092596, 33.984004]}",software,2000,q1,26,q4,tech,mid company
431,Amsterdam,NLD,52.365001,4.892903,RankOne Media Group,"[4.892903, 52.365001]","{'type': 'Point', 'coordinates': [4.892903, 52.365001]}",web,2002,q1,10,q3,tech,small company
432,Munich,DEU,48.124827,11.556452,amiando,"[11.556452, 48.124827]","{'type': 'Point', 'coordinates': [11.556452, 48.124827]}",web,2006,q2,76,q4,tech,mid company
433,London,GBR,51.5248598,-0.0836311,amiando,"[-0.0836311, 51.5248598]","{'type': 'Point', 'coordinates': [-0.0836311, 51.5248598]}",web,2006,q2,76,q4,tech,mid company
434,Hong Kong,HKG,22.2799907,114.1587983,amiando,"[114.1587983, 22.2799907]","{'type': 'Point', 'coordinates': [114.1587983, 22.2799907]}",web,2006,q2,76,q4,tech,mid company
435,Paris,FRA,48.857993,2.381153,amiando,"[2.381153, 48.857993]","{'type': 'Point', 'coordinates': [2.381153, 48.857993]}",web,2006,q2,76,q4,tech,mid company
436,Kennebunk,USA,43.407099,-70.5745187,HEXIO,"[-70.5745187, 43.407099]","{'type': 'Point', 'coordinates': [-70.5745187, 43.407099]}",other,2008,q3,1,,others,small company
437,Pasadena,USA,34.146436,-118.153136,Snap Technologies,"[-118.153136, 34.146436]","{'type': 'Point', 'coordinates': [-118.153136, 34.146436]}",web,2004,q1,32,q4,tech,mid company
438,Scottsdale,USA,33.610015,-111.907962,MyCityFaces,"[-111.907962, 33.610015]","{'type': 'Point', 'coordinates': [-111.907962, 33.610015]}",advertising,2007,q2,4,q2,others,small company
439,Santa Monica,USA,34.052187,-118.243425,GumGum,"[-118.243425, 34.052187]","{'type': 'Point', 'coordinates': [-118.243425, 34.052187]}",advertising,2007,q2,55,q4,others,mid company
440,San Francisco,USA,37.78691,-122.404403,Pivotal Labs,"[-122.404403, 37.78691]","{'type': 'Point', 'coordinates': [-122.404403, 37.78691]}",consulting,1989,q1,225,q4,others,mid company
441,New York,USA,40.7343617,-73.9910647,Pivotal Labs,"[-73.9910647, 40.7343617]","{'type': 'Point', 'coordinates': [-73.9910647, 40.7343617]}",consulting,1989,q1,225,q4,others,mid company
442,Boulder,USA,40.019376,-105.273311,Pivotal Labs,"[-105.273311, 40.019376]","{'type': 'Point', 'coordinates': [-105.273311, 40.019376]}",consulting,1989,q1,225,q4,others,mid company
443,Austin,USA,30.2672,-97.742306,UnsubCentral,"[-97.742306, 30.2672]","{'type': 'Point', 'coordinates': [-97.742306, 30.2672]}",web,2003,q1,10,q3,tech,small company
444,San Francisco,USA,37.775196,-122.419204,Three Rings,"[-122.419204, 37.775196]","{'type': 'Point', 'coordinates': [-122.419204, 37.775196]}",web,2001,q1,30,q4,tech,mid company
445,Austin,USA,30.2672,-97.742306,SKYLIST,"[-97.742306, 30.2672]","{'type': 'Point', 'coordinates': [-97.742306, 30.2672]}",web,1996,q1,65,q4,tech,mid company
446,New York,USA,40.725568,-73.998208,GroundReport,"[-73.998208, 40.725568]","{'type': 'Point', 'coordinates': [-73.998208, 40.725568]}",web,2006,q2,6,q2,tech,small company
447,Santa Cruz,USA,36.977905,-122.03336,Recombinant,"[-122.03336, 36.977905]","{'type': 'Point', 'coordinates': [-122.03336, 36.977905]}",games_video,2005,q2,10,q3,gaming,small company
448,columbus,USA,39.976837,-83.042051,2 under entertainment,"[-83.042051, 39.976837]","{'type': 'Point', 'coordinates': [-83.042051, 39.976837]}",web,2007,q2,4,q2,tech,small company
449,Seattle,USA,47.620716,-122.347533,Shelfari,"[-122.347533, 47.620716]","{'type': 'Point', 'coordinates': [-122.347533, 47.620716]}",web,2006,q2,11,q3,tech,small company
450,Portland,USA,43.65467,-70.262434,LibraryThing,"[-70.262434, 43.65467]","{'type': 'Point', 'coordinates': [-70.262434, 43.65467]}",web,2005,q2,10,q3,tech,small company
451,New York,USA,40.725883,-74.006196,TheLadders,"[-74.006196, 40.725883]","{'type': 'Point', 'coordinates': [-74.006196, 40.725883]}",web,2003,q1,110,q4,tech,mid company
452,San Francisco,USA,37.7876175,-122.4033943,Fat Goose,"[-122.4033943, 37.7876175]","{'type': 'Point', 'coordinates': [-122.4033943, 37.7876175]}",web,2007,q2,2,q1,tech,small company
453,Dallas,USA,32.812748,-96.739399,DeaLoco,"[-96.739399, 32.812748]","{'type': 'Point', 'coordinates': [-96.739399, 32.812748]}",ecommerce,2007,q2,2,q1,others,small company
454,Alviso,USA,37.4190653,-121.9741983,TiVo,"[-121.9741983, 37.4190653]","{'type': 'Point', 'coordinates': [-121.9741983, 37.4190653]}",hardware,1997,q1,400,q4,others,big company
455,La Jolla,USA,32.874543,-117.214722,One Voice Technologies,"[-117.214722, 32.874543]","{'type': 'Point', 'coordinates': [-117.214722, 32.874543]}",software,1991,q1,9,q3,tech,small company
456,Ladera Ranch,USA,33.551221,-117.632731,Audio Lunchbox,"[-117.632731, 33.551221]","{'type': 'Point', 'coordinates': [-117.632731, 33.551221]}",web,2003,q1,8,q2,tech,small company
457,San Jose,USA,37.332828,-121.884399,Subimage,"[-121.884399, 37.332828]","{'type': 'Point', 'coordinates': [-121.884399, 37.332828]}",web,1998,q1,2,q1,tech,small company
458,Menlo Park,USA,37.454701,-122.1853756,Fluc,"[-122.1853756, 37.454701]","{'type': 'Point', 'coordinates': [-122.1853756, 37.454701]}",hospitality,2013,q4,3,q1,others,startup
459,Scottsdale,EGY,33.5060338,-111.9261618,PerfSpot,"[-111.9261618, 33.5060338]","{'type': 'Point', 'coordinates': [-111.9261618, 33.5060338]}",web,2007,q2,50,q4,tech,mid company
460,Los Gatos,USA,37.25142,-121.968687,Netflix,"[-121.968687, 37.25142]","{'type': 'Point', 'coordinates': [-121.968687, 37.25142]}",games_video,1997,q1,2000,q4,gaming,big company
461,Bangalore,IND,35.929723,139.605025,Yulop,"[139.605025, 35.929723]","{'type': 'Point', 'coordinates': [139.605025, 35.929723]}",web,2007,q2,8,q2,tech,small company
462,,USA,40.748895,-74.258602,ShareMethods,"[-74.258602, 40.748895]","{'type': 'Point', 'coordinates': [-74.258602, 40.748895]}",enterprise,2003,q1,7,q2,others,small company
463,Los Angeles,USA,37.446823,-122.161523,Social Gaming Network,"[-122.161523, 37.446823]","{'type': 'Point', 'coordinates': [-122.161523, 37.446823]}",games_video,2011,q4,100,q4,gaming,mid company
464,Beverly Hills,USA,34.0698494,-118.4054182,Social Gaming Network,"[-118.4054182, 34.0698494]","{'type': 'Point', 'coordinates': [-118.4054182, 34.0698494]}",games_video,2011,q4,100,q4,gaming,mid company
465,Millstone Township,USA,40.219214,-74.370313,AskPoodle,"[-74.370313, 40.219214]","{'type': 'Point', 'coordinates': [-74.370313, 40.219214]}",web,2005,q2,2,q1,tech,small company
466,Bradenton,USA,27.434873,-82.580968,Scary Ideas,"[-82.580968, 27.434873]","{'type': 'Point', 'coordinates': [-82.580968, 27.434873]}",web,2005,q2,1,,tech,small company
467,Lambertville,USA,40.363934,-74.896109,Winescorecard,"[-74.896109, 40.363934]","{'type': 'Point', 'coordinates': [-74.896109, 40.363934]}",advertising,2007,q2,2,q1,others,small company
468,,ISR,31.046051,34.851612,FeedJournal,"[34.851612, 31.046051]","{'type': 'Point', 'coordinates': [34.851612, 31.046051]}",web,2006,q2,1,,tech,small company
469,San Francisco,USA,37.7759675,-122.3931128,Coverity,"[-122.3931128, 37.7759675]","{'type': 'Point', 'coordinates': [-122.3931128, 37.7759675]}",enterprise,2002,q1,300,q4,others,big company
470,Millstone Township,USA,40.219214,-74.370313,Stumpedia,"[-74.370313, 40.219214]","{'type': 'Point', 'coordinates': [-74.370313, 40.219214]}",web,2008,q3,1,,tech,small company
471,Roswell,USA,34.016362,-84.322687,Ownersite Technologies,"[-84.322687, 34.016362]","{'type': 'Point', 'coordinates': [-84.322687, 34.016362]}",web,2000,q1,10,q3,tech,small company
472,London,GBR,51.523676,-0.107843,cScape,"[-0.107843, 51.523676]","{'type': 'Point', 'coordinates': [-0.107843, 51.523676]}",web,1996,q1,70,q4,tech,mid company
473,Austin,USA,30.27646,-97.746387,Compulsivo,"[-97.746387, 30.27646]","{'type': 'Point', 'coordinates': [-97.746387, 30.27646]}",software,2007,q2,2,q1,tech,small company
474,San Jose,USA,37.308591,-122.031476,Calista Technologies,"[-122.031476, 37.308591]","{'type': 'Point', 'coordinates': [-122.031476, 37.308591]}",enterprise,2006,q2,40,q4,others,mid company
475,,CAN,56.130366,-106.346771,Accell Telesystems,"[-106.346771, 56.130366]","{'type': 'Point', 'coordinates': [-106.346771, 56.130366]}",consulting,1982,q1,10,q3,others,small company
476,Portland,USA,43.657058,-70.253959,Foneshow,"[-70.253959, 43.657058]","{'type': 'Point', 'coordinates': [-70.253959, 43.657058]}",mobile,2006,q2,8,q2,tech,small company
477,San Francisco,USA,37.7766587,-122.395875,YouNoodle,"[-122.395875, 37.7766587]","{'type': 'Point', 'coordinates': [-122.395875, 37.7766587]}",analytics,2010,q4,18,q3,others,startup
478,Princeton,USA,40.396817,-74.649912,ePrep,"[-74.649912, 40.396817]","{'type': 'Point', 'coordinates': [-74.649912, 40.396817]}",education,2005,q2,8,q2,others,small company
479,Paris,FRA,48.86931,2.324782,Exalead,"[2.324782, 48.86931]","{'type': 'Point', 'coordinates': [2.324782, 48.86931]}",search,2000,q1,150,q4,tech,mid company
480,Sewickley,USA,40.61323,-80.101527,Motionplan,"[-80.101527, 40.61323]","{'type': 'Point', 'coordinates': [-80.101527, 40.61323]}",web,2001,q1,11,q3,tech,small company
481,Sunnyvale,USA,37.371861,-121.999306,Avot Media,"[-121.999306, 37.371861]","{'type': 'Point', 'coordinates': [-121.999306, 37.371861]}",mobile,2007,q2,20,q3,tech,small company
482,"Edmonton, Alberta",CAN,53.4665377,-113.5291728,Newspond,"[-113.5291728, 53.4665377]","{'type': 'Point', 'coordinates': [-113.5291728, 53.4665377]}",web,2008,q3,2,q1,tech,small company
483,New York,USA,40.743662,-73.984268,MediaTrust,"[-73.984268, 40.743662]","{'type': 'Point', 'coordinates': [-73.984268, 40.743662]}",advertising,2004,q1,60,q4,others,mid company
484,London,GBR,51.5211159,-0.0778345,Tipped,"[-0.0778345, 51.5211159]","{'type': 'Point', 'coordinates': [-0.0778345, 51.5211159]}",web,2007,q2,2,q1,tech,small company
485,Palo Alto,USA,37.451013,-122.120699,Tacit Software,"[-122.120699, 37.451013]","{'type': 'Point', 'coordinates': [-122.120699, 37.451013]}",software,1997,q1,20,q3,tech,small company
486,Paris,FRA,48.882647,2.322551,Agematis,"[2.322551, 48.882647]","{'type': 'Point', 'coordinates': [2.322551, 48.882647]}",software,2002,q1,40,q4,tech,mid company
487,San Diego,USA,32.936973,-117.240431,RiffTrax,"[-117.240431, 32.936973]","{'type': 'Point', 'coordinates': [-117.240431, 32.936973]}",games_video,2006,q2,8,q2,gaming,small company
488,New York,USA,40.787783,-73.976413,Unype,"[-73.976413, 40.787783]","{'type': 'Point', 'coordinates': [-73.976413, 40.787783]}",network_hosting,2007,q2,1,,others,small company
489,Bethesda,USA,38.9892639,-77.0978424,GeniusRocket,"[-77.0978424, 38.9892639]","{'type': 'Point', 'coordinates': [-77.0978424, 38.9892639]}",advertising,2007,q2,10,q3,others,small company
490,Gainesville,USA,29.6502461,-82.3230981,Grooveshark,"[-82.3230981, 29.6502461]","{'type': 'Point', 'coordinates': [-82.3230981, 29.6502461]}",web,2006,q2,113,q4,tech,mid company
491,London,GBR,51.5185614,-0.1437991,BBC,"[-0.1437991, 51.5185614]","{'type': 'Point', 'coordinates': [-0.1437991, 51.5185614]}",news,1922,q1,25000,q4,others,big company
492,Burlingame,USA,37.590056,-122.347654,HD Greetings,"[-122.347654, 37.590056]","{'type': 'Point', 'coordinates': [-122.347654, 37.590056]}",games_video,2007,q2,5,q2,gaming,small company
493,San Francisco,USA,37.7892685,-122.3951844,StubHub,"[-122.3951844, 37.7892685]","{'type': 'Point', 'coordinates': [-122.3951844, 37.7892685]}",ecommerce,2000,q1,1250,q4,others,big company
494,Berkeley,USA,37.87168,-122.269494,Redux,"[-122.269494, 37.87168]","{'type': 'Point', 'coordinates': [-122.269494, 37.87168]}",games_video,2007,q2,11,q3,gaming,small company
495,San Mateo,USA,37.534317,-122.294847,CineGoGo,"[-122.294847, 37.534317]","{'type': 'Point', 'coordinates': [-122.294847, 37.534317]}",games_video,2008,q3,2,q1,gaming,small company
496,Redwood City,USA,37.386774,-121.987661,Evernote,"[-121.987661, 37.386774]","{'type': 'Point', 'coordinates': [-121.987661, 37.386774]}",software,2004,q1,280,q4,tech,big company
497,New York,USA,40.7431477,-73.9934288,8coupons,"[-73.9934288, 40.7431477]","{'type': 'Point', 'coordinates': [-73.9934288, 40.7431477]}",web,2007,q2,4,q2,tech,small company
498,Chicago,USA,42.010632,-87.66831,Inkling,"[-87.66831, 42.010632]","{'type': 'Point', 'coordinates': [-87.66831, 42.010632]}",public_relations,2007,q2,4,q2,others,small company
499,Fremont,USA,37.5541073,-121.9756765,HipLogic,"[-121.9756765, 37.5541073]","{'type': 'Point', 'coordinates': [-121.9756765, 37.5541073]}",mobile,2005,q2,20,q3,tech,small company
500,Halifax,CAN,44.645756,-63.57411,GenieKnows,"[-63.57411, 44.645756]","{'type': 'Point', 'coordinates': [-63.57411, 44.645756]}",advertising,1999,q1,30,q4,others,mid company
501,Oakland,USA,37.810949,-122.26706,Franz,"[-122.26706, 37.810949]","{'type': 'Point', 'coordinates': [-122.26706, 37.810949]}",software,1984,q1,30,q4,tech,mid company
502,New York,USA,40.744639,-73.983963,Inform Technologies,"[-73.983963, 40.744639]","{'type': 'Point', 'coordinates': [-73.983963, 40.744639]}",web,2004,q1,26,q4,tech,mid company
503,Los Gatos,USA,40.757929,-73.985506,Camlink,"[-73.985506, 40.757929]","{'type': 'Point', 'coordinates': [-73.985506, 40.757929]}",games_video,2007,q2,4,q2,gaming,small company
504,Chicago,USA,41.886368,-87.641739,Academic Capital Exchange,"[-87.641739, 41.886368]","{'type': 'Point', 'coordinates': [-87.641739, 41.886368]}",ecommerce,2008,q3,5,q2,others,small company
505,Mountain View,USA,37.428373,-122.097604,Intuit,"[-122.097604, 37.428373]","{'type': 'Point', 'coordinates': [-122.097604, 37.428373]}",software,1983,q1,8000,q4,tech,big company
506,San Diego,USA,32.957695,-117.158245,Intuit,"[-117.158245, 32.957695]","{'type': 'Point', 'coordinates': [-117.158245, 32.957695]}",software,1983,q1,8000,q4,tech,big company
507,Barcelona,ESP,41.387917,2.169919,Starfish Community Group,"[2.169919, 41.387917]","{'type': 'Point', 'coordinates': [2.169919, 41.387917]}",advertising,2007,q2,7,q2,others,small company
508,Cork,IRL,51.8892282,-8.5240303,Sxoop Technologies,"[-8.5240303, 51.8892282]","{'type': 'Point', 'coordinates': [-8.5240303, 51.8892282]}",software,2005,q2,1,,tech,small company
509,San Diego,USA,32.912063,-117.114827,Covario,"[-117.114827, 32.912063]","{'type': 'Point', 'coordinates': [-117.114827, 32.912063]}",enterprise,2006,q2,100,q4,others,mid company
510,Las Vegas,USA,36.225757,-115.217851,TripSailor,"[-115.217851, 36.225757]","{'type': 'Point', 'coordinates': [-115.217851, 36.225757]}",web,2007,q2,2,q1,tech,small company
511,Woodbridge,USA,38.6581,-77.2501,Operation Sports,"[-77.2501, 38.6581]","{'type': 'Point', 'coordinates': [-77.2501, 38.6581]}",games_video,1998,q1,4,q2,gaming,small company
512,Birmingham,USA,33.477448,-86.819367,Realtime Applications,"[-86.819367, 33.477448]","{'type': 'Point', 'coordinates': [-86.819367, 33.477448]}",software,2004,q1,4,q2,tech,small company
513,Austin,USA,30.414146,-97.807032,Top of the Barrel,"[-97.807032, 30.414146]","{'type': 'Point', 'coordinates': [-97.807032, 30.414146]}",web,2006,q2,7,q2,tech,small company
514,New York,USA,40.794985,-73.96831,RareShare,"[-73.96831, 40.794985]","{'type': 'Point', 'coordinates': [-73.96831, 40.794985]}",network_hosting,2008,q3,2,q1,others,small company
515,San Francisco,USA,37.781002,-122.406912,Tiny Pictures,"[-122.406912, 37.781002]","{'type': 'Point', 'coordinates': [-122.406912, 37.781002]}",mobile,2005,q2,18,q3,tech,small company
516,Round Rock,USA,30.486188,-97.671188,Dell,"[-97.671188, 30.486188]","{'type': 'Point', 'coordinates': [-97.671188, 30.486188]}",hardware,1984,q1,80000,q4,others,big company
517,Kauniainen,FIN,60.214102,24.704663,Scred,"[24.704663, 60.214102]","{'type': 'Point', 'coordinates': [24.704663, 60.214102]}",web,2008,q3,3,q1,tech,small company
518,Van Nuys,USA,34.19099,-118.486428,Animax Entertainment,"[-118.486428, 34.19099]","{'type': 'Point', 'coordinates': [-118.486428, 34.19099]}",games_video,2001,q1,55,q4,gaming,mid company
519,sydney,AUS,-33.884685,151.216427,2threads,"[151.216427, -33.884685]","{'type': 'Point', 'coordinates': [151.216427, -33.884685]}",games_video,2004,q1,30,q4,gaming,mid company
520,San Mateo,USA,37.54763,-122.307887,SugarSync,"[-122.307887, 37.54763]","{'type': 'Point', 'coordinates': [-122.307887, 37.54763]}",web,2004,q1,60,q4,tech,mid company
521,Toulon,FRA,43.124351,5.929313,EMOB,"[5.929313, 43.124351]","{'type': 'Point', 'coordinates': [5.929313, 43.124351]}",games_video,2005,q2,8,q2,gaming,small company
522,San Francisco,USA,37.783151,-122.393323,The Industry Standard,"[-122.393323, 37.783151]","{'type': 'Point', 'coordinates': [-122.393323, 37.783151]}",web,2006,q2,4,q2,tech,small company
523,Lisbon,PRT,38.707163,-9.135517,Adegga,"[-9.135517, 38.707163]","{'type': 'Point', 'coordinates': [-9.135517, 38.707163]}",public_relations,2007,q2,3,q1,others,small company
524,Sunnyvale,USA,37.386376,-121.991471,iambic,"[-121.991471, 37.386376]","{'type': 'Point', 'coordinates': [-121.991471, 37.386376]}",software,1994,q1,15,q3,tech,small company
525,Palo Alto,USA,37.445326,-122.160671,PhotoCrank,"[-122.160671, 37.445326]","{'type': 'Point', 'coordinates': [-122.160671, 37.445326]}",web,2006,q2,3,q1,tech,small company
526,New York,USA,40.711982,-74.008622,Mochila,"[-74.008622, 40.711982]","{'type': 'Point', 'coordinates': [-74.008622, 40.711982]}",advertising,2001,q1,52,q4,others,mid company
527,"New York,",USA,40.706527,-74.011827,FixSor,"[-74.011827, 40.706527]","{'type': 'Point', 'coordinates': [-74.011827, 40.706527]}",network_hosting,2007,q2,5,q2,others,small company
528,Bend,USA,44.059936,-121.307839,NAVIS,"[-121.307839, 44.059936]","{'type': 'Point', 'coordinates': [-121.307839, 44.059936]}",software,1987,q1,65,q4,tech,mid company
529,,USA,37.419156,-122.075413,Zilpy,"[-122.075413, 37.419156]","{'type': 'Point', 'coordinates': [-122.075413, 37.419156]}",web,2006,q2,3,q1,tech,small company
530,San Francisco,USA,37.80294,-122.266978,Surf Canyon,"[-122.266978, 37.80294]","{'type': 'Point', 'coordinates': [-122.266978, 37.80294]}",search,2006,q2,4,q2,tech,small company
531,El Dorado Hills,USA,38.673971,-121.04442,TolMol,"[-121.04442, 38.673971]","{'type': 'Point', 'coordinates': [-121.04442, 38.673971]}",search,2007,q2,20,q3,tech,small company
532,Midland,USA,43.626128,-84.227415,I Heart Movies,"[-84.227415, 43.626128]","{'type': 'Point', 'coordinates': [-84.227415, 43.626128]}",games_video,2007,q2,2,q1,gaming,small company
533,Tucson,USA,32.2745229,-110.9864294,E-junkie,"[-110.9864294, 32.2745229]","{'type': 'Point', 'coordinates': [-110.9864294, 32.2745229]}",ecommerce,2004,q1,5,q2,others,small company
534,New York,USA,40.8587524,-73.7258199,OLX,"[-73.7258199, 40.8587524]","{'type': 'Point', 'coordinates': [-73.7258199, 40.8587524]}",web,2006,q2,85,q4,tech,mid company
535,Berlin,DEU,52.502633,13.441005,Qiro,"[13.441005, 52.502633]","{'type': 'Point', 'coordinates': [13.441005, 52.502633]}",mobile,2006,q2,15,q3,tech,small company
536,Toronto,CAN,43.666953,-79.388279,ModiFace,"[-79.388279, 43.666953]","{'type': 'Point', 'coordinates': [-79.388279, 43.666953]}",analytics,2007,q2,35,q4,others,mid company
537,San Francisco,USA,37.776467,-122.395792,Bleacher Report,"[-122.395792, 37.776467]","{'type': 'Point', 'coordinates': [-122.395792, 37.776467]}",sports,2007,q2,22,q3,others,small company
538,Maroochydore,AUS,-26.665908,153.088303,Sporting Connections,"[153.088303, -26.665908]","{'type': 'Point', 'coordinates': [153.088303, -26.665908]}",games_video,2007,q2,1,,gaming,small company
539,Philadelphia,USA,40.738832,-73.981534,PayLoadz,"[-73.981534, 40.738832]","{'type': 'Point', 'coordinates': [-73.981534, 40.738832]}",web,2004,q1,15,q3,tech,small company
540,Richardson,USA,32.974194,-96.714066,Boomerang Data,"[-96.714066, 32.974194]","{'type': 'Point', 'coordinates': [-96.714066, 32.974194]}",software,2007,q2,8,q2,tech,small company
541,Arezzo,ITA,43.454917,11.871332,Webtronic,"[11.871332, 43.454917]","{'type': 'Point', 'coordinates': [11.871332, 43.454917]}",hardware,2005,q2,4,q2,others,small company
542,Rome,ITA,41.980591,12.507358,Ciaobelli,"[12.507358, 41.980591]","{'type': 'Point', 'coordinates': [12.507358, 41.980591]}",network_hosting,2007,q2,20,q3,others,small company
543,Toronto,CAN,43.70391,-79.452609,FreshBooks,"[-79.452609, 43.70391]","{'type': 'Point', 'coordinates': [-79.452609, 43.70391]}",web,2003,q1,110,q4,tech,mid company
544,Pasadena,USA,34.148374,-118.121822,Central Desktop,"[-118.121822, 34.148374]","{'type': 'Point', 'coordinates': [-118.121822, 34.148374]}",public_relations,2005,q2,50,q4,others,mid company
545,Niort,FRA,46.330771,-0.474933,IT'S ART,"[-0.474933, 46.330771]","{'type': 'Point', 'coordinates': [-0.474933, 46.330771]}",web,2007,q2,3,q1,tech,small company
546,Co Cork,IRL,51.7335021,-8.7542918,LouderVoice,"[-8.7542918, 51.7335021]","{'type': 'Point', 'coordinates': [-8.7542918, 51.7335021]}",ecommerce,2006,q2,2,q1,others,small company
547,,USA,42.037302,-71.683502,ZapNat,"[-71.683502, 42.037302]","{'type': 'Point', 'coordinates': [-71.683502, 42.037302]}",web,2008,q3,2,q1,tech,small company
548,New York,USA,40.726637,-74.005177,The Media Kitchen,"[-74.005177, 40.726637]","{'type': 'Point', 'coordinates': [-74.005177, 40.726637]}",other,2001,q1,60,q4,others,mid company
549,Euless,USA,32.837318,-97.103646,Insala,"[-97.103646, 32.837318]","{'type': 'Point', 'coordinates': [-97.103646, 32.837318]}",web,1996,q1,80,q4,tech,mid company
550,Derry,USA,42.894414,-71.316744,Workpost,"[-71.316744, 42.894414]","{'type': 'Point', 'coordinates': [-71.316744, 42.894414]}",ecommerce,2008,q3,5,q2,others,small company
551,New York,USA,40.717248,-74.002662,Boonty,"[-74.002662, 40.717248]","{'type': 'Point', 'coordinates': [-74.002662, 40.717248]}",games_video,2001,q1,150,q4,gaming,mid company
552,Chicago,USA,41.88583,-87.657354,crowdSPRING,"[-87.657354, 41.88583]","{'type': 'Point', 'coordinates': [-87.657354, 41.88583]}",ecommerce,2007,q2,14,q3,others,small company
553,San Francisco,USA,37.758229,-122.439512,Fanpop,"[-122.439512, 37.758229]","{'type': 'Point', 'coordinates': [-122.439512, 37.758229]}",web,2006,q2,4,q2,tech,small company
554,New York,USA,40.739794,-73.985878,Phreesia,"[-73.985878, 40.739794]","{'type': 'Point', 'coordinates': [-73.985878, 40.739794]}",software,2005,q2,70,q4,tech,mid company
555,San Francisco,USA,37.790485,-122.40094,Sportgenic,"[-122.40094, 37.790485]","{'type': 'Point', 'coordinates': [-122.40094, 37.790485]}",advertising,2005,q2,15,q3,others,small company
556,San Francisco,USA,37.7955307,-122.4005983,99designs,"[-122.4005983, 37.7955307]","{'type': 'Point', 'coordinates': [-122.4005983, 37.7955307]}",design,2008,q3,100,q4,others,mid company
557,Collingwood,AUS,-37.8026587,144.9868546,99designs,"[144.9868546, -37.8026587]","{'type': 'Point', 'coordinates': [144.9868546, -37.8026587]}",design,2008,q3,100,q4,others,mid company
558,Berlin,DEU,52.4986199,13.4469031,99designs,"[13.4469031, 52.4986199]","{'type': 'Point', 'coordinates': [13.4469031, 52.4986199]}",design,2008,q3,100,q4,others,mid company
559,Los Angeles,USA,34.041037,-118.23341,SEO Intelligence,"[-118.23341, 34.041037]","{'type': 'Point', 'coordinates': [-118.23341, 34.041037]}",advertising,2007,q2,4,q2,others,small company
560,Atlanta,USA,33.754487,-84.389663,Mapicurious,"[-84.389663, 33.754487]","{'type': 'Point', 'coordinates': [-84.389663, 33.754487]}",mobile,2005,q2,1,,tech,small company
561,Atlanta,USA,33.859484,-84.387491,RingBranch,"[-84.387491, 33.859484]","{'type': 'Point', 'coordinates': [-84.387491, 33.859484]}",mobile,2007,q2,4,q2,tech,small company
562,Chicago,USA,42.040851,-87.750643,Ifbyphone,"[-87.750643, 42.040851]","{'type': 'Point', 'coordinates': [-87.750643, 42.040851]}",software,2005,q2,90,q4,tech,mid company
563,Needham,USA,42.299905,-71.221675,Grasshopper,"[-71.221675, 42.299905]","{'type': 'Point', 'coordinates': [-71.221675, 42.299905]}",public_relations,2003,q1,45,q4,others,mid company
564,Mountain View,USA,37.398022,-122.049143,Elance,"[-122.049143, 37.398022]","{'type': 'Point', 'coordinates': [-122.049143, 37.398022]}",web,1998,q1,100,q4,tech,mid company
