{"city":"Seattle","latitude":47.603122,"longitude":-122.333253,"name":"Wetpaint","category_code":"web","number_of_employees":47,"founded_year":2005,"geo":{"type":"Point","coordinates":[-122.333253,47.603122]}}
{"city":"New York","latitude":40.7237306,"longitude":-73.9964312,"name":"Wetpaint","category_code":"web","number_of_employees":47,"founded_year":2005,"geo":{"type":"Point","coordinates":[-73.9964312,40.7237306]}}
{"city":"Menlo Park","latitude":37.48413,"longitude":-122.169472,"name":"Gizmoz","category_code":"web","number_of_employees":null,"founded_year":2003,"geo":{"type":"Point","coordinates":[-122.169472,37.48413]}}
{"city":"Los Angeles","latitude":34.057498,"longitude":-118.446596,"name":"Helio","category_code":"mobile","number_of_employees":null,"founded_year":2005,"geo":{"type":"Point","coordinates":[-118.446596,34.057498]}}
{"city":"New York City","latitude":40.757929,"longitude":-73.985506,"name":"MeetMoi","category_code":"social","number_of_employees":15,"founded_year":2007,"geo":{"type":"Point","coordinates":[-73.985506,40.757929]}}
{"city":"New York","latitude":40.7464969,"longitude":-74.0094471,"name":"Joost","category_code":"games_video","number_of_employees":0,"founded_year":2006,"geo":{"type":"Point","coordinates":[-74.0094471,40.7464969]}}
{"city":"San Francisco","latitude":37.7768052,"longitude":-122.4169244,"name":"Twitter","category_code":"social","number_of_employees":1300,"founded_year":2006,"geo":{"type":"Point","coordinates":[-122.4169244,37.7768052]}}
{"city":"London","latitude":53.344104,"longitude":-6.267494,"name":"Babelgum","category_code":"games_video","number_of_employees":null,"founded_year":2007,"geo":{"type":"Point","coordinates":[-6.267494,53.344104]}}
{"city":"Menlo Park","latitude":37.41605,"longitude":-122.151801,"name":"Facebook","category_code":"social","number_of_employees":5299,"founded_year":2004,"geo":{"type":"Point","coordinates":[-122.151801,37.41605]}}
{"city":"Dublin","latitude":53.344104,"longitude":-6.267494,"name":"Facebook","category_code":"social","number_of_employees":5299,"founded_year":2004,"geo":{"type":"Point","coordinates":[-6.267494,53.344104]}}
{"city":"New York","latitude":40.7557162,"longitude":-73.9792469,"name":"Facebook","category_code":"social","number_of_employees":5299,"founded_year":2004,"geo":{"type":"Point","coordinates":[-73.9792469,40.7557162]}}
{"city":"Sunnyvale","latitude":37.387845,"longitude":-122.055197,"name":"Plaxo","category_code":"web","number_of_employees":50,"founded_year":2002,"geo":{"type":"Point","coordinates":[-122.055197,37.387845]}}
{"city":"San Francisco","latitude":37.778613,"longitude":-122.395289,"name":"Powerset","category_code":"search","number_of_employees":60,"founded_year":2006,"geo":{"type":"Point","coordinates":[-122.395289,37.778613]}}
{"city":"San Francisco","latitude":37.779558,"longitude":-122.393041,"name":"Technorati","category_code":"advertising","number_of_employees":35,"founded_year":2002,"geo":{"type":"Point","coordinates":[-122.393041,37.779558]}}
{"city":"San Diego","latitude":32.902266,"longitude":-117.20834,"name":"Veoh","category_code":"games_video","number_of_employees":null,"founded_year":2004,"geo":{"type":"Point","coordinates":[-117.20834,32.902266]}}
{"city":"San Francisco","latitude":37.788482,"longitude":-122.409173,"name":"Kyte","category_code":"games_video","number_of_employees":40,"founded_year":2006,"geo":{"type":"Point","coordinates":[-122.409173,37.788482]}}
{"city":"Austin","latitude":30.268735,"longitude":-97.745209,"name":"Thoof","category_code":"web","number_of_employees":null,"founded_year":2006,"geo":{"type":"Point","coordinates":[-97.745209,30.268735]}}
{"city":"New York","latitude":37.480999,"longitude":-122.173887,"name":"Jingle Networks","category_code":"mobile","number_of_employees":35,"founded_year":2005,"geo":{"type":"Point","coordinates":[-122.173887,37.480999]}}
{"city":"San Francisco","latitude":37.793148,"longitude":-122.402567,"name":"Wesabe","category_code":"web","number_of_employees":null,"founded_year":2005,"geo":{"type":"Point","coordinates":[-122.402567,37.793148]}}
{"city":"New York","latitude":40.72604,"longitude":-73.995722,"name":"Meetup","category_code":"web","number_of_employees":75,"founded_year":2002,"geo":{"type":"Point","coordinates":[-73.995722,40.72604]}}
{"city":"Los Angeles","latitude":34.051409,"longitude":-118.254558,"name":"Stickam","category_code":"games_video","number_of_employees":35,"founded_year":2006,"geo":{"type":"Point","coordinates":[-118.254558,34.051409]}}
{"city":"New York","latitude":40.726155,"longitude":-73.995625,"name":"Livestream","category_code":"games_video","number_of_employees":120,"founded_year":2007,"geo":{"type":"Point","coordinates":[-73.995625,40.726155]}}
{"city":"New York","latitude":40.722655,"longitude":-73.99873,"name":"Pando Networks","category_code":"games_video","number_of_employees":23,"founded_year":2004,"geo":{"type":"Point","coordinates":[-73.99873,40.722655]}}
{"city":"Mountain View","latitude":37.4233896,"longitude":-122.0899512,"name":"Jajah","category_code":"mobile","number_of_employees":110,"founded_year":2005,"geo":{"type":"Point","coordinates":[-122.0899512,37.4233896]}}
{"city":"Palo Alto","latitude":37.44296,"longitude":-122.151198,"name":"Topix","category_code":"web","number_of_employees":null,"founded_year":2002,"geo":{"type":"Point","coordinates":[-122.151198,37.44296]}}
{"city":"San Francisco","latitude":37.762541,"longitude":-122.397224,"name":"Pownce","category_code":"web","number_of_employees":6,"founded_year":2007,"geo":{"type":"Point","coordinates":[-122.397224,37.762541]}}
{"city":"Seattle","latitude":47.617682,"longitude":-122.357242,"name":"Jobster","category_code":"search","number_of_employees":null,"founded_year":2004,"geo":{"type":"Point","coordinates":[-122.357242,47.617682]}}
{"city":"San Francisco","latitude":37.757758,"longitude":-122.388243,"name":"Revision3","category_code":"games_video","number_of_employees":null,"founded_year":2005,"geo":{"type":"Point","coordinates":[-122.388243,37.757758]}}
{"city":"Seattle","latitude":47.620716,"longitude":-122.347533,"name":"ZenZui","category_code":"mobile","number_of_employees":null,"founded_year":2007,"geo":{"type":"Point","coordinates":[-122.347533,47.620716]}}
{"city":"San Francisco","latitude":37.780716,"longitude":-122.393913,"name":"CastTV","category_code":"games_video","number_of_employees":0,"founded_year":2006,"geo":{"type":"Point","coordinates":[-122.393913,37.780716]}}
{"city":"Cambridge","latitude":42.375392,"longitude":-71.118487,"name":"iSkoot","category_code":"mobile","number_of_employees":null,"founded_year":2005,"geo":{"type":"Point","coordinates":[-71.118487,42.375392]}}
{"city":"San Francisco","latitude":37.780134,"longitude":-122.396744,"name":"iSkoot","category_code":"mobile","number_of_employees":null,"founded_year":2005,"geo":{"type":"Point","coordinates":[-122.396744,37.780134]}}
{"city":"Vancouver","latitude":49.263588,"longitude":-123.138565,"name":"EQO","category_code":"mobile","number_of_employees":0,"founded_year":2006,"geo":{"type":"Point","coordinates":[-123.138565,49.263588]}}
{"city":"San Mateo","latitude":37.421621,"longitude":-122.137444,"name":"Funny Or Die","category_code":"games_video","number_of_employees":null,"founded_year":2007,"geo":{"type":"Point","coordinates":[-122.137444,37.421621]}}
{"city":"San Francisco","latitude":37.793819,"longitude":-122.395089,"name":"blinkx","category_code":"games_video","number_of_employees":null,"founded_year":2004,"geo":{"type":"Point","coordinates":[-122.395089,37.793819]}}
{"city":"Paris","latitude":48.862825,"longitude":2.381836,"name":"Zlio","category_code":"ecommerce","number_of_employees":null,"founded_year":2005,"geo":{"type":"Point","coordinates":[2.381836,48.862825]}}
{"city":"Santa Clara","latitude":37.380101,"longitude":-121.940749,"name":"Spotplex","category_code":"web","number_of_employees":3,"founded_year":2007,"geo":{"type":"Point","coordinates":[-121.940749,37.380101]}}
{"city":"Los Angeles","latitude":34.052187,"longitude":-118.243425,"name":"TripUp","category_code":"web","number_of_employees":null,"founded_year":2006,"geo":{"type":"Point","coordinates":[-118.243425,34.052187]}}
{"city":"San Francisco","latitude":37.786183,"longitude":-122.402195,"name":"Yelp","category_code":"search","number_of_employees":800,"founded_year":2004,"geo":{"type":"Point","coordinates":[-122.402195,37.786183]}}
{"city":"Amsterdam","latitude":52.3745228,"longitude":4.8948623,"name":"Wakoopa","category_code":"web","number_of_employees":8,"founded_year":2007,"geo":{"type":"Point","coordinates":[4.8948623,52.3745228]}}
{"city":"Amsterdam","latitude":52.375595,"longitude":4.908556,"name":"Fleck","category_code":"web","number_of_employees":3,"founded_year":2006,"geo":{"type":"Point","coordinates":[4.908556,52.375595]}}
{"city":"Redwood City","latitude":37.476479,"longitude":-122.221717,"name":"Coghead","category_code":"web","number_of_employees":21,"founded_year":2003,"geo":{"type":"Point","coordinates":[-122.221717,37.476479]}}
{"city":"San Francisco","latitude":37.775196,"longitude":-122.419204,"name":"Zooomr","category_code":"web","number_of_employees":null,"founded_year":2006,"geo":{"type":"Point","coordinates":[-122.419204,37.775196]}}
{"city":"New York","latitude":40.7516611,"longitude":-73.9843328,"name":"KickApps","category_code":"enterprise","number_of_employees":72,"founded_year":2004,"geo":{"type":"Point","coordinates":[-73.9843328,40.7516611]}}
{"city":"San Francisco","latitude":37.7891086,"longitude":-122.4016144,"name":"KickApps","category_code":"enterprise","number_of_employees":72,"founded_year":2004,"geo":{"type":"Point","coordinates":[-122.4016144,37.7891086]}}
{"city":"London","latitude":51.5094731,"longitude":-0.1356235,"name":"KickApps","category_code":"enterprise","number_of_employees":72,"founded_year":2004,"geo":{"type":"Point","coordinates":[-0.1356235,51.5094731]}}
{"city":"Santa Monica","latitude":34.0126379,"longitude":-118.495155,"name":"ConVerdge","category_code":"enterprise","number_of_employees":25,"founded_year":2006,"geo":{"type":"Point","coordinates":[-118.495155,34.0126379]}}
{"city":"San Francisco","latitude":37.758113,"longitude":-122.414689,"name":"Pageflakes","category_code":"web","number_of_employees":20,"founded_year":2006,"geo":{"type":"Point","coordinates":[-122.414689,37.758113]}}
{"city":"San Francisco","latitude":37.7791761,"longitude":-122.4058887,"name":"Instructables","category_code":"web","number_of_employees":null,"founded_year":2005,"geo":{"type":"Point","coordinates":[-122.4058887,37.7791761]}}
{"city":"Seattle","latitude":47.620982,"longitude":-122.359397,"name":"Farecast","category_code":"search","number_of_employees":26,"founded_year":2003,"geo":{"type":"Point","coordinates":[-122.359397,47.620982]}}
{"city":"Redwood City","latitude":37.484619,"longitude":-122.206893,"name":"RockYou","category_code":"games_video","number_of_employees":106,"founded_year":2005,"geo":{"type":"Point","coordinates":[-122.206893,37.484619]}}
{"city":"Sunnyvale","latitude":37.36965,"longitude":-122.02421,"name":"coRank","category_code":"web","number_of_employees":0,"founded_year":2007,"geo":{"type":"Point","coordinates":[-122.02421,37.36965]}}
{"city":"San Francisco","latitude":37.789268,"longitude":-122.395184,"name":"Swivel","category_code":"search","number_of_employees":1,"founded_year":2005,"geo":{"type":"Point","coordinates":[-122.395184,37.789268]}}
{"city":"San Francisco","latitude":37.781427,"longitude":-122.392144,"name":"Slide","category_code":"public_relations","number_of_employees":64,"founded_year":2005,"geo":{"type":"Point","coordinates":[-122.392144,37.781427]}}
{"city":"San Francisco","latitude":37.782103,"longitude":-122.401116,"name":"Bebo","category_code":"web","number_of_employees":0,"founded_year":2005,"geo":{"type":"Point","coordinates":[-122.401116,37.782103]}}
{"city":"Seattle","latitude":47.614653,"longitude":-122.338793,"name":"TripHub","category_code":"web","number_of_employees":6,"founded_year":2005,"geo":{"type":"Point","coordinates":[-122.338793,47.614653]}}
{"city":"Chicago","latitude":41.889474,"longitude":-87.628912,"name":"FeedBurner","category_code":"web","number_of_employees":null,"founded_year":2004,"geo":{"type":"Point","coordinates":[-87.628912,41.889474]}}
{"city":"Sunnyvale","latitude":37.418531,"longitude":-122.025485,"name":"Flickr","category_code":"web","number_of_employees":36,"founded_year":2004,"geo":{"type":"Point","coordinates":[-122.025485,37.418531]}}
{"city":"Paris","latitude":48.856667,"longitude":2.350987,"name":"TVtrip","category_code":"web","number_of_employees":null,"founded_year":2007,"geo":{"type":"Point","coordinates":[2.350987,48.856667]}}
{"city":"Mountain View","latitude":37.391502,"longitude":-122.073463,"name":"TheFind","category_code":"ecommerce","number_of_employees":null,"founded_year":2006,"geo":{"type":"Point","coordinates":[-122.073463,37.391502]}}
{"city":"San Francisco","latitude":37.762681,"longitude":-122.400909,"name":"Dogster","category_code":"web","number_of_employees":null,"founded_year":2004,"geo":{"type":"Point","coordinates":[-122.400909,37.762681]}}
{"city":"Dallas","latitude":32.914662,"longitude":-96.771281,"name":"CornerWorld","category_code":"public_relations","number_of_employees":null,"founded_year":2002,"geo":{"type":"Point","coordinates":[-96.771281,32.914662]}}
{"city":"Paris","latitude":48.866323,"longitude":2.381514,"name":"WatZatSong","category_code":"web","number_of_employees":3,"founded_year":2006,"geo":{"type":"Point","coordinates":[2.381514,48.866323]}}
{"city":"San Francisco","latitude":37.779026,"longitude":-122.40184,"name":"adBrite","category_code":"advertising","number_of_employees":50,"founded_year":2003,"geo":{"type":"Point","coordinates":[-122.40184,37.779026]}}
{"city":"San Francisco","latitude":37.796396,"longitude":-122.404869,"name":"Loomia","category_code":"web","number_of_employees":null,"founded_year":2004,"geo":{"type":"Point","coordinates":[-122.404869,37.796396]}}
{"city":"Seattle","latitude":47.618599,"longitude":-122.358484,"name":"Newsvine","category_code":"web","number_of_employees":8,"founded_year":2005,"geo":{"type":"Point","coordinates":[-122.358484,47.618599]}}
{"city":"Berkeley","latitude":37.870744,"longitude":-122.269259,"name":"FlickIM","category_code":"mobile","number_of_employees":null,"founded_year":2006,"geo":{"type":"Point","coordinates":[-122.269259,37.870744]}}
{"city":"Palo Alto","latitude":37.437328,"longitude":-122.159928,"name":"Terabitz","category_code":"web","number_of_employees":12,"founded_year":2006,"geo":{"type":"Point","coordinates":[-122.159928,37.437328]}}
{"city":"San Francisco","latitude":37.779507,"longitude":-122.39071,"name":"Eventbrite","category_code":"web","number_of_employees":200,"founded_year":2006,"geo":{"type":"Point","coordinates":[-122.39071,37.779507]}}
{"city":"Seattle","latitude":47.615313,"longitude":-122.323408,"name":"iLike","category_code":"games_video","number_of_employees":28,"founded_year":2002,"geo":{"type":"Point","coordinates":[-122.323408,47.615313]}}
{"city":"Mountain View","latitude":37.423258,"longitude":-122.073635,"name":"LinkedIn","category_code":"social","number_of_employees":4800,"founded_year":2003,"geo":{"type":"Point","coordinates":[-122.073635,37.423258]}}
{"city":"Boston","latitude":42.350571,"longitude":-71.076869,"name":"Carbonite","category_code":"network_hosting","number_of_employees":68,"founded_year":2006,"geo":{"type":"Point","coordinates":[-71.076869,42.350571]}}
{"city":"Sunnyvale","latitude":37.382162,"longitude":-122.036301,"name":"Kaboodle","category_code":"ecommerce","number_of_employees":null,"founded_year":2005,"geo":{"type":"Point","coordinates":[-122.036301,37.382162]}}
{"city":"Mountain View","latitude":37.40047,"longitude":-122.072981,"name":"Wink","category_code":"search","number_of_employees":null,"founded_year":2004,"geo":{"type":"Point","coordinates":[-122.072981,37.40047]}}
{"city":"San Francisco","latitude":37.775196,"longitude":-122.419204,"name":"Seesmic","category_code":"web","number_of_employees":13,"founded_year":2007,"geo":{"type":"Point","coordinates":[-122.419204,37.775196]}}
{"city":"San Francisco","latitude":37.7618242,"longitude":-122.3985871,"name":"Techmeme","category_code":"web","number_of_employees":11,"founded_year":2004,"geo":{"type":"Point","coordinates":[-122.3985871,37.7618242]}}
{"city":"San Mateo","latitude":37.553121,"longitude":-122.301534,"name":"Zvents","category_code":"web","number_of_employees":55,"founded_year":2005,"geo":{"type":"Point","coordinates":[-122.301534,37.553121]}}
{"city":"San Mateo","latitude":37.563585,"longitude":-122.324621,"name":"Oodle","category_code":"social","number_of_employees":null,"founded_year":2004,"geo":{"type":"Point","coordinates":[-122.324621,37.563585]}}
{"city":"Redwood City","latitude":37.479952,"longitude":-122.178557,"name":"oDesk","category_code":"web","number_of_employees":120,"founded_year":2005,"geo":{"type":"Point","coordinates":[-122.178557,37.479952]}}
{"city":"Sunnyvale","latitude":37.4219165,"longitude":-122.0780632,"name":"Simply Hired","category_code":"search","number_of_employees":100,"founded_year":2004,"geo":{"type":"Point","coordinates":[-122.0780632,37.4219165]}}
{"city":"San Francisco","latitude":37.76785,"longitude":-122.392861,"name":"Ujogo","category_code":"web","number_of_employees":6,"founded_year":2007,"geo":{"type":"Point","coordinates":[-122.392861,37.76785]}}
{"city":"","latitude":34.070436,"longitude":-118.350486,"name":"stylediary","category_code":"web","number_of_employees":0,"founded_year":2004,"geo":{"type":"Point","coordinates":[-118.350486,34.070436]}}
{"city":"Palo Alto","latitude":37.451958,"longitude":-122.116026,"name":"ooma","category_code":"hardware","number_of_employees":47,"founded_year":2004,"geo":{"type":"Point","coordinates":[-122.116026,37.451958]}}
{"city":"San Francisco","latitude":37.782263,"longitude":-122.392142,"name":"GoingOn","category_code":"software","number_of_employees":40,"founded_year":2008,"geo":{"type":"Point","coordinates":[-122.392142,37.782263]}}
{"city":"San Francisco","latitude":37.766909,"longitude":-122.406676,"name":"Flixster","category_code":"web","number_of_employees":75,"founded_year":2006,"geo":{"type":"Point","coordinates":[-122.406676,37.766909]}}
{"city":"Dallas","latitude":32.781078,"longitude":-96.797111,"name":"IceRocket","category_code":"search","number_of_employees":null,"founded_year":2004,"geo":{"type":"Point","coordinates":[-96.797111,32.781078]}}
{"city":"Palo Alto","latitude":37.442949,"longitude":-122.1615,"name":"Socialtext","category_code":"enterprise","number_of_employees":50,"founded_year":2002,"geo":{"type":"Point","coordinates":[-122.1615,37.442949]}}
{"city":"Austin","latitude":30.407545,"longitude":-97.717667,"name":"Bazaarvoice","category_code":"software","number_of_employees":600,"founded_year":2005,"geo":{"type":"Point","coordinates":[-97.717667,30.407545]}}
{"city":"London","latitude":51.5170385,"longitude":-0.1394759,"name":"spigit","category_code":"software","number_of_employees":120,"founded_year":2006,"geo":{"type":"Point","coordinates":[-0.1394759,51.5170385]}}
{"city":"San Francisco","latitude":37.788668,"longitude":-122.400558,"name":"hi5","category_code":"games_video","number_of_employees":100,"founded_year":2003,"geo":{"type":"Point","coordinates":[-122.400558,37.788668]}}
{"city":"San Francisco","latitude":37.7753,"longitude":-122.4186,"name":"Tagged","category_code":"social","number_of_employees":162,"founded_year":2004,"geo":{"type":"Point","coordinates":[-122.4186,37.7753]}}
{"city":"Boston","latitude":42.340889,"longitude":-71.051931,"name":"ScanScout","category_code":"advertising","number_of_employees":40,"founded_year":2005,"geo":{"type":"Point","coordinates":[-71.051931,42.340889]}}
{"city":"New York","latitude":40.739833,"longitude":-73.993158,"name":"ScanScout","category_code":"advertising","number_of_employees":40,"founded_year":2005,"geo":{"type":"Point","coordinates":[-73.993158,40.739833]}}
{"city":"Los Angeles","latitude":34.050887,"longitude":-118.459995,"name":"ScanScout","category_code":"advertising","number_of_employees":40,"founded_year":2005,"geo":{"type":"Point","coordinates":[-118.459995,34.050887]}}
{"city":"Palo Alto","latitude":37.774321,"longitude":-122.415375,"name":"Cerado","category_code":"web","number_of_employees":null,"founded_year":2002,"geo":{"type":"Point","coordinates":[-122.415375,37.774321]}}
{"city":"Menlo Park","latitude":37.451026,"longitude":-122.18676,"name":"Jaxtr","category_code":"mobile","number_of_employees":30,"founded_year":2005,"geo":{"type":"Point","coordinates":[-122.18676,37.451026]}}
{"city":"San Mateo","latitude":37.55909,"longitude":-122.321836,"name":"Respectance","category_code":"web","number_of_employees":15,"founded_year":2006,"geo":{"type":"Point","coordinates":[-122.321836,37.55909]}}
{"city":"Mountain View","latitude":37.419819,"longitude":-122.090188,"name":"PeerMe","category_code":"games_video","number_of_employees":null,"founded_year":2004,"geo":{"type":"Point","coordinates":[-122.090188,37.419819]}}
{"city":"San Francisco","latitude":37.775196,"longitude":-122.419204,"name":"Grockit","category_code":"social","number_of_employees":25,"founded_year":2006,"geo":{"type":"Point","coordinates":[-122.419204,37.775196]}}
{"city":"San Francisco","latitude":37.792394,"longitude":-122.402349,"name":"Kiptronic","category_code":"advertising","number_of_employees":20,"founded_year":2005,"geo":{"type":"Point","coordinates":[-122.402349,37.792394]}}
{"city":"San Francisco","latitude":37.779392,"longitude":-122.417928,"name":"FeVote","category_code":"web","number_of_employees":1,"founded_year":2007,"geo":{"type":"Point","coordinates":[-122.417928,37.779392]}}
{"city":"Menlo Park","latitude":37.4484914,"longitude":-122.1802812,"name":"Zenfolio","category_code":"network_hosting","number_of_employees":null,"founded_year":2005,"geo":{"type":"Point","coordinates":[-122.1802812,37.4484914]}}
{"city":"San Mateo","latitude":37.4858654,"longitude":-122.2262606,"name":"Vuze","category_code":"games_video","number_of_employees":20,"founded_year":2005,"geo":{"type":"Point","coordinates":[-122.2262606,37.4858654]}}
{"city":"Sunnyvale","latitude":37.386376,"longitude":-121.991471,"name":"Phonezoo","category_code":"web","number_of_employees":null,"founded_year":2006,"geo":{"type":"Point","coordinates":[-121.991471,37.386376]}}
{"city":"Sunnyvale","latitude":37.384651,"longitude":-121.992132,"name":"Relationals","category_code":"web","number_of_employees":null,"founded_year":2007,"geo":{"type":"Point","coordinates":[-121.992132,37.384651]}}
{"city":"Seattle","latitude":47.620716,"longitude":-122.347533,"name":"Wishpot","category_code":"ecommerce","number_of_employees":10,"founded_year":2006,"geo":{"type":"Point","coordinates":[-122.347533,47.620716]}}
{"city":"","latitude":37.269175,"longitude":-119.306607,"name":"Nononina","category_code":"web","number_of_employees":null,"founded_year":2007,"geo":{"type":"Point","coordinates":[-119.306607,37.269175]}}
{"city":"Palo Alto","latitude":37.408256,"longitude":-122.154176,"name":"PodTech","category_code":"games_video","number_of_employees":null,"founded_year":2005,"geo":{"type":"Point","coordinates":[-122.154176,37.408256]}}
{"city":"Vancouver","latitude":49.283376,"longitude":-123.103986,"name":"NowPublic","category_code":"web","number_of_employees":null,"founded_year":2005,"geo":{"type":"Point","coordinates":[-123.103986,49.283376]}}
{"city":"New York","latitude":40.736416,"longitude":-73.993302,"name":"Forbes","category_code":"web","number_of_employees":null,"founded_year":2007,"geo":{"type":"Point","coordinates":[-73.993302,40.736416]}}
{"city":"Boulder","latitude":40.010492,"longitude":-105.276843,"name":"IntenseDebate","category_code":"web","number_of_employees":4,"founded_year":2006,"geo":{"type":"Point","coordinates":[-105.276843,40.010492]}}
{"city":"San Francisco","latitude":37.780883,"longitude":-122.395257,"name":"Reddit","category_code":"web","number_of_employees":null,"founded_year":2005,"geo":{"type":"Point","coordinates":[-122.395257,37.780883]}}
{"city":"Seattle","latitude":47.61968,"longitude":-122.356756,"name":"BuddyTV","category_code":"games_video","number_of_employees":20,"founded_year":2005,"geo":{"type":"Point","coordinates":[-122.356756,47.61968]}}
{"city":"Mountain View","latitude":37.400465,"longitude":-122.073003,"name":"Buxfer","category_code":"web","number_of_employees":4,"founded_year":2007,"geo":{"type":"Point","coordinates":[-122.073003,37.400465]}}
{"city":"Sunnyvale","latitude":37.368594,"longitude":-122.034021,"name":"Retrevo","category_code":"web","number_of_employees":null,"founded_year":2006,"geo":{"type":"Point","coordinates":[-122.034021,37.368594]}}
{"city":"Mountain View","latitude":37.386665,"longitude":-122.084171,"name":"Tangler","category_code":"web","number_of_employees":null,"founded_year":2006,"geo":{"type":"Point","coordinates":[-122.084171,37.386665]}}
{"city":"Redwood City","latitude":37.524729,"longitude":-122.258037,"name":"obopay","category_code":"mobile","number_of_employees":null,"founded_year":2005,"geo":{"type":"Point","coordinates":[-122.258037,37.524729]}}
{"city":"Seattle","latitude":47.620716,"longitude":-122.347533,"name":"BillMonk","category_code":"web","number_of_employees":null,"founded_year":2005,"geo":{"type":"Point","coordinates":[-122.347533,47.620716]}}
{"city":"San Mateo","latitude":37.553743,"longitude":-122.300246,"name":"TalkPlus","category_code":"web","number_of_employees":null,"founded_year":2004,"geo":{"type":"Point","coordinates":[-122.300246,37.553743]}}
{"city":"Los Angeles","latitude":34.052187,"longitude":-118.243425,"name":"WebbAlert","category_code":"games_video","number_of_employees":null,"founded_year":2007,"geo":{"type":"Point","coordinates":[-118.243425,34.052187]}}
{"city":"Mountain View","latitude":37.3927975,"longitude":-122.0727749,"name":"IMVU","category_code":"web","number_of_employees":150,"founded_year":2004,"geo":{"type":"Point","coordinates":[-122.0727749,37.3927975]}}
{"city":"Atlanta","latitude":33.916374,"longitude":-84.350663,"name":"Kaneva","category_code":"web","number_of_employees":null,"founded_year":2004,"geo":{"type":"Point","coordinates":[-84.350663,33.916374]}}
{"city":"Boulder","latitude":40.010492,"longitude":-105.276843,"name":"madKast","category_code":"web","number_of_employees":null,"founded_year":2007,"geo":{"type":"Point","coordinates":[-105.276843,40.010492]}}
{"city":"San Diego","latitude":32.877656,"longitude":-117.210595,"name":"Nirvanix","category_code":"enterprise","number_of_employees":null,"founded_year":2007,"geo":{"type":"Point","coordinates":[-117.210595,32.877656]}}
{"city":"Santa Monica","latitude":34.01676,"longitude":-118.495566,"name":"Userplane","category_code":"enterprise","number_of_employees":10,"founded_year":2001,"geo":{"type":"Point","coordinates":[-118.495566,34.01676]}}
{"city":"San Francisco","latitude":40.270666,"longitude":-74.761403,"name":"Scrybe","category_code":"enterprise","number_of_employees":20,"founded_year":2007,"geo":{"type":"Point","coordinates":[-74.761403,40.270666]}}
{"city":"San Francisco","latitude":51.500152,"longitude":-0.126236,"name":"Viagogo","category_code":"ecommerce","number_of_employees":null,"founded_year":2005,"geo":{"type":"Point","coordinates":[-0.126236,51.500152]}}
{"city":"","latitude":31.046051,"longitude":34.851612,"name":"KnockaTV","category_code":"games_video","number_of_employees":null,"founded_year":2007,"geo":{"type":"Point","coordinates":[34.851612,31.046051]}}
{"city":"San Diego","latitude":32.964294,"longitude":-117.265191,"name":"GreatCall","category_code":"mobile","number_of_employees":null,"founded_year":2005,"geo":{"type":"Point","coordinates":[-117.265191,32.964294]}}
{"city":"Los Angeles","latitude":34.052187,"longitude":-118.243425,"name":"Revver","category_code":"games_video","number_of_employees":null,"founded_year":2004,"geo":{"type":"Point","coordinates":[-118.243425,34.052187]}}
{"city":"San Diego","latitude":32.720656,"longitude":-117.167831,"name":"MindTouch","category_code":"enterprise","number_of_employees":0,"founded_year":2004,"geo":{"type":"Point","coordinates":[-117.167831,32.720656]}}
{"city":"San Francisco","latitude":37.767575,"longitude":-122.411157,"name":"Kontera","category_code":"advertising","number_of_employees":null,"founded_year":2003,"geo":{"type":"Point","coordinates":[-122.411157,37.767575]}}
{"city":"Menlo Park","latitude":37.491356,"longitude":-122.228843,"name":"Flock","category_code":"web","number_of_employees":40,"founded_year":2005,"geo":{"type":"Point","coordinates":[-122.228843,37.491356]}}
{"city":"","latitude":37.09024,"longitude":-95.712891,"name":"Splashup","category_code":"web","number_of_employees":null,"founded_year":2007,"geo":{"type":"Point","coordinates":[-95.712891,37.09024]}}
{"city":"London","latitude":51.785428,"longitude":-1.197534,"name":"Curverider","category_code":"network_hosting","number_of_employees":5,"founded_year":2005,"geo":{"type":"Point","coordinates":[-1.197534,51.785428]}}
{"city":"San Francisco","latitude":37.437328,"longitude":-122.159928,"name":"Metacafe","category_code":"games_video","number_of_employees":null,"founded_year":2003,"geo":{"type":"Point","coordinates":[-122.159928,37.437328]}}
{"city":"Vancouver","latitude":49.263588,"longitude":-123.138565,"name":"SomethingSimpler","category_code":"search","number_of_employees":null,"founded_year":2007,"geo":{"type":"Point","coordinates":[-123.138565,49.263588]}}
{"city":"San Francisco","latitude":37.795555,"longitude":-122.400729,"name":"Weebly","category_code":"web","number_of_employees":70,"founded_year":2006,"geo":{"type":"Point","coordinates":[-122.400729,37.795555]}}
{"city":"San Francisco","latitude":37.786942,"longitude":-122.401245,"name":"Kongregate","category_code":"games_video","number_of_employees":20,"founded_year":2006,"geo":{"type":"Point","coordinates":[-122.401245,37.786942]}}
{"city":"San Francisco","latitude":37.790998,"longitude":-122.394668,"name":"BitTorrent","category_code":"web","number_of_employees":80,"founded_year":2004,"geo":{"type":"Point","coordinates":[-122.394668,37.790998]}}
{"city":"San Francisco","latitude":37.781557,"longitude":-122.407959,"name":"DanceJam","category_code":"games_video","number_of_employees":0,"founded_year":2007,"geo":{"type":"Point","coordinates":[-122.407959,37.781557]}}
{"city":"Boulder","latitude":40.010492,"longitude":-105.276843,"name":"EventVue","category_code":"public_relations","number_of_employees":null,"founded_year":2007,"geo":{"type":"Point","coordinates":[-105.276843,40.010492]}}
{"city":"San Mateo","latitude":37.5646055,"longitude":-122.3229235,"name":"Inneractive","category_code":"advertising","number_of_employees":0,"founded_year":2007,"geo":{"type":"Point","coordinates":[-122.3229235,37.5646055]}}
{"city":"Boulder","latitude":40.0186731,"longitude":-105.2762236,"name":"Socialthing","category_code":"network_hosting","number_of_employees":5,"founded_year":2007,"geo":{"type":"Point","coordinates":[-105.2762236,40.0186731]}}
{"city":"San Francisco","latitude":37.383779,"longitude":-122.007172,"name":"Eventbee","category_code":"web","number_of_employees":null,"founded_year":2003,"geo":{"type":"Point","coordinates":[-122.007172,37.383779]}}
{"city":"Palo Alto","latitude":37.437328,"longitude":-122.159928,"name":"Bountii","category_code":"ecommerce","number_of_employees":null,"founded_year":2007,"geo":{"type":"Point","coordinates":[-122.159928,37.437328]}}
{"city":"Palo Alto","latitude":40.010492,"longitude":-105.276843,"name":"Filtrbox","category_code":"web","number_of_employees":14,"founded_year":2007,"geo":{"type":"Point","coordinates":[-105.276843,40.010492]}}
{"city":"Boston","latitude":42.35892,"longitude":-71.05781,"name":"Cloudant","category_code":"enterprise","number_of_employees":70,"founded_year":2008,"geo":{"type":"Point","coordinates":[-71.05781,42.35892]}}
{"city":"San Francisco","latitude":37.775196,"longitude":-122.419204,"name":"Fathom Online","category_code":"advertising","number_of_employees":null,"founded_year":2002,"geo":{"type":"Point","coordinates":[-122.419204,37.775196]}}
{"city":"Los Angeles","latitude":34.062262,"longitude":-118.348198,"name":"SuicideGirls","category_code":"web","number_of_employees":null,"founded_year":2001,"geo":{"type":"Point","coordinates":[-118.348198,34.062262]}}
{"city":"San Francisco","latitude":37.789488,"longitude":-122.397593,"name":"Zivity","category_code":"network_hosting","number_of_employees":16,"founded_year":2007,"geo":{"type":"Point","coordinates":[-122.397593,37.789488]}}
{"city":"San Jose","latitude":37.32052,"longitude":-121.948399,"name":"BlueLithium","category_code":"advertising","number_of_employees":135,"founded_year":2004,"geo":{"type":"Point","coordinates":[-121.948399,37.32052]}}
{"city":"San Diego","latitude":32.71537,"longitude":-117.163353,"name":"Goowy","category_code":"web","number_of_employees":null,"founded_year":2004,"geo":{"type":"Point","coordinates":[-117.163353,32.71537]}}
{"city":"Palo Alto","latitude":37.444554,"longitude":-122.164511,"name":"A9","category_code":"web","number_of_employees":null,"founded_year":2003,"geo":{"type":"Point","coordinates":[-122.164511,37.444554]}}
{"city":"Palo Alto","latitude":37.427235,"longitude":-122.145783,"name":"Doostang","category_code":"web","number_of_employees":10,"founded_year":2005,"geo":{"type":"Point","coordinates":[-122.145783,37.427235]}}
{"city":"Santa Monica","latitude":34.018275,"longitude":-118.495025,"name":"Docstoc","category_code":"web","number_of_employees":40,"founded_year":2007,"geo":{"type":"Point","coordinates":[-118.495025,34.018275]}}
{"city":"Cambridge","latitude":42.372912,"longitude":-71.118999,"name":"Vlingo","category_code":"mobile","number_of_employees":null,"founded_year":2006,"geo":{"type":"Point","coordinates":[-71.118999,42.372912]}}
{"city":"San Francisco","latitude":37.782263,"longitude":-122.392142,"name":"Mevio","category_code":"games_video","number_of_employees":null,"founded_year":2004,"geo":{"type":"Point","coordinates":[-122.392142,37.782263]}}
{"city":"Seattle","latitude":47.610332,"longitude":-122.339859,"name":"Shock Treatment Management","category_code":"web","number_of_employees":null,"founded_year":2004,"geo":{"type":"Point","coordinates":[-122.339859,47.610332]}}
{"city":"San Francisco","latitude":37.09024,"longitude":-95.712891,"name":"DotBlu","category_code":"web","number_of_employees":null,"founded_year":2007,"geo":{"type":"Point","coordinates":[-95.712891,37.09024]}}
{"city":"Austin","latitude":30.268735,"longitude":-97.745209,"name":"Pluck","category_code":"web","number_of_employees":null,"founded_year":2003,"geo":{"type":"Point","coordinates":[-97.745209,30.268735]}}
{"city":"Denver","latitude":39.755092,"longitude":-104.988123,"name":"NewsGator","category_code":"enterprise","number_of_employees":90,"founded_year":2004,"geo":{"type":"Point","coordinates":[-104.988123,39.755092]}}
{"city":"Santa Monica","latitude":34.017373,"longitude":-118.453218,"name":"sezmi","category_code":"games_video","number_of_employees":null,"founded_year":2007,"geo":{"type":"Point","coordinates":[-118.453218,34.017373]}}
{"city":"Mountain View","latitude":37.40047,"longitude":-122.072981,"name":"BitPass","category_code":"web","number_of_employees":null,"founded_year":2002,"geo":{"type":"Point","coordinates":[-122.072981,37.40047]}}
{"city":"San Francisco","latitude":37.710677,"longitude":-122.39323,"name":"Greystripe","category_code":"advertising","number_of_employees":90,"founded_year":2005,"geo":{"type":"Point","coordinates":[-122.39323,37.710677]}}
{"city":"San Francisco","latitude":37.766909,"longitude":-122.406676,"name":"Trulia","category_code":"search","number_of_employees":500,"founded_year":2004,"geo":{"type":"Point","coordinates":[-122.406676,37.766909]}}
{"city":"Los Angeles","latitude":33.979033,"longitude":-118.423423,"name":"DAVE Networks","category_code":"web","number_of_employees":null,"founded_year":2003,"geo":{"type":"Point","coordinates":[-118.423423,33.979033]}}
{"city":"Mountain View","latitude":37.09024,"longitude":-95.712891,"name":"Netblue","category_code":"web","number_of_employees":null,"founded_year":2002,"geo":{"type":"Point","coordinates":[-95.712891,37.09024]}}
{"city":"New York","latitude":37.09024,"longitude":-95.712891,"name":"SpiralFrog","category_code":"games_video","number_of_employees":15,"founded_year":2004,"geo":{"type":"Point","coordinates":[-95.712891,37.09024]}}
{"city":"Boston","latitude":42.350274,"longitude":-71.058768,"name":"MocoSpace","category_code":"games_video","number_of_employees":25,"founded_year":2005,"geo":{"type":"Point","coordinates":[-71.058768,42.350274]}}
{"city":"Cambridge","latitude":42.358822,"longitude":-71.104329,"name":"LocaModa","category_code":"advertising","number_of_employees":0,"founded_year":2007,"geo":{"type":"Point","coordinates":[-71.104329,42.358822]}}
{"city":"Bellevue","latitude":47.597965,"longitude":-122.151158,"name":"YouBeQB","category_code":"games_video","number_of_employees":8,"founded_year":2008,"geo":{"type":"Point","coordinates":[-122.151158,47.597965]}}
{"city":"New York","latitude":40.748901,"longitude":-73.992463,"name":"Adknowledge","category_code":"advertising","number_of_employees":300,"founded_year":2004,"geo":{"type":"Point","coordinates":[-73.992463,40.748901]}}
{"city":"San Francisco","latitude":37.78866,"longitude":-122.401406,"name":"Adknowledge","category_code":"advertising","number_of_employees":300,"founded_year":2004,"geo":{"type":"Point","coordinates":[-122.401406,37.78866]}}
{"city":"Toronto","latitude":43.6474554,"longitude":-79.3953743,"name":"Adknowledge","category_code":"advertising","number_of_employees":300,"founded_year":2004,"geo":{"type":"Point","coordinates":[-79.3953743,43.6474554]}}
{"city":"Munich","latitude":48.1635092,"longitude":11.5582609,"name":"Adknowledge","category_code":"advertising","number_of_employees":300,"founded_year":2004,"geo":{"type":"Point","coordinates":[11.5582609,48.1635092]}}
{"city":"Paris","latitude":48.8506065,"longitude":2.3797825,"name":"Adknowledge","category_code":"advertising","number_of_employees":300,"founded_year":2004,"geo":{"type":"Point","coordinates":[2.3797825,48.8506065]}}
{"city":"Bangalore","latitude":12.971606,"longitude":77.594376,"name":"Minglebox","category_code":"web","number_of_employees":null,"founded_year":2006,"geo":{"type":"Point","coordinates":[77.594376,12.971606]}}
{"city":"New York","latitude":40.7445343,"longitude":-73.9874008,"name":"BBE","category_code":"advertising","number_of_employees":null,"founded_year":2004,"geo":{"type":"Point","coordinates":[-73.9874008,40.7445343]}}
{"city":"New York","latitude":40.757929,"longitude":-73.985506,"name":"Fotolog","category_code":"network_hosting","number_of_employees":40,"founded_year":2002,"geo":{"type":"Point","coordinates":[-73.985506,40.757929]}}
{"city":"Santa Monica","latitude":34.0184659,"longitude":-118.49863,"name":"Xfire","category_code":"games_video","number_of_employees":null,"founded_year":2002,"geo":{"type":"Point","coordinates":[-118.49863,34.0184659]}}
{"city":"Palo Alto","latitude":37.433414,"longitude":-122.128772,"name":"SnapTell","category_code":"software","number_of_employees":null,"founded_year":2006,"geo":{"type":"Point","coordinates":[-122.128772,37.433414]}}
{"city":"London","latitude":51.5192042,"longitude":-0.1626103,"name":"Wonga","category_code":"web","number_of_employees":null,"founded_year":2007,"geo":{"type":"Point","coordinates":[-0.1626103,51.5192042]}}
{"city":"San Francisco","latitude":37.775196,"longitude":-122.419204,"name":"MicroPlace","category_code":"web","number_of_employees":15,"founded_year":2007,"geo":{"type":"Point","coordinates":[-122.419204,37.775196]}}
{"city":"Seattle","latitude":47.5999337,"longitude":-122.3276962,"name":"EyeJot","category_code":"web","number_of_employees":5,"founded_year":2007,"geo":{"type":"Point","coordinates":[-122.3276962,47.5999337]}}
{"city":"Toronto","latitude":43.799511,"longitude":-79.348037,"name":"Contrastream","category_code":"games_video","number_of_employees":1,"founded_year":2007,"geo":{"type":"Point","coordinates":[-79.348037,43.799511]}}
{"city":"Austin","latitude":30.386601,"longitude":-97.753739,"name":"Spiceworks","category_code":"hardware","number_of_employees":null,"founded_year":2006,"geo":{"type":"Point","coordinates":[-97.753739,30.386601]}}
{"city":"New York","latitude":40.643438,"longitude":-73.886452,"name":"Daylife","category_code":"enterprise","number_of_employees":25,"founded_year":2006,"geo":{"type":"Point","coordinates":[-73.886452,40.643438]}}
{"city":"Palo Alto","latitude":37.42746,"longitude":-122.143915,"name":"SayNow","category_code":"mobile","number_of_employees":20,"founded_year":2005,"geo":{"type":"Point","coordinates":[-122.143915,37.42746]}}
{"city":"San Francisco","latitude":37.781265,"longitude":-122.393229,"name":"Crunchyroll","category_code":"games_video","number_of_employees":50,"founded_year":2008,"geo":{"type":"Point","coordinates":[-122.393229,37.781265]}}
{"city":"Santa Clara","latitude":37.387114,"longitude":-121.973228,"name":"PixSense","category_code":"mobile","number_of_employees":35,"founded_year":2003,"geo":{"type":"Point","coordinates":[-121.973228,37.387114]}}
{"city":"New York","latitude":40.74406,"longitude":-74.004592,"name":"Behance","category_code":"web","number_of_employees":30,"founded_year":2006,"geo":{"type":"Point","coordinates":[-74.004592,40.74406]}}
{"city":"Los Angeles","latitude":34.031276,"longitude":-118.456806,"name":"hulu","category_code":"games_video","number_of_employees":153,"founded_year":2007,"geo":{"type":"Point","coordinates":[-118.456806,34.031276]}}
{"city":"Mountain View","latitude":37.563585,"longitude":-122.324621,"name":"AdMob","category_code":"advertising","number_of_employees":null,"founded_year":2006,"geo":{"type":"Point","coordinates":[-122.324621,37.563585]}}
{"city":"San Mateo","latitude":37.453687,"longitude":-122.228595,"name":"Attributor","category_code":"software","number_of_employees":0,"founded_year":2005,"geo":{"type":"Point","coordinates":[-122.228595,37.453687]}}
{"city":"New York","latitude":40.775537,"longitude":-73.981709,"name":"OrganizedWisdom","category_code":"other","number_of_employees":18,"founded_year":2007,"geo":{"type":"Point","coordinates":[-73.981709,40.775537]}}
{"city":"London","latitude":51.5195795,"longitude":-0.1065551,"name":"FAROO","category_code":"search","number_of_employees":5,"founded_year":2007,"geo":{"type":"Point","coordinates":[-0.1065551,51.5195795]}}
{"city":"New York","latitude":40.753202,"longitude":-73.986771,"name":"LineUpNewYork","category_code":"web","number_of_employees":0,"founded_year":2007,"geo":{"type":"Point","coordinates":[-73.986771,40.753202]}}
{"city":"Seattle","latitude":47.611012,"longitude":-122.333523,"name":"MediaPops","category_code":"games_video","number_of_employees":0,"founded_year":2007,"geo":{"type":"Point","coordinates":[-122.333523,47.611012]}}
{"city":"Austin","latitude":30.34497,"longitude":-97.770174,"name":"GotStatus","category_code":"web","number_of_employees":0,"founded_year":2007,"geo":{"type":"Point","coordinates":[-97.770174,30.34497]}}
{"city":"New York","latitude":40.757929,"longitude":-73.985506,"name":"PeekYou","category_code":"search","number_of_employees":20,"founded_year":2012,"geo":{"type":"Point","coordinates":[-73.985506,40.757929]}}
{"city":"Boulder","latitude":40.048078,"longitude":-105.38018,"name":"Kerpoof","category_code":"web","number_of_employees":0,"founded_year":2006,"geo":{"type":"Point","coordinates":[-105.38018,40.048078]}}
{"city":"Los Angeles","latitude":34.0481711,"longitude":-118.4419012,"name":"Orgoo","category_code":"web","number_of_employees":15,"founded_year":2005,"geo":{"type":"Point","coordinates":[-118.4419012,34.0481711]}}
{"city":"San Francisco","latitude":37.793742,"longitude":-122.421341,"name":"YourStreet","category_code":"web","number_of_employees":6,"founded_year":2006,"geo":{"type":"Point","coordinates":[-122.421341,37.793742]}}
{"city":"Toronto","latitude":43.6501051,"longitude":-79.396805,"name":"Zerofootprint","category_code":"software","number_of_employees":null,"founded_year":2005,"geo":{"type":"Point","coordinates":[-79.396805,43.6501051]}}
{"city":"Portland","latitude":45.5241278,"longitude":-122.675448,"name":"Vidoop","category_code":"software","number_of_employees":30,"founded_year":2006,"geo":{"type":"Point","coordinates":[-122.675448,45.5241278]}}
{"city":"Montreal","latitude":45.506643,"longitude":-73.566634,"name":"SmartHippo","category_code":"ecommerce","number_of_employees":10,"founded_year":2005,"geo":{"type":"Point","coordinates":[-73.566634,45.506643]}}
{"city":"Seattle","latitude":47.6015315,"longitude":-122.335943,"name":"FlowPlay","category_code":"games_video","number_of_employees":30,"founded_year":2006,"geo":{"type":"Point","coordinates":[-122.335943,47.6015315]}}
{"city":"","latitude":56.130366,"longitude":-106.346771,"name":"IPartee","category_code":"web","number_of_employees":null,"founded_year":2007,"geo":{"type":"Point","coordinates":[-106.346771,56.130366]}}
{"city":"Chicago","latitude":41.892774,"longitude":-87.621982,"name":"PrepMe","category_code":"other","number_of_employees":null,"founded_year":2001,"geo":{"type":"Point","coordinates":[-87.621982,41.892774]}}
{"city":"Paris","latitude":48.8558532,"longitude":2.3365754,"name":"Trivop","category_code":"web","number_of_employees":null,"founded_year":2007,"geo":{"type":"Point","coordinates":[2.3365754,48.8558532]}}
{"city":"Chicago","latitude":41.890376,"longitude":-87.63406,"name":"Viewpoints","category_code":"web","number_of_employees":15,"founded_year":2006,"geo":{"type":"Point","coordinates":[-87.63406,41.890376]}}
{"city":"Boulder","latitude":40.010492,"longitude":-105.276843,"name":"Iggli","category_code":"web","number_of_employees":null,"founded_year":2007,"geo":{"type":"Point","coordinates":[-105.276843,40.010492]}}
{"city":"Bellevue","latitude":47.617842,"longitude":-122.20052,"name":"Smartsheet","category_code":"enterprise","number_of_employees":null,"founded_year":2005,"geo":{"type":"Point","coordinates":[-122.20052,47.617842]}}
{"city":"Boulder","latitude":40.01621,"longitude":-105.28131,"name":"OneRiot","category_code":"advertising","number_of_employees":32,"founded_year":2006,"geo":{"type":"Point","coordinates":[-105.28131,40.01621]}}
{"city":"Santa Monica","latitude":34.01533,"longitude":-118.493592,"name":"ThisNext","category_code":"social","number_of_employees":0,"founded_year":2005,"geo":{"type":"Point","coordinates":[-118.493592,34.01533]}}
{"city":"Cambridge","latitude":42.375392,"longitude":-71.118487,"name":"UpDown","category_code":"web","number_of_employees":5,"founded_year":2007,"geo":{"type":"Point","coordinates":[-71.118487,42.375392]}}
{"city":"Boston","latitude":42.375219,"longitude":-71.056101,"name":"Eons","category_code":"network_hosting","number_of_employees":null,"founded_year":2005,"geo":{"type":"Point","coordinates":[-71.056101,42.375219]}}
{"city":"Sunnyvale","latitude":37.368594,"longitude":-122.034021,"name":"MuseStorm","category_code":"web","number_of_employees":null,"founded_year":2005,"geo":{"type":"Point","coordinates":[-122.034021,37.368594]}}
{"city":"Menlo Park","latitude":37.451124,"longitude":-122.166264,"name":"Cuil","category_code":"search","number_of_employees":30,"founded_year":2005,"geo":{"type":"Point","coordinates":[-122.166264,37.451124]}}
{"city":"Cambridge","latitude":42.375392,"longitude":-71.118487,"name":"GamerDNA","category_code":"web","number_of_employees":13,"founded_year":2006,"geo":{"type":"Point","coordinates":[-71.118487,42.375392]}}
{"city":"Singapore","latitude":37.580304,"longitude":-122.343679,"name":"mig33","category_code":"games_video","number_of_employees":100,"founded_year":2005,"geo":{"type":"Point","coordinates":[-122.343679,37.580304]}}
{"city":"San Francisco","latitude":37.799549,"longitude":-122.306571,"name":"Data360","category_code":"web","number_of_employees":0,"founded_year":2006,"geo":{"type":"Point","coordinates":[-122.306571,37.799549]}}
{"city":"San Mateo","latitude":37.557637,"longitude":-122.285714,"name":"SpeedDate","category_code":"web","number_of_employees":0,"founded_year":2007,"geo":{"type":"Point","coordinates":[-122.285714,37.557637]}}
{"city":"Berkeley","latitude":37.887864,"longitude":-122.26999,"name":"Realius","category_code":"games_video","number_of_employees":3,"founded_year":2006,"geo":{"type":"Point","coordinates":[-122.26999,37.887864]}}
{"city":"Los Angeles","latitude":34.064491,"longitude":-118.42749,"name":"mEgo","category_code":"web","number_of_employees":15,"founded_year":2005,"geo":{"type":"Point","coordinates":[-118.42749,34.064491]}}
{"city":"San Mateo","latitude":37.559287,"longitude":-122.302262,"name":"Spoke","category_code":"software","number_of_employees":8,"founded_year":2002,"geo":{"type":"Point","coordinates":[-122.302262,37.559287]}}
{"city":"San Francisco","latitude":37.789634,"longitude":-122.404052,"name":"Xobni","category_code":"software","number_of_employees":0,"founded_year":2006,"geo":{"type":"Point","coordinates":[-122.404052,37.789634]}}
{"city":"London","latitude":51.519819,"longitude":-0.136174,"name":"Webjam","category_code":"enterprise","number_of_employees":18,"founded_year":2006,"geo":{"type":"Point","coordinates":[-0.136174,51.519819]}}
{"city":"San Mateo","latitude":37.566879,"longitude":-122.323895,"name":"Fixya","category_code":"web","number_of_employees":30,"founded_year":2013,"geo":{"type":"Point","coordinates":[-122.323895,37.566879]}}
{"city":"Sunnyvale","latitude":37.384239,"longitude":-122.012475,"name":"Tripwiser","category_code":"web","number_of_employees":0,"founded_year":2006,"geo":{"type":"Point","coordinates":[-122.012475,37.384239]}}
{"city":"Philadelphia","latitude":39.956259,"longitude":-75.194657,"name":"Styky","category_code":"mobile","number_of_employees":3,"founded_year":2003,"geo":{"type":"Point","coordinates":[-75.194657,39.956259]}}
{"city":"New York","latitude":40.740337,"longitude":-73.993127,"name":"Empressr","category_code":"public_relations","number_of_employees":35,"founded_year":2006,"geo":{"type":"Point","coordinates":[-73.993127,40.740337]}}
{"city":"Sunnyvale","latitude":37.369195,"longitude":-122.036849,"name":"EkkoTV","category_code":"games_video","number_of_employees":0,"founded_year":2006,"geo":{"type":"Point","coordinates":[-122.036849,37.369195]}}
{"city":"London","latitude":51.54236,"longitude":-0.149522,"name":"Jiglu","category_code":"software","number_of_employees":3,"founded_year":2003,"geo":{"type":"Point","coordinates":[-0.149522,51.54236]}}
{"city":"","latitude":-37.797384,"longitude":175.2604,"name":"Type-Any-Circle-Of-Six","category_code":"web","number_of_employees":0,"founded_year":2006,"geo":{"type":"Point","coordinates":[175.2604,-37.797384]}}
{"city":"New York","latitude":40.756799,"longitude":-73.976348,"name":"Worklight","category_code":"mobile","number_of_employees":30,"founded_year":2006,"geo":{"type":"Point","coordinates":[-73.976348,40.756799]}}
{"city":"San Francisco","latitude":37.779558,"longitude":-122.393041,"name":"GroupSwim","category_code":"software","number_of_employees":9,"founded_year":2005,"geo":{"type":"Point","coordinates":[-122.393041,37.779558]}}
{"city":"Mountain View","latitude":37.401355,"longitude":-122.104099,"name":"SueEasy","category_code":"web","number_of_employees":6,"founded_year":2007,"geo":{"type":"Point","coordinates":[-122.104099,37.401355]}}
{"city":"Seattle","latitude":47.620716,"longitude":-122.347533,"name":"Moz","category_code":"search","number_of_employees":130,"founded_year":2002,"geo":{"type":"Point","coordinates":[-122.347533,47.620716]}}
{"city":"San Francisco","latitude":37.792262,"longitude":-122.403486,"name":"Vestopia","category_code":"web","number_of_employees":null,"founded_year":2007,"geo":{"type":"Point","coordinates":[-122.403486,37.792262]}}
{"city":"San Francisco","latitude":37.765125,"longitude":-122.4044034,"name":"3Jam","category_code":"mobile","number_of_employees":null,"founded_year":2005,"geo":{"type":"Point","coordinates":[-122.4044034,37.765125]}}
{"city":"Montreal","latitude":45.500277,"longitude":-73.560084,"name":"Mobivox","category_code":"mobile","number_of_employees":null,"founded_year":2007,"geo":{"type":"Point","coordinates":[-73.560084,45.500277]}}
{"city":"Redwood City","latitude":37.502742,"longitude":-122.211281,"name":"Grouply","category_code":"network_hosting","number_of_employees":6,"founded_year":2006,"geo":{"type":"Point","coordinates":[-122.211281,37.502742]}}
{"city":"Seattle","latitude":47.603015,"longitude":-122.335668,"name":"DocuSign","category_code":"software","number_of_employees":null,"founded_year":2003,"geo":{"type":"Point","coordinates":[-122.335668,47.603015]}}
{"city":"San Francisco","latitude":37.775196,"longitude":-122.419204,"name":"Wikinvest","category_code":"web","number_of_employees":null,"founded_year":2006,"geo":{"type":"Point","coordinates":[-122.419204,37.775196]}}
{"city":"Mountain View","latitude":37.39248,"longitude":-122.072612,"name":"FriendFeed","category_code":"web","number_of_employees":null,"founded_year":2007,"geo":{"type":"Point","coordinates":[-122.072612,37.39248]}}
{"city":"Palo Alto","latitude":37.557637,"longitude":-122.285714,"name":"Zimbra","category_code":"enterprise","number_of_employees":200,"founded_year":2003,"geo":{"type":"Point","coordinates":[-122.285714,37.557637]}}
{"city":"Berkeley","latitude":37.862209,"longitude":-122.298168,"name":"earthmine","category_code":"enterprise","number_of_employees":30,"founded_year":2006,"geo":{"type":"Point","coordinates":[-122.298168,37.862209]}}
{"city":"Boston","latitude":42.354022,"longitude":-71.140762,"name":"Gazelle","category_code":"ecommerce","number_of_employees":null,"founded_year":2006,"geo":{"type":"Point","coordinates":[-71.140762,42.354022]}}
{"city":"","latitude":32.856744,"longitude":-117.20717,"name":"RecipeMatcher","category_code":"web","number_of_employees":2,"founded_year":2007,"geo":{"type":"Point","coordinates":[-117.20717,32.856744]}}
{"city":"San Francisco","latitude":37.856331,"longitude":-122.495222,"name":"Whiskey Media","category_code":"web","number_of_employees":12,"founded_year":2007,"geo":{"type":"Point","coordinates":[-122.495222,37.856331]}}
{"city":"","latitude":37.408826,"longitude":-122.29522,"name":"Confabb","category_code":"web","number_of_employees":null,"founded_year":2006,"geo":{"type":"Point","coordinates":[-122.29522,37.408826]}}
{"city":"New York","latitude":40.781159,"longitude":-73.978332,"name":"RayV","category_code":"games_video","number_of_employees":null,"founded_year":2005,"geo":{"type":"Point","coordinates":[-73.978332,40.781159]}}
{"city":"Palo Alto","latitude":37.443058,"longitude":-122.161674,"name":"Uptake","category_code":"web","number_of_employees":null,"founded_year":2008,"geo":{"type":"Point","coordinates":[-122.161674,37.443058]}}
{"city":"Madrid","latitude":40.530724,"longitude":-3.632687,"name":"Fon","category_code":"mobile","number_of_employees":100,"founded_year":2006,"geo":{"type":"Point","coordinates":[-3.632687,40.530724]}}
{"city":"Mountain View","latitude":37.386175,"longitude":-122.083487,"name":"Polyvore","category_code":"web","number_of_employees":73,"founded_year":2007,"geo":{"type":"Point","coordinates":[-122.083487,37.386175]}}
{"city":"Mountain View","latitude":37.09024,"longitude":-95.712891,"name":"23andMe","category_code":"biotech","number_of_employees":80,"founded_year":2006,"geo":{"type":"Point","coordinates":[-95.712891,37.09024]}}
{"city":"Seattle","latitude":47.620716,"longitude":-122.347533,"name":"Treemo Labs","category_code":"mobile","number_of_employees":null,"founded_year":2005,"geo":{"type":"Point","coordinates":[-122.347533,47.620716]}}
{"city":"Seattle","latitude":47.649027,"longitude":-122.346299,"name":"AdReady","category_code":"advertising","number_of_employees":33,"founded_year":2006,"geo":{"type":"Point","coordinates":[-122.346299,47.649027]}}
{"city":"Redwood City","latitude":37.476479,"longitude":-122.221717,"name":"YuMe","category_code":"advertising","number_of_employees":null,"founded_year":2004,"geo":{"type":"Point","coordinates":[-122.221717,37.476479]}}
{"city":"San Francisco","latitude":37.792968,"longitude":-122.40414,"name":"Blurb","category_code":"ecommerce","number_of_employees":150,"founded_year":2005,"geo":{"type":"Point","coordinates":[-122.40414,37.792968]}}
{"city":"San Francisco","latitude":37.782809,"longitude":-122.394354,"name":"The Climate Corporation","category_code":"cleantech","number_of_employees":150,"founded_year":2006,"geo":{"type":"Point","coordinates":[-122.394354,37.782809]}}
{"city":"Seattle","latitude":47.5984767,"longitude":-122.3331466,"name":"The Climate Corporation","category_code":"cleantech","number_of_employees":150,"founded_year":2006,"geo":{"type":"Point","coordinates":[-122.3331466,47.5984767]}}
{"city":"San Francisco","latitude":37.744274,"longitude":-122.421344,"name":"Automattic","category_code":"web","number_of_employees":200,"founded_year":2005,"geo":{"type":"Point","coordinates":[-122.421344,37.744274]}}
{"city":"San Mateo","latitude":37.553743,"longitude":-122.300246,"name":"Veodia","category_code":"games_video","number_of_employees":15,"founded_year":2006,"geo":{"type":"Point","coordinates":[-122.300246,37.553743]}}
{"city":"New York","latitude":40.743808,"longitude":-73.983626,"name":"Tumblr","category_code":"web","number_of_employees":null,"founded_year":2007,"geo":{"type":"Point","coordinates":[-73.983626,40.743808]}}
{"city":"London","latitude":51.520779,"longitude":-0.10759,"name":"blinkbox","category_code":"games_video","number_of_employees":null,"founded_year":2006,"geo":{"type":"Point","coordinates":[-0.10759,51.520779]}}
{"city":"New York","latitude":40.621591,"longitude":-73.960717,"name":"Payoneer","category_code":"other","number_of_employees":200,"founded_year":2005,"geo":{"type":"Point","coordinates":[-73.960717,40.621591]}}
{"city":"Palo Alto","latitude":37.445326,"longitude":-122.160671,"name":"EchoSign","category_code":"web","number_of_employees":100,"founded_year":2005,"geo":{"type":"Point","coordinates":[-122.160671,37.445326]}}
{"city":"Seattle","latitude":47.610571,"longitude":-122.341769,"name":"Picnik","category_code":"web","number_of_employees":null,"founded_year":2006,"geo":{"type":"Point","coordinates":[-122.341769,47.610571]}}
{"city":"Berkeley","latitude":37.872222,"longitude":-122.268403,"name":"TasteBook","category_code":"web","number_of_employees":null,"founded_year":2007,"geo":{"type":"Point","coordinates":[-122.268403,37.872222]}}
{"city":"Brooklyn","latitude":40.6632194,"longitude":-73.9800645,"name":"Simpy","category_code":"web","number_of_employees":0,"founded_year":2004,"geo":{"type":"Point","coordinates":[-73.9800645,40.6632194]}}
{"city":"Denver","latitude":39.755092,"longitude":-104.988123,"name":"Buzzwire","category_code":"mobile","number_of_employees":null,"founded_year":2007,"geo":{"type":"Point","coordinates":[-104.988123,39.755092]}}
{"city":"San Francisco","latitude":37.772542,"longitude":-122.430127,"name":"Crusher","category_code":"web","number_of_employees":3,"founded_year":2006,"geo":{"type":"Point","coordinates":[-122.430127,37.772542]}}
{"city":"Redwood City","latitude":37.486571,"longitude":-122.229161,"name":"Predictify","category_code":"advertising","number_of_employees":2,"founded_year":2007,"geo":{"type":"Point","coordinates":[-122.229161,37.486571]}}
{"city":"Mountain View","latitude":37.388095,"longitude":-122.08276,"name":"TrialPay","category_code":"advertising","number_of_employees":100,"founded_year":2006,"geo":{"type":"Point","coordinates":[-122.08276,37.388095]}}
{"city":"New York","latitude":40.741266,"longitude":-73.990753,"name":"eXelate","category_code":"advertising","number_of_employees":null,"founded_year":2007,"geo":{"type":"Point","coordinates":[-73.990753,40.741266]}}
{"city":"San Francisco","latitude":37.787249,"longitude":-122.3990501,"name":"eXelate","category_code":"advertising","number_of_employees":null,"founded_year":2007,"geo":{"type":"Point","coordinates":[-122.3990501,37.787249]}}
{"city":"Chicago","latitude":41.8831959,"longitude":-87.6517774,"name":"eXelate","category_code":"advertising","number_of_employees":null,"founded_year":2007,"geo":{"type":"Point","coordinates":[-87.6517774,41.8831959]}}
{"city":"Paris","latitude":48.8743443,"longitude":2.3226888,"name":"eXelate","category_code":"advertising","number_of_employees":null,"founded_year":2007,"geo":{"type":"Point","coordinates":[2.3226888,48.8743443]}}
{"city":"London","latitude":51.5150129,"longitude":-0.1326786,"name":"eXelate","category_code":"advertising","number_of_employees":null,"founded_year":2007,"geo":{"type":"Point","coordinates":[-0.1326786,51.5150129]}}
{"city":"","latitude":37.790992,"longitude":-122.40188,"name":"Eurekster","category_code":"web","number_of_employees":0,"founded_year":2004,"geo":{"type":"Point","coordinates":[-122.40188,37.790992]}}
{"city":"Palo Alto","latitude":37.09024,"longitude":-95.712891,"name":"OnLive","category_code":"games_video","number_of_employees":null,"founded_year":2002,"geo":{"type":"Point","coordinates":[-95.712891,37.09024]}}
{"city":"San Francisco","latitude":37.791733,"longitude":-122.398398,"name":"Gydget","category_code":"web","number_of_employees":null,"founded_year":2007,"geo":{"type":"Point","coordinates":[-122.398398,37.791733]}}
{"city":"Mountain View","latitude":37.43938,"longitude":-122.158804,"name":"Gigya","category_code":"enterprise","number_of_employees":230,"founded_year":2006,"geo":{"type":"Point","coordinates":[-122.158804,37.43938]}}
{"city":"San Jose","latitude":37.332271,"longitude":-122.006539,"name":"Baynote","category_code":"software","number_of_employees":80,"founded_year":2004,"geo":{"type":"Point","coordinates":[-122.006539,37.332271]}}
{"city":"Seattle","latitude":47.602873,"longitude":-122.336132,"name":"GridNetworks","category_code":"network_hosting","number_of_employees":null,"founded_year":2004,"geo":{"type":"Point","coordinates":[-122.336132,47.602873]}}
{"city":"San Francisco","latitude":37.787126,"longitude":-122.39783,"name":"Songbird","category_code":"mobile","number_of_employees":null,"founded_year":2006,"geo":{"type":"Point","coordinates":[-122.39783,37.787126]}}
{"city":"Montreal","latitude":45.545447,"longitude":-73.639076,"name":"Defensio","category_code":"security","number_of_employees":3,"founded_year":2007,"geo":{"type":"Point","coordinates":[-73.639076,45.545447]}}
{"city":"New York","latitude":40.757929,"longitude":-73.985506,"name":"Jango","category_code":"games_video","number_of_employees":null,"founded_year":2007,"geo":{"type":"Point","coordinates":[-73.985506,40.757929]}}
{"city":"San Francisco","latitude":37.786906,"longitude":-122.397672,"name":"Disqus","category_code":"web","number_of_employees":43,"founded_year":2007,"geo":{"type":"Point","coordinates":[-122.397672,37.786906]}}
{"city":"Seattle","latitude":47.607065,"longitude":-122.335373,"name":"Pelago","category_code":"mobile","number_of_employees":null,"founded_year":2005,"geo":{"type":"Point","coordinates":[-122.335373,47.607065]}}
{"city":"","latitude":38.977092,"longitude":-94.370901,"name":"FilmCrave","category_code":"games_video","number_of_employees":3,"founded_year":2007,"geo":{"type":"Point","coordinates":[-94.370901,38.977092]}}
{"city":"Santa Clara","latitude":37.352309,"longitude":-121.968474,"name":"Upcoming","category_code":"web","number_of_employees":3,"founded_year":2003,"geo":{"type":"Point","coordinates":[-121.968474,37.352309]}}
{"city":"New York","latitude":40.7550005,"longitude":-73.9717364,"name":"Vringo","category_code":"software","number_of_employees":null,"founded_year":2006,"geo":{"type":"Point","coordinates":[-73.9717364,40.7550005]}}
{"city":"Seattle","latitude":47.603327,"longitude":-122.334983,"name":"Faves","category_code":"web","number_of_employees":7,"founded_year":2004,"geo":{"type":"Point","coordinates":[-122.334983,47.603327]}}
{"city":"Berlin","latitude":52.523402,"longitude":13.398694,"name":"Plazes","category_code":"web","number_of_employees":15,"founded_year":2006,"geo":{"type":"Point","coordinates":[13.398694,52.523402]}}
{"city":"Cambridge","latitude":52.195668,"longitude":0.130647,"name":"Evi","category_code":"search","number_of_employees":25,"founded_year":2005,"geo":{"type":"Point","coordinates":[0.130647,52.195668]}}
{"city":"Sunnyvale","latitude":37.384239,"longitude":-122.012475,"name":"Minekey","category_code":"web","number_of_employees":7,"founded_year":2005,"geo":{"type":"Point","coordinates":[-122.012475,37.384239]}}
{"city":"Seattle","latitude":47.649788,"longitude":-122.34988,"name":"Chintano","category_code":"advertising","number_of_employees":null,"founded_year":2005,"geo":{"type":"Point","coordinates":[-122.34988,47.649788]}}
{"city":"San Francisco","latitude":37.781262,"longitude":-122.394958,"name":"Dipity","category_code":"web","number_of_employees":4,"founded_year":2007,"geo":{"type":"Point","coordinates":[-122.394958,37.781262]}}
{"city":"Los Angeles","latitude":33.982431,"longitude":-118.426707,"name":"StreetFire","category_code":"web","number_of_employees":12,"founded_year":2004,"geo":{"type":"Point","coordinates":[-118.426707,33.982431]}}
{"city":"Mountain View","latitude":37.384717,"longitude":-122.081625,"name":"Loopt","category_code":"mobile","number_of_employees":null,"founded_year":2005,"geo":{"type":"Point","coordinates":[-122.081625,37.384717]}}
{"city":"Denver","latitude":39.738499,"longitude":-105.158645,"name":"TrackVia","category_code":"software","number_of_employees":null,"founded_year":2006,"geo":{"type":"Point","coordinates":[-105.158645,39.738499]}}
{"city":"Montreal","latitude":45.5049305,"longitude":-73.5681635,"name":"Needium","category_code":"enterprise","number_of_employees":15,"founded_year":2010,"geo":{"type":"Point","coordinates":[-73.5681635,45.5049305]}}
{"city":"San Francisco","latitude":37.7726402,"longitude":-122.4099154,"name":"Podaddies","category_code":"advertising","number_of_employees":null,"founded_year":2006,"geo":{"type":"Point","coordinates":[-122.4099154,37.7726402]}}
{"city":"San Mateo","latitude":37.530893,"longitude":-122.245087,"name":"MyBuys","category_code":"advertising","number_of_employees":120,"founded_year":2006,"geo":{"type":"Point","coordinates":[-122.245087,37.530893]}}
{"city":"Austin","latitude":30.269452,"longitude":-97.742682,"name":"Springbox","category_code":"web","number_of_employees":65,"founded_year":2004,"geo":{"type":"Point","coordinates":[-97.742682,30.269452]}}
{"city":"Los Angeles","latitude":34.0065488,"longitude":-118.3923578,"name":"Springbox","category_code":"web","number_of_employees":65,"founded_year":2004,"geo":{"type":"Point","coordinates":[-118.3923578,34.0065488]}}
{"city":"San Jose","latitude":37.09024,"longitude":-95.712891,"name":"Optimost","category_code":"software","number_of_employees":null,"founded_year":2001,"geo":{"type":"Point","coordinates":[-95.712891,37.09024]}}
{"city":"Santa Clara","latitude":37.399208,"longitude":-121.97895,"name":"Vobile","category_code":"web","number_of_employees":120,"founded_year":2005,"geo":{"type":"Point","coordinates":[-121.97895,37.399208]}}
{"city":"Seattle","latitude":47.6018824,"longitude":-122.3355636,"name":"Jackson Fish Market","category_code":"software","number_of_employees":3,"founded_year":2006,"geo":{"type":"Point","coordinates":[-122.3355636,47.6018824]}}
{"city":"Santa Clara","latitude":37.385216,"longitude":-121.972128,"name":"Billeo","category_code":"ecommerce","number_of_employees":null,"founded_year":2006,"geo":{"type":"Point","coordinates":[-121.972128,37.385216]}}
{"city":"Santa Clara","latitude":37.4069445,"longitude":-121.9797628,"name":"Billeo","category_code":"ecommerce","number_of_employees":null,"founded_year":2006,"geo":{"type":"Point","coordinates":[-121.9797628,37.4069445]}}
{"city":"Seattle","latitude":47.620716,"longitude":-122.347533,"name":"RealSelf","category_code":"web","number_of_employees":23,"founded_year":2006,"geo":{"type":"Point","coordinates":[-122.347533,47.620716]}}
{"city":"Berkeley","latitude":37.872228,"longitude":-122.244743,"name":"ThriveSmart","category_code":"network_hosting","number_of_employees":0,"founded_year":2006,"geo":{"type":"Point","coordinates":[-122.244743,37.872228]}}
{"city":"Seattle","latitude":47.603577,"longitude":-122.335333,"name":"RescueTime","category_code":"web","number_of_employees":null,"founded_year":2007,"geo":{"type":"Point","coordinates":[-122.335333,47.603577]}}
{"city":"Amsterdam","latitude":37.09024,"longitude":-95.712891,"name":"GeoSentric","category_code":"mobile","number_of_employees":null,"founded_year":2007,"geo":{"type":"Point","coordinates":[-95.712891,37.09024]}}
{"city":"Toronto","latitude":43.670233,"longitude":-79.386755,"name":"Sneakerplay","category_code":"web","number_of_employees":0,"founded_year":2006,"geo":{"type":"Point","coordinates":[-79.386755,43.670233]}}
{"city":"San Francisco","latitude":37.803847,"longitude":-122.402468,"name":"GameLayers","category_code":"web","number_of_employees":5,"founded_year":2007,"geo":{"type":"Point","coordinates":[-122.402468,37.803847]}}
{"city":"Seattle","latitude":47.620716,"longitude":-122.347533,"name":"Zoji","category_code":"web","number_of_employees":null,"founded_year":2004,"geo":{"type":"Point","coordinates":[-122.347533,47.620716]}}
{"city":"New York","latitude":38.984172,"longitude":-77.095965,"name":"WEbook","category_code":"web","number_of_employees":10,"founded_year":2007,"geo":{"type":"Point","coordinates":[-77.095965,38.984172]}}
{"city":"Sunnyvale","latitude":37.368594,"longitude":-122.034021,"name":"Apprema","category_code":"ecommerce","number_of_employees":4,"founded_year":2007,"geo":{"type":"Point","coordinates":[-122.034021,37.368594]}}
{"city":"Atlanta","latitude":33.7759,"longitude":-84.3927,"name":"Skribit","category_code":"web","number_of_employees":3,"founded_year":2007,"geo":{"type":"Point","coordinates":[-84.3927,33.7759]}}
{"city":"San Mateo","latitude":37.5583159,"longitude":-122.2862187,"name":"LucidEra","category_code":"enterprise","number_of_employees":40,"founded_year":2005,"geo":{"type":"Point","coordinates":[-122.2862187,37.5583159]}}
{"city":"San Francisco","latitude":37.78274,"longitude":-122.390945,"name":"Splunk","category_code":"software","number_of_employees":500,"founded_year":2003,"geo":{"type":"Point","coordinates":[-122.390945,37.78274]}}
{"city":"New York City","latitude":40.757929,"longitude":-73.985506,"name":"UpNext","category_code":"mobile","number_of_employees":null,"founded_year":2007,"geo":{"type":"Point","coordinates":[-73.985506,40.757929]}}
{"city":"Palo Alto","latitude":37.520592,"longitude":-122.255907,"name":"TrustedID","category_code":"security","number_of_employees":120,"founded_year":2005,"geo":{"type":"Point","coordinates":[-122.255907,37.520592]}}
{"city":"New York","latitude":40.755861,"longitude":-73.996272,"name":"SeeToo","category_code":"enterprise","number_of_employees":null,"founded_year":2007,"geo":{"type":"Point","coordinates":[-73.996272,40.755861]}}
{"city":"Toronto","latitude":43.744031,"longitude":-79.435661,"name":"AddLiveVoice","category_code":"web","number_of_employees":5,"founded_year":2006,"geo":{"type":"Point","coordinates":[-79.435661,43.744031]}}
{"city":"Vancouver","latitude":49.2753229,"longitude":-123.1208785,"name":"TeamPages","category_code":"web","number_of_employees":null,"founded_year":2006,"geo":{"type":"Point","coordinates":[-123.1208785,49.2753229]}}
{"city":"New York","latitude":40.606061,"longitude":-73.822331,"name":"Motionbox","category_code":"games_video","number_of_employees":null,"founded_year":2006,"geo":{"type":"Point","coordinates":[-73.822331,40.606061]}}
{"city":"Seattle","latitude":47.598968,"longitude":-122.332904,"name":"Snapvine","category_code":"other","number_of_employees":20,"founded_year":2005,"geo":{"type":"Point","coordinates":[-122.332904,47.598968]}}
{"city":"New York","latitude":40.742459,"longitude":-73.9918126,"name":"Yodle","category_code":"advertising","number_of_employees":1000,"founded_year":2005,"geo":{"type":"Point","coordinates":[-73.9918126,40.742459]}}
{"city":"Austin","latitude":30.378658,"longitude":-97.731249,"name":"Yodle","category_code":"advertising","number_of_employees":1000,"founded_year":2005,"geo":{"type":"Point","coordinates":[-97.731249,30.378658]}}
{"city":"Scottsdale","latitude":33.464377,"longitude":-111.924855,"name":"Yodle","category_code":"advertising","number_of_employees":1000,"founded_year":2005,"geo":{"type":"Point","coordinates":[-111.924855,33.464377]}}
{"city":"London","latitude":51.511599,"longitude":-0.126389,"name":"betNOW","category_code":"web","number_of_employees":null,"founded_year":2005,"geo":{"type":"Point","coordinates":[-0.126389,51.511599]}}
{"city":"Barcelona","latitude":41.3854855,"longitude":2.1702872,"name":"eyeOS","category_code":"enterprise","number_of_employees":null,"founded_year":2005,"geo":{"type":"Point","coordinates":[2.1702872,41.3854855]}}
{"city":"Seattle","latitude":47.6139472,"longitude":-122.327807,"name":"Jott","category_code":"web","number_of_employees":null,"founded_year":2006,"geo":{"type":"Point","coordinates":[-122.327807,47.6139472]}}
{"city":"Paris","latitude":46.227638,"longitude":2.213749,"name":"Kewego","category_code":"games_video","number_of_employees":65,"founded_year":2003,"geo":{"type":"Point","coordinates":[2.213749,46.227638]}}
{"city":"Cambridge","latitude":42.375392,"longitude":-71.118487,"name":"HubSpot","category_code":"software","number_of_employees":650,"founded_year":2006,"geo":{"type":"Point","coordinates":[-71.118487,42.375392]}}
{"city":"Boston","latitude":42.351105,"longitude":-71.049124,"name":"Intronis","category_code":"enterprise","number_of_employees":null,"founded_year":2003,"geo":{"type":"Point","coordinates":[-71.049124,42.351105]}}
{"city":"Bangalore","latitude":37.09024,"longitude":-95.712891,"name":"TringMe","category_code":"web","number_of_employees":null,"founded_year":2007,"geo":{"type":"Point","coordinates":[-95.712891,37.09024]}}
{"city":"New York","latitude":37.09024,"longitude":-95.712891,"name":"SocialPicks","category_code":"web","number_of_employees":null,"founded_year":2006,"geo":{"type":"Point","coordinates":[-95.712891,37.09024]}}
{"city":"","latitude":30.500307,"longitude":-94.833992,"name":"Criticker","category_code":"web","number_of_employees":0,"founded_year":2005,"geo":{"type":"Point","coordinates":[-94.833992,30.500307]}}
{"city":"San Francisco","latitude":37.7766184,"longitude":-122.3938931,"name":"Dapper","category_code":"advertising","number_of_employees":30,"founded_year":2006,"geo":{"type":"Point","coordinates":[-122.3938931,37.7766184]}}
{"city":"Paris","latitude":48.8747064,"longitude":2.3304161,"name":"Viadeo","category_code":"social","number_of_employees":400,"founded_year":2004,"geo":{"type":"Point","coordinates":[2.3304161,48.8747064]}}
{"city":"San Francisco","latitude":37.775196,"longitude":-122.419204,"name":"FFWD Wheels","category_code":"web","number_of_employees":null,"founded_year":2006,"geo":{"type":"Point","coordinates":[-122.419204,37.775196]}}
{"city":"New York","latitude":37.09024,"longitude":-95.712891,"name":"CafeMom","category_code":"network_hosting","number_of_employees":null,"founded_year":2006,"geo":{"type":"Point","coordinates":[-95.712891,37.09024]}}
{"city":"Palo Alto","latitude":37.4418834,"longitude":-122.1430195,"name":"Shipwire","category_code":"enterprise","number_of_employees":null,"founded_year":2006,"geo":{"type":"Point","coordinates":[-122.1430195,37.4418834]}}
{"city":"San Francisco","latitude":37.7749295,"longitude":-122.4194155,"name":"Uversity","category_code":"social","number_of_employees":30,"founded_year":2007,"geo":{"type":"Point","coordinates":[-122.4194155,37.7749295]}}
{"city":"","latitude":37.09024,"longitude":-95.712891,"name":"eBurl","category_code":"web","number_of_employees":1,"founded_year":2007,"geo":{"type":"Point","coordinates":[-95.712891,37.09024]}}
{"city":"Scottsdale","latitude":33.639318,"longitude":-111.883237,"name":"iMemories","category_code":"enterprise","number_of_employees":null,"founded_year":2006,"geo":{"type":"Point","coordinates":[-111.883237,33.639318]}}
{"city":"New York","latitude":40.740231,"longitude":-73.985433,"name":"BeliefNet","category_code":"web","number_of_employees":null,"founded_year":2008,"geo":{"type":"Point","coordinates":[-73.985433,40.740231]}}
{"city":"Paris","latitude":48.882434,"longitude":2.297035,"name":"Bahu","category_code":"web","number_of_employees":null,"founded_year":2007,"geo":{"type":"Point","coordinates":[2.297035,48.882434]}}
{"city":"Brooklyn","latitude":40.6772802,"longitude":-74.0094471,"name":"Vemo","category_code":"enterprise","number_of_employees":3,"founded_year":2005,"geo":{"type":"Point","coordinates":[-74.0094471,40.6772802]}}
{"city":"San Francisco","latitude":37.775196,"longitude":-122.419204,"name":"AppJet","category_code":"web","number_of_employees":null,"founded_year":2007,"geo":{"type":"Point","coordinates":[-122.419204,37.775196]}}
{"city":"New York","latitude":40.737136,"longitude":-73.987973,"name":"BustedTees","category_code":"web","number_of_employees":null,"founded_year":2004,"geo":{"type":"Point","coordinates":[-73.987973,40.737136]}}
{"city":"Mountain View","latitude":37.386665,"longitude":-122.084171,"name":"Ribbit","category_code":"mobile","number_of_employees":28,"founded_year":2005,"geo":{"type":"Point","coordinates":[-122.084171,37.386665]}}
{"city":"San Francisco","latitude":37.7876952,"longitude":-122.3991505,"name":"HubPages","category_code":"web","number_of_employees":21,"founded_year":2006,"geo":{"type":"Point","coordinates":[-122.3991505,37.7876952]}}
{"city":"Paris","latitude":48.872159,"longitude":2.291225,"name":"Streamezzo","category_code":"mobile","number_of_employees":null,"founded_year":2004,"geo":{"type":"Point","coordinates":[2.291225,48.872159]}}
{"city":"New York","latitude":40.755978,"longitude":-73.990396,"name":"ideeli","category_code":"ecommerce","number_of_employees":null,"founded_year":2007,"geo":{"type":"Point","coordinates":[-73.990396,40.755978]}}
{"city":"Berkeley","latitude":37.864221,"longitude":-122.265466,"name":"Vyew","category_code":"web","number_of_employees":10,"founded_year":2004,"geo":{"type":"Point","coordinates":[-122.265466,37.864221]}}
{"city":"","latitude":40.7508,"longitude":-73.996122,"name":"GoLark","category_code":"web","number_of_employees":3,"founded_year":2007,"geo":{"type":"Point","coordinates":[-73.996122,40.7508]}}
{"city":"New York","latitude":40.752516,"longitude":-73.973072,"name":"WeShow","category_code":"games_video","number_of_employees":0,"founded_year":2007,"geo":{"type":"Point","coordinates":[-73.973072,40.752516]}}
{"city":"Mountain View","latitude":37.3867729,"longitude":-122.0752224,"name":"Kosmix","category_code":"web","number_of_employees":null,"founded_year":2005,"geo":{"type":"Point","coordinates":[-122.0752224,37.3867729]}}
{"city":"Austin","latitude":29.804863,"longitude":-95.49158,"name":"CareFlash","category_code":"web","number_of_employees":0,"founded_year":2007,"geo":{"type":"Point","coordinates":[-95.49158,29.804863]}}
{"city":"New York","latitude":40.757929,"longitude":-73.985506,"name":"Chictini","category_code":"network_hosting","number_of_employees":null,"founded_year":2007,"geo":{"type":"Point","coordinates":[-73.985506,40.757929]}}
{"city":"Redwood City","latitude":37.486368,"longitude":-122.230116,"name":"Qik","category_code":"mobile","number_of_employees":60,"founded_year":2006,"geo":{"type":"Point","coordinates":[-122.230116,37.486368]}}
{"city":"Austin","latitude":30.402252,"longitude":-97.748795,"name":"RipCode","category_code":"software","number_of_employees":39,"founded_year":2006,"geo":{"type":"Point","coordinates":[-97.748795,30.402252]}}
{"city":"Menlo Park","latitude":37.478769,"longitude":-122.140896,"name":"RivalSoft","category_code":"enterprise","number_of_employees":null,"founded_year":2007,"geo":{"type":"Point","coordinates":[-122.140896,37.478769]}}
{"city":"San Francisco","latitude":37.78624,"longitude":-122.39897,"name":"Mobissimo","category_code":"search","number_of_employees":15,"founded_year":2003,"geo":{"type":"Point","coordinates":[-122.39897,37.78624]}}
{"city":"Washington","latitude":38.915181,"longitude":-77.028767,"name":"GlobalGiving","category_code":"web","number_of_employees":null,"founded_year":2003,"geo":{"type":"Point","coordinates":[-77.028767,38.915181]}}
{"city":"San Diego","latitude":32.939673,"longitude":-117.240799,"name":"Chumby","category_code":"hardware","number_of_employees":20,"founded_year":2005,"geo":{"type":"Point","coordinates":[-117.240799,32.939673]}}
{"city":"Brooklyn","latitude":40.694731,"longitude":-73.983268,"name":"Etsy","category_code":"ecommerce","number_of_employees":300,"founded_year":2005,"geo":{"type":"Point","coordinates":[-73.983268,40.694731]}}
{"city":"Austin","latitude":30.268236,"longitude":-97.740651,"name":"Challenge Games","category_code":"network_hosting","number_of_employees":null,"founded_year":2006,"geo":{"type":"Point","coordinates":[-97.740651,30.268236]}}
{"city":"","latitude":22.396428,"longitude":114.109497,"name":"EditGrid","category_code":"public_relations","number_of_employees":0,"founded_year":2003,"geo":{"type":"Point","coordinates":[114.109497,22.396428]}}
{"city":"New York","latitude":40.757929,"longitude":-73.985506,"name":"SnapVillage","category_code":"web","number_of_employees":null,"founded_year":2007,"geo":{"type":"Point","coordinates":[-73.985506,40.757929]}}
{"city":"Redwood City","latitude":37.3208403,"longitude":-121.9479223,"name":"Bunchball","category_code":"software","number_of_employees":60,"founded_year":2005,"geo":{"type":"Point","coordinates":[-121.9479223,37.3208403]}}
{"city":"New York","latitude":40.762673,"longitude":-73.969296,"name":"SimulScribe","category_code":"web","number_of_employees":10,"founded_year":2003,"geo":{"type":"Point","coordinates":[-73.969296,40.762673]}}
{"city":"Seattle","latitude":47.600818,"longitude":-122.334117,"name":"Delve Networks","category_code":"games_video","number_of_employees":null,"founded_year":2006,"geo":{"type":"Point","coordinates":[-122.334117,47.600818]}}
{"city":"Austin","latitude":30.216908,"longitude":-97.685078,"name":"HelioVolt","category_code":"cleantech","number_of_employees":null,"founded_year":2001,"geo":{"type":"Point","coordinates":[-97.685078,30.216908]}}
{"city":"New York","latitude":37.402802,"longitude":-122.117418,"name":"TravelMuse","category_code":"web","number_of_employees":11,"founded_year":2007,"geo":{"type":"Point","coordinates":[-122.117418,37.402802]}}
{"city":"New York","latitude":37.09024,"longitude":-95.712891,"name":"LifeOnKey","category_code":"web","number_of_employees":null,"founded_year":2003,"geo":{"type":"Point","coordinates":[-95.712891,37.09024]}}
{"city":"San Francisco","latitude":25.752358,"longitude":-80.25468,"name":"Scrapblog","category_code":"web","number_of_employees":null,"founded_year":2006,"geo":{"type":"Point","coordinates":[-80.25468,25.752358]}}
{"city":"Redwood City","latitude":37.476479,"longitude":-122.221717,"name":"PlayCafe","category_code":"games_video","number_of_employees":null,"founded_year":2006,"geo":{"type":"Point","coordinates":[-122.221717,37.476479]}}
{"city":"San Francisco","latitude":37.392443,"longitude":-122.072517,"name":"Meraki","category_code":"network_hosting","number_of_employees":null,"founded_year":2006,"geo":{"type":"Point","coordinates":[-122.072517,37.392443]}}
{"city":"New York","latitude":40.797364,"longitude":-73.97785,"name":"Orglex","category_code":"web","number_of_employees":0,"founded_year":2007,"geo":{"type":"Point","coordinates":[-73.97785,40.797364]}}
{"city":"Sunnyvale","latitude":37.385225,"longitude":-121.991912,"name":"4Home","category_code":"software","number_of_employees":36,"founded_year":2006,"geo":{"type":"Point","coordinates":[-121.991912,37.385225]}}
{"city":"San Francisco","latitude":37.763652,"longitude":-122.421778,"name":"Mogad","category_code":"network_hosting","number_of_employees":2,"founded_year":2007,"geo":{"type":"Point","coordinates":[-122.421778,37.763652]}}
{"city":"Washington","latitude":37.09024,"longitude":-95.712891,"name":"ARPU","category_code":"advertising","number_of_employees":null,"founded_year":2005,"geo":{"type":"Point","coordinates":[-95.712891,37.09024]}}
{"city":"San Francisco","latitude":37.775196,"longitude":-122.419204,"name":"Outspark","category_code":"games_video","number_of_employees":null,"founded_year":2007,"geo":{"type":"Point","coordinates":[-122.419204,37.775196]}}
{"city":"San Francisco","latitude":37.856743,"longitude":-122.480153,"name":"Joyent","category_code":"enterprise","number_of_employees":null,"founded_year":2004,"geo":{"type":"Point","coordinates":[-122.480153,37.856743]}}
{"city":"Chicago","latitude":41.883551,"longitude":-87.636411,"name":"Mpayy","category_code":"ecommerce","number_of_employees":2,"founded_year":2007,"geo":{"type":"Point","coordinates":[-87.636411,41.883551]}}
{"city":"Palo Alto","latitude":37.400821,"longitude":-122.131383,"name":"PLYmedia","category_code":"advertising","number_of_employees":null,"founded_year":2006,"geo":{"type":"Point","coordinates":[-122.131383,37.400821]}}
{"city":"San Francisco","latitude":37.798853,"longitude":-122.398599,"name":"Widgetbox","category_code":"other","number_of_employees":30,"founded_year":2012,"geo":{"type":"Point","coordinates":[-122.398599,37.798853]}}
{"city":"San Diego","latitude":32.718834,"longitude":-117.163841,"name":"CheerOutLoud","category_code":"web","number_of_employees":0,"founded_year":2007,"geo":{"type":"Point","coordinates":[-117.163841,32.718834]}}
{"city":"San Mateo","latitude":37.553743,"longitude":-122.300246,"name":"fabrik","category_code":"network_hosting","number_of_employees":175,"founded_year":2005,"geo":{"type":"Point","coordinates":[-122.300246,37.553743]}}
{"city":"New York","latitude":40.75362,"longitude":-73.986557,"name":"yoonew","category_code":"web","number_of_employees":null,"founded_year":2004,"geo":{"type":"Point","coordinates":[-73.986557,40.75362]}}
{"city":"Los Angeles","latitude":34.047312,"longitude":-118.445243,"name":"RazorGator","category_code":"ecommerce","number_of_employees":null,"founded_year":2011,"geo":{"type":"Point","coordinates":[-118.445243,34.047312]}}
{"city":"San Mateo","latitude":37.557637,"longitude":-122.285714,"name":"SuccessFactors","category_code":"enterprise","number_of_employees":1200,"founded_year":2001,"geo":{"type":"Point","coordinates":[-122.285714,37.557637]}}
{"city":"London","latitude":51.500152,"longitude":-0.126236,"name":"WAYN","category_code":"network_hosting","number_of_employees":42,"founded_year":2002,"geo":{"type":"Point","coordinates":[-0.126236,51.500152]}}
{"city":"Austin","latitude":30.390071,"longitude":-97.711652,"name":"Mumboe","category_code":"software","number_of_employees":17,"founded_year":2005,"geo":{"type":"Point","coordinates":[-97.711652,30.390071]}}
{"city":"London","latitude":51.522413,"longitude":-0.0926903,"name":"UnLtdWorld","category_code":"enterprise","number_of_employees":4,"founded_year":2007,"geo":{"type":"Point","coordinates":[-0.0926903,51.522413]}}
{"city":"","latitude":37.09024,"longitude":-95.712891,"name":"Boobik","category_code":"web","number_of_employees":3,"founded_year":2007,"geo":{"type":"Point","coordinates":[-95.712891,37.09024]}}
{"city":"Denver","latitude":39.758126,"longitude":-105.01277,"name":"HouseFront","category_code":"web","number_of_employees":0,"founded_year":2006,"geo":{"type":"Point","coordinates":[-105.01277,39.758126]}}
{"city":"Palo Alto","latitude":37.766909,"longitude":-122.406676,"name":"Proximic","category_code":"analytics","number_of_employees":20,"founded_year":2006,"geo":{"type":"Point","coordinates":[-122.406676,37.766909]}}
{"city":"Redwood City","latitude":37.52845,"longitude":-122.263721,"name":"Amobee","category_code":"advertising","number_of_employees":null,"founded_year":2005,"geo":{"type":"Point","coordinates":[-122.263721,37.52845]}}
{"city":"Boston","latitude":42.3536303,"longitude":-71.0590483,"name":"Visible Measures","category_code":"advertising","number_of_employees":null,"founded_year":2005,"geo":{"type":"Point","coordinates":[-71.0590483,42.3536303]}}
{"city":"San Francisco","latitude":37.7891288,"longitude":-122.4020276,"name":"Roost","category_code":"software","number_of_employees":15,"founded_year":2007,"geo":{"type":"Point","coordinates":[-122.4020276,37.7891288]}}
{"city":"London","latitude":51.5001524,"longitude":-0.1262362,"name":"WorldTV","category_code":"games_video","number_of_employees":5,"founded_year":2006,"geo":{"type":"Point","coordinates":[-0.1262362,51.5001524]}}
{"city":"Boulder","latitude":40.01621,"longitude":-105.28131,"name":"Lijit Networks","category_code":"advertising","number_of_employees":50,"founded_year":2006,"geo":{"type":"Point","coordinates":[-105.28131,40.01621]}}
{"city":"","latitude":48.416421,"longitude":-123.376129,"name":"GeoDentist","category_code":"web","number_of_employees":0,"founded_year":2006,"geo":{"type":"Point","coordinates":[-123.376129,48.416421]}}
{"city":"Santa Monica","latitude":34.031764,"longitude":-118.461884,"name":"WonderHowTo","category_code":"games_video","number_of_employees":12,"founded_year":2008,"geo":{"type":"Point","coordinates":[-118.461884,34.031764]}}
{"city":"San Francisco","latitude":37.2906027,"longitude":-121.9317853,"name":"clipsync","category_code":"web","number_of_employees":28,"founded_year":2007,"geo":{"type":"Point","coordinates":[-121.9317853,37.2906027]}}
{"city":"San Francisco","latitude":37.788266,"longitude":-122.403865,"name":"Lookery","category_code":"web","number_of_employees":9,"founded_year":2007,"geo":{"type":"Point","coordinates":[-122.403865,37.788266]}}
{"city":"Cambridge","latitude":42.398424,"longitude":-71.130297,"name":"Lookery","category_code":"web","number_of_employees":9,"founded_year":2007,"geo":{"type":"Point","coordinates":[-71.130297,42.398424]}}
{"city":"Palo Alto","latitude":37.4441726,"longitude":-122.1632941,"name":"fbExchange","category_code":"public_relations","number_of_employees":null,"founded_year":2007,"geo":{"type":"Point","coordinates":[-122.1632941,37.4441726]}}
{"city":"San Francisco","latitude":37.775196,"longitude":-122.419204,"name":"Heroku","category_code":"enterprise","number_of_employees":80,"founded_year":2007,"geo":{"type":"Point","coordinates":[-122.419204,37.775196]}}
{"city":"","latitude":37.09024,"longitude":-95.712891,"name":"YouPorn","category_code":"games_video","number_of_employees":null,"founded_year":2006,"geo":{"type":"Point","coordinates":[-95.712891,37.09024]}}
{"city":"San Francisco","latitude":37.788827,"longitude":-122.38944,"name":"XLR8 Mobile","category_code":"web","number_of_employees":21,"founded_year":2006,"geo":{"type":"Point","coordinates":[-122.38944,37.788827]}}
{"city":"Berkeley","latitude":37.864256,"longitude":-122.26694,"name":"FotoFlexer","category_code":"public_relations","number_of_employees":17,"founded_year":2007,"geo":{"type":"Point","coordinates":[-122.26694,37.864256]}}
{"city":"Palo Alto","latitude":37.550954,"longitude":-122.315396,"name":"Sharetivity","category_code":"web","number_of_employees":10,"founded_year":2007,"geo":{"type":"Point","coordinates":[-122.315396,37.550954]}}
{"city":"Mountain View","latitude":37.392962,"longitude":-122.079114,"name":"Mill River Labs","category_code":"web","number_of_employees":5,"founded_year":2007,"geo":{"type":"Point","coordinates":[-122.079114,37.392962]}}
{"city":"Austin","latitude":30.384453,"longitude":-97.709809,"name":"BreakingPoint Systems","category_code":"security","number_of_employees":109,"founded_year":2005,"geo":{"type":"Point","coordinates":[-97.709809,30.384453]}}
{"city":"London","latitude":51.500152,"longitude":-0.126236,"name":"Seatwave","category_code":"ecommerce","number_of_employees":null,"founded_year":2006,"geo":{"type":"Point","coordinates":[-0.126236,51.500152]}}
{"city":"Miami","latitude":25.8334637,"longitude":-80.3330554,"name":"Relenta","category_code":"advertising","number_of_employees":null,"founded_year":2004,"geo":{"type":"Point","coordinates":[-80.3330554,25.8334637]}}
{"city":"Barcelona","latitude":41.383182,"longitude":2.163697,"name":"]project-open[","category_code":"software","number_of_employees":3,"founded_year":2003,"geo":{"type":"Point","coordinates":[2.163697,41.383182]}}
{"city":"","latitude":38.003376,"longitude":-79.420926,"name":"HonestMall","category_code":"web","number_of_employees":30,"founded_year":2004,"geo":{"type":"Point","coordinates":[-79.420926,38.003376]}}
{"city":"Philadelphia","latitude":39.952229,"longitude":-75.162644,"name":"myfirstpaycheck","category_code":"web","number_of_employees":4,"founded_year":2007,"geo":{"type":"Point","coordinates":[-75.162644,39.952229]}}
{"city":"Vancouver","latitude":49.285173,"longitude":-123.095238,"name":"memelabs","category_code":"web","number_of_employees":10,"founded_year":2006,"geo":{"type":"Point","coordinates":[-123.095238,49.285173]}}
{"city":"Seattle","latitude":47.6064,"longitude":-122.3308,"name":"PopShops","category_code":"web","number_of_employees":3,"founded_year":2006,"geo":{"type":"Point","coordinates":[-122.3308,47.6064]}}
{"city":"Los Angeles","latitude":34.128046,"longitude":-118.289065,"name":"MetaNotes","category_code":"web","number_of_employees":4,"founded_year":2007,"geo":{"type":"Point","coordinates":[-118.289065,34.128046]}}
{"city":"Sydney","latitude":-34.054416,"longitude":151.039775,"name":"thatsmymouse","category_code":"web","number_of_employees":3,"founded_year":2008,"geo":{"type":"Point","coordinates":[151.039775,-34.054416]}}
{"city":"Seattle","latitude":47.615313,"longitude":-122.323408,"name":"eNotes","category_code":"web","number_of_employees":11,"founded_year":2004,"geo":{"type":"Point","coordinates":[-122.323408,47.615313]}}
{"city":"","latitude":40.757929,"longitude":-73.985506,"name":"Massify","category_code":"web","number_of_employees":null,"founded_year":2006,"geo":{"type":"Point","coordinates":[-73.985506,40.757929]}}
{"city":"Seattle","latitude":47.650674,"longitude":-122.349863,"name":"Survey Analytics","category_code":"web","number_of_employees":100,"founded_year":2003,"geo":{"type":"Point","coordinates":[-122.349863,47.650674]}}
{"city":"Seattle","latitude":47.599136,"longitude":-122.334393,"name":"Mergelab","category_code":"web","number_of_employees":3,"founded_year":2007,"geo":{"type":"Point","coordinates":[-122.334393,47.599136]}}
{"city":"New York","latitude":40.757929,"longitude":-73.985506,"name":"Gawker Media","category_code":"games_video","number_of_employees":null,"founded_year":2002,"geo":{"type":"Point","coordinates":[-73.985506,40.757929]}}
{"city":"","latitude":37.269175,"longitude":-119.306607,"name":"VentureBeat","category_code":"public_relations","number_of_employees":null,"founded_year":2006,"geo":{"type":"Point","coordinates":[-119.306607,37.269175]}}
{"city":"London","latitude":51.500152,"longitude":-0.126236,"name":"idiomag","category_code":"games_video","number_of_employees":null,"founded_year":2006,"geo":{"type":"Point","coordinates":[-0.126236,51.500152]}}
{"city":"Seattle","latitude":47.634444,"longitude":-122.3419,"name":"Openomy","category_code":"web","number_of_employees":null,"founded_year":2005,"geo":{"type":"Point","coordinates":[-122.3419,47.634444]}}
{"city":"Bangalore","latitude":12.933644,"longitude":77.628576,"name":"Vaakya Technologies","category_code":"software","number_of_employees":40,"founded_year":2003,"geo":{"type":"Point","coordinates":[77.628576,12.933644]}}
{"city":"Seattle","latitude":47.680496,"longitude":-122.120938,"name":"TalentSpring","category_code":"web","number_of_employees":9,"founded_year":2006,"geo":{"type":"Point","coordinates":[-122.120938,47.680496]}}
{"city":"New York","latitude":40.707253,"longitude":-74.007413,"name":"Metromole","category_code":"web","number_of_employees":3,"founded_year":2007,"geo":{"type":"Point","coordinates":[-74.007413,40.707253]}}
{"city":"Palo Alto","latitude":37.407752,"longitude":-122.154565,"name":"Collarity","category_code":"advertising","number_of_employees":30,"founded_year":2005,"geo":{"type":"Point","coordinates":[-122.154565,37.407752]}}
{"city":"San Francisco","latitude":37.7466655,"longitude":-122.4428064,"name":"Bia2","category_code":"web","number_of_employees":null,"founded_year":2003,"geo":{"type":"Point","coordinates":[-122.4428064,37.7466655]}}
{"city":"New York","latitude":40.715145,"longitude":-74.005897,"name":"Convos","category_code":"web","number_of_employees":null,"founded_year":2006,"geo":{"type":"Point","coordinates":[-74.005897,40.715145]}}
{"city":"San Francisco","latitude":37.790032,"longitude":-122.404488,"name":"Unknown Vector","category_code":"web","number_of_employees":7,"founded_year":2008,"geo":{"type":"Point","coordinates":[-122.404488,37.790032]}}
{"city":"Brooklyn","latitude":40.684257,"longitude":-73.961981,"name":"Brownstoner Media","category_code":"web","number_of_employees":2,"founded_year":2004,"geo":{"type":"Point","coordinates":[-73.961981,40.684257]}}
{"city":"San Francisco","latitude":37.776467,"longitude":-122.395792,"name":"Kazowie","category_code":"web","number_of_employees":6,"founded_year":2007,"geo":{"type":"Point","coordinates":[-122.395792,37.776467]}}
{"city":"Palo Alto","latitude":37.383844,"longitude":-121.918319,"name":"Mixbook","category_code":"web","number_of_employees":90,"founded_year":2006,"geo":{"type":"Point","coordinates":[-121.918319,37.383844]}}
{"city":"Los Angeles","latitude":34.059721,"longitude":-118.425401,"name":"PlanJam","category_code":"web","number_of_employees":3,"founded_year":2006,"geo":{"type":"Point","coordinates":[-118.425401,34.059721]}}
{"city":"Philadelphia","latitude":39.9564403,"longitude":-75.1961715,"name":"Vuzit","category_code":"software","number_of_employees":6,"founded_year":2006,"geo":{"type":"Point","coordinates":[-75.1961715,39.9564403]}}
{"city":"Portland","latitude":45.446475,"longitude":-122.773646,"name":"LUNARR","category_code":"web","number_of_employees":11,"founded_year":2006,"geo":{"type":"Point","coordinates":[-122.773646,45.446475]}}
{"city":"New York","latitude":40.75033,"longitude":-73.968173,"name":"HeadStrong Brain Gym","category_code":"software","number_of_employees":5,"founded_year":2006,"geo":{"type":"Point","coordinates":[-73.968173,40.75033]}}
{"city":"Palo Alto","latitude":37.451255,"longitude":-122.117133,"name":"Paglo","category_code":"search","number_of_employees":9,"founded_year":2007,"geo":{"type":"Point","coordinates":[-122.117133,37.451255]}}
{"city":"San Francisco","latitude":37.7776778,"longitude":-122.3921102,"name":"What They Like","category_code":"web","number_of_employees":10,"founded_year":2007,"geo":{"type":"Point","coordinates":[-122.3921102,37.7776778]}}
{"city":"Toronto","latitude":43.670233,"longitude":-79.386755,"name":"Zytran","category_code":"web","number_of_employees":null,"founded_year":2007,"geo":{"type":"Point","coordinates":[-79.386755,43.670233]}}
{"city":"San Jose","latitude":37.244187,"longitude":-121.9053,"name":"JukeFly","category_code":"games_video","number_of_employees":2,"founded_year":2007,"geo":{"type":"Point","coordinates":[-121.9053,37.244187]}}
{"city":"Seattle","latitude":47.66274,"longitude":-122.300863,"name":"Movaya","category_code":"software","number_of_employees":20,"founded_year":2006,"geo":{"type":"Point","coordinates":[-122.300863,47.66274]}}
{"city":"New York","latitude":40.744837,"longitude":-73.983843,"name":"stickK","category_code":"web","number_of_employees":null,"founded_year":2007,"geo":{"type":"Point","coordinates":[-73.983843,40.744837]}}
