{"name":"UCWeb","category_code":"software","founded_year":2004,"country_code":"CHN","city":"Guangzhou","latitude":23.1337544,"longitude":113.3853308,"number_of_employees":1700,"type":"BigCompany","2Dgeo":[113.3853308,23.1337544]}
{"name":"UCWeb","category_code":"software","founded_year":2004,"country_code":"USA","city":"San Francisco","latitude":37.7814765,"longitude":-122.4013217,"number_of_employees":1700,"type":"BigCompany","2Dgeo":[-122.4013217,37.7814765]}
{"name":"Veeam Software","category_code":"software","founded_year":2006,"country_code":"USA","city":"Columbus","latitude":40.088052,"longitude":-83.088566,"number_of_employees":1500,"type":"BigCompany","2Dgeo":[-83.088566,40.088052]}
{"name":"HubSpot","category_code":"software","founded_year":2006,"country_code":"USA","city":"Cambridge","latitude":42.375392,"longitude":-71.118487,"number_of_employees":650,"type":"BigCompany","2Dgeo":[-71.118487,42.375392]}
{"name":"Kabam","category_code":"games_video","founded_year":2006,"country_code":"USA","city":"San Francisco","latitude":37.3944561,"longitude":-122.0785314,"number_of_employees":650,"type":"BigCompany","2Dgeo":[-122.0785314,37.3944561]}
{"name":"Bazaarvoice","category_code":"software","founded_year":2005,"country_code":"USA","city":"Austin","latitude":30.407545,"longitude":-97.717667,"number_of_employees":600,"type":"BigCompany","2Dgeo":[-97.717667,30.407545]}
{"name":"Veeva","category_code":"software","founded_year":2007,"country_code":"USA","city":"Pleasanton","latitude":37.69249,"longitude":-121.900722,"number_of_employees":510,"type":"BigCompany","2Dgeo":[-121.900722,37.69249]}
{"name":"Zendesk","category_code":"software","founded_year":2007,"country_code":"USA","city":"San Francisco","latitude":55.676294,"longitude":12.568116,"number_of_employees":400,"type":"BigCompany","2Dgeo":[12.568116,55.676294]}
{"name":"Dropbox","category_code":"software","founded_year":2007,"country_code":"USA","city":"San Francisco","latitude":37.7909427,"longitude":-122.4084994,"number_of_employees":350,"type":"BigCompany","2Dgeo":[-122.4084994,37.7909427]}
{"name":"SPIL GAMES","category_code":"games_video","founded_year":2004,"country_code":"NLD","city":"Hilversum","latitude":52.220726,"longitude":5.198824,"number_of_employees":300,"type":"BigCompany","2Dgeo":[5.198824,52.220726]}
{"name":"Evernote","category_code":"software","founded_year":2004,"country_code":"USA","city":"Redwood City","latitude":37.386774,"longitude":-121.987661,"number_of_employees":280,"type":"BigCompany","2Dgeo":[-121.987661,37.386774]}
{"name":"Marketo","category_code":"software","founded_year":2006,"country_code":"USA","city":"San Mateo","latitude":37.5583,"longitude":-122.301385,"number_of_employees":260,"type":"BigCompany","2Dgeo":[-122.301385,37.5583]}
{"name":"Ustream","category_code":"games_video","founded_year":2007,"country_code":"USA","city":"San Francisco","latitude":37.392936,"longitude":-122.07948,"number_of_employees":250,"type":"BigCompany","2Dgeo":[-122.07948,37.392936]}
{"name":"Kareo","category_code":"software","founded_year":2004,"country_code":"USA","city":"Irvine","latitude":33.676444,"longitude":-117.8587,"number_of_employees":250,"type":"BigCompany","2Dgeo":[-117.8587,33.676444]}
{"name":"Zuora","category_code":"software","founded_year":2007,"country_code":"USA","city":"Foster City","latitude":37.5596277,"longitude":-122.2709868,"number_of_employees":250,"type":"BigCompany","2Dgeo":[-122.2709868,37.5596277]}
{"name":"Tiempo Development","category_code":"software","founded_year":2006,"country_code":"USA","city":"Tempe","latitude":33.4298452,"longitude":-111.9387842,"number_of_employees":230,"type":"BigCompany","2Dgeo":[-111.9387842,33.4298452]}
{"name":"WSO2","category_code":"software","founded_year":2005,"country_code":"USA","city":"Palo Alto","latitude":37.390918,"longitude":-122.080843,"number_of_employees":228,"type":"BigCompany","2Dgeo":[-122.080843,37.390918]}
{"name":"WSO2","category_code":"software","founded_year":2005,"country_code":"GBR","city":"","latitude":50.8472228,"longitude":-0.919424,"number_of_employees":228,"type":"BigCompany","2Dgeo":[-0.919424,50.8472228]}
{"name":"Nexenta Systems","category_code":"software","founded_year":2005,"country_code":"USA","city":"Santa Clara","latitude":37.444098,"longitude":-122.161287,"number_of_employees":200,"type":"BigCompany","2Dgeo":[-122.161287,37.444098]}
{"name":"Tekriti Software","category_code":"software","founded_year":2005,"country_code":"IND","city":"Gurgaon","latitude":28.435018,"longitude":77.003186,"number_of_employees":200,"type":"BigCompany","2Dgeo":[77.003186,28.435018]}
{"name":"Rigel Networks","category_code":"software","founded_year":2004,"country_code":"USA","city":"Newport Beach","latitude":33.660955,"longitude":-117.867679,"number_of_employees":200,"type":"BigCompany","2Dgeo":[-117.867679,33.660955]}
{"name":"Unity Technologies","category_code":"games_video","founded_year":2004,"country_code":"USA","city":"San Francisco","latitude":55.6924605,"longitude":12.530107,"number_of_employees":200,"type":"BigCompany","2Dgeo":[12.530107,55.6924605]}
{"name":"Lyft","category_code":"software","founded_year":2007,"country_code":"USA","city":"San Francisco","latitude":37.7899027,"longitude":-122.4007846,"number_of_employees":180,"type":"BigCompany","2Dgeo":[-122.4007846,37.7899027]}
{"name":"Lyft","category_code":"software","founded_year":2007,"country_code":"USA","city":"San Francisco","latitude":37.7899027,"longitude":-122.4007846,"number_of_employees":180,"type":"BigCompany","2Dgeo":[-122.4007846,37.7899027]}
{"name":"Vocalocity","category_code":"software","founded_year":2007,"country_code":"USA","city":"Atlanta","latitude":33.7812614,"longitude":-84.3675617,"number_of_employees":175,"type":"BigCompany","2Dgeo":[-84.3675617,33.7812614]}
{"name":"WANdisco","category_code":"software","founded_year":2005,"country_code":"USA","city":"San Ramon","latitude":37.769205,"longitude":-121.966395,"number_of_employees":175,"type":"BigCompany","2Dgeo":[-121.966395,37.769205]}
{"name":"WANdisco","category_code":"software","founded_year":2005,"country_code":"GBR","city":"Sheffield","latitude":53.3800107,"longitude":-1.4629301,"number_of_employees":175,"type":"BigCompany","2Dgeo":[-1.4629301,53.3800107]}
{"name":"Quantum Secure","category_code":"software","founded_year":2004,"country_code":"USA","city":"San Jose","latitude":37.367838,"longitude":-121.915594,"number_of_employees":160,"type":"BigCompany","2Dgeo":[-121.915594,37.367838]}
{"name":"hulu","category_code":"games_video","founded_year":2007,"country_code":"USA","city":"Los Angeles","latitude":34.031276,"longitude":-118.456806,"number_of_employees":153,"type":"BigCompany","2Dgeo":[-118.456806,34.031276]}
{"name":"ngmoco","category_code":"games_video","founded_year":2008,"country_code":"USA","city":"San Francisco","latitude":37.7705096,"longitude":-122.4015807,"number_of_employees":150,"type":"BigCompany","2Dgeo":[-122.4015807,37.7705096]}
{"name":"i-Jet Media","category_code":"games_video","founded_year":2005,"country_code":"USA","city":"Sunnyvale","latitude":37.384239,"longitude":-122.012475,"number_of_employees":150,"type":"BigCompany","2Dgeo":[-122.012475,37.384239]}
{"name":"Z2Live","category_code":"games_video","founded_year":2009,"country_code":"USA","city":"Seattle","latitude":47.6103008,"longitude":-122.3399782,"number_of_employees":130,"type":"BigCompany","2Dgeo":[-122.3399782,47.6103008]}
{"name":"Velocify","category_code":"software","founded_year":2004,"country_code":"USA","city":"El Segundo","latitude":33.9192583,"longitude":-118.3952969,"number_of_employees":125,"type":"BigCompany","2Dgeo":[-118.3952969,33.9192583]}
{"name":"Modern Feed","category_code":"games_video","founded_year":2007,"country_code":"USA","city":"Los Angeles","latitude":34.085749,"longitude":-118.343791,"number_of_employees":123,"type":"BigCompany","2Dgeo":[-118.343791,34.085749]}
{"name":"Livestream","category_code":"games_video","founded_year":2007,"country_code":"USA","city":"New York","latitude":40.726155,"longitude":-73.995625,"number_of_employees":120,"type":"BigCompany","2Dgeo":[-73.995625,40.726155]}
{"name":"spigit","category_code":"software","founded_year":2006,"country_code":"USA","city":"Pleasanton","latitude":37.6637279,"longitude":-121.8731805,"number_of_employees":120,"type":"BigCompany","2Dgeo":[-121.8731805,37.6637279]}
{"name":"spigit","category_code":"software","founded_year":2006,"country_code":"USA","city":"Reston","latitude":38.9590083,"longitude":-77.3592746,"number_of_employees":120,"type":"BigCompany","2Dgeo":[-77.3592746,38.9590083]}
{"name":"spigit","category_code":"software","founded_year":2006,"country_code":"GBR","city":"London","latitude":51.5170385,"longitude":-0.1394759,"number_of_employees":120,"type":"BigCompany","2Dgeo":[-0.1394759,51.5170385]}
{"name":"uTest","category_code":"software","founded_year":2007,"country_code":"USA","city":"Framingham","latitude":42.288291,"longitude":-71.52679,"number_of_employees":120,"type":"BigCompany","2Dgeo":[-71.52679,42.288291]}
{"name":"Avature","category_code":"software","founded_year":2004,"country_code":"USA","city":"New York","latitude":40.706271,"longitude":-74.009242,"number_of_employees":120,"type":"BigCompany","2Dgeo":[-74.009242,40.706271]}
{"name":"Integrate","category_code":"software","founded_year":2010,"country_code":"USA","city":"Scottsdale","latitude":40.7481039,"longitude":-74.0353787,"number_of_employees":120,"type":"BigCompany","2Dgeo":[-74.0353787,40.7481039]}
{"name":"Integrate","category_code":"software","founded_year":2010,"country_code":"USA","city":"Scottsdale","latitude":40.7481039,"longitude":-74.0353787,"number_of_employees":120,"type":"BigCompany","2Dgeo":[-74.0353787,40.7481039]}
{"name":"Zynga","category_code":"games_video","founded_year":2007,"country_code":"USA","city":"San Francisco","latitude":37.765158,"longitude":-122.404234,"number_of_employees":115,"type":"BigCompany","2Dgeo":[-122.404234,37.765158]}
{"name":"Clarizen","category_code":"software","founded_year":2005,"country_code":"USA","city":"San Mateo","latitude":37.536044,"longitude":-122.328401,"number_of_employees":110,"type":"BigCompany","2Dgeo":[-122.328401,37.536044]}
{"name":"MapVersa","category_code":"software","founded_year":2008,"country_code":"USA","city":"San Diego","latitude":32.902266,"longitude":-117.20834,"number_of_employees":110,"type":"BigCompany","2Dgeo":[-117.20834,32.902266]}
{"name":"Prezi","category_code":"software","founded_year":2009,"country_code":"HUN","city":"Budapest","latitude":47.490346,"longitude":19.059078,"number_of_employees":110,"type":"BigCompany","2Dgeo":[19.059078,47.490346]}
{"name":"Nalini Networks","category_code":"software","founded_year":2007,"country_code":"IND","city":"Bangalore","latitude":35.2675117,"longitude":139.1870746,"number_of_employees":110,"type":"BigCompany","2Dgeo":[139.1870746,35.2675117]}
{"name":"Basho Technologies","category_code":"software","founded_year":2007,"country_code":"USA","city":"Cambridge","latitude":42.365867,"longitude":-71.092285,"number_of_employees":110,"type":"BigCompany","2Dgeo":[-71.092285,42.365867]}
{"name":"RockYou","category_code":"games_video","founded_year":2005,"country_code":"USA","city":"Redwood City","latitude":37.484619,"longitude":-122.206893,"number_of_employees":106,"type":"BigCompany","2Dgeo":[-122.206893,37.484619]}
{"name":"GitHub","category_code":"software","founded_year":2008,"country_code":"USA","city":"San Francisco","latitude":37.775196,"longitude":-122.419204,"number_of_employees":106,"type":"BigCompany","2Dgeo":[-122.419204,37.775196]}
{"name":"Pontis","category_code":"software","founded_year":2004,"country_code":"ISR","city":"Ra\u2019anana","latitude":32.1980455,"longitude":34.8824253,"number_of_employees":105,"type":"BigCompany","2Dgeo":[34.8824253,32.1980455]}
{"name":"Pontis","category_code":"software","founded_year":2004,"country_code":"ARG","city":"Capital Federal","latitude":-34.5631882,"longitude":-58.4541925,"number_of_employees":105,"type":"BigCompany","2Dgeo":[-58.4541925,-34.5631882]}
{"name":"SundaySky","category_code":"software","founded_year":2006,"country_code":"ISR","city":"Tel Aviv","latitude":32.1115098,"longitude":34.8388443,"number_of_employees":103,"type":"BigCompany","2Dgeo":[34.8388443,32.1115098]}
{"name":"Jama Software","category_code":"software","founded_year":2007,"country_code":"USA","city":"Portland","latitude":45.5309644,"longitude":-122.68038,"number_of_employees":103,"type":"BigCompany","2Dgeo":[-122.68038,45.5309644]}
{"name":"mig33","category_code":"games_video","founded_year":2005,"country_code":"SGP","city":"Singapore","latitude":37.580304,"longitude":-122.343679,"number_of_employees":100,"type":"BigCompany","2Dgeo":[-122.343679,37.580304]}
{"name":"Social Gaming Network","category_code":"games_video","founded_year":2011,"country_code":"USA","city":"Los Angeles","latitude":37.446823,"longitude":-122.161523,"number_of_employees":100,"type":"BigCompany","2Dgeo":[-122.161523,37.446823]}
{"name":"Social Gaming Network","category_code":"games_video","founded_year":2011,"country_code":"USA","city":"Beverly Hills","latitude":34.0698494,"longitude":-118.4054182,"number_of_employees":100,"type":"BigCompany","2Dgeo":[-118.4054182,34.0698494]}
{"name":"Cartedge","category_code":"software","founded_year":2006,"country_code":"USA","city":"Midvale","latitude":40.622919,"longitude":-111.900917,"number_of_employees":100,"type":"BigCompany","2Dgeo":[-111.900917,40.622919]}
{"name":"Making Sense","category_code":"software","founded_year":2006,"country_code":"USA","city":"San Antonio","latitude":29.516352,"longitude":-98.43676,"number_of_employees":100,"type":"BigCompany","2Dgeo":[-98.43676,29.516352]}
{"name":"Making Sense","category_code":"software","founded_year":2006,"country_code":"ARG","city":"Buenos Aires","latitude":-34.5892808,"longitude":-58.43297,"number_of_employees":100,"type":"BigCompany","2Dgeo":[-58.43297,-34.5892808]}
{"name":"Making Sense","category_code":"software","founded_year":2006,"country_code":"ARG","city":"Mar del Plata","latitude":-38.0060917,"longitude":-57.5582444,"number_of_employees":100,"type":"BigCompany","2Dgeo":[-57.5582444,-38.0060917]}
{"name":"VBS TV","category_code":"games_video","founded_year":2006,"country_code":"USA","city":"Brooklyn","latitude":40.720764,"longitude":-73.957968,"number_of_employees":100,"type":"BigCompany","2Dgeo":[-73.957968,40.720764]}
{"name":"Open-Xchange","category_code":"software","founded_year":2005,"country_code":"USA","city":"Tarrytown","latitude":41.0662835,"longitude":-73.8625452,"number_of_employees":100,"type":"BigCompany","2Dgeo":[-73.8625452,41.0662835]}
{"name":"Open-Xchange","category_code":"software","founded_year":2005,"country_code":"DEU","city":"Olpe","latitude":51.029415,"longitude":7.850863,"number_of_employees":100,"type":"BigCompany","2Dgeo":[7.850863,51.029415]}
{"name":"Open-Xchange","category_code":"software","founded_year":2005,"country_code":"DEU","city":"Nuremberg","latitude":49.4605351,"longitude":11.0823953,"number_of_employees":100,"type":"BigCompany","2Dgeo":[11.0823953,49.4605351]}
{"name":"QualSoft Services","category_code":"software","founded_year":2004,"country_code":"USA","city":"Woodmere","latitude":40.632734,"longitude":-73.720916,"number_of_employees":100,"type":"BigCompany","2Dgeo":[-73.720916,40.632734]}
{"name":"NearSoft Europe","category_code":"software","founded_year":2006,"country_code":"CHE","city":"Zurich","latitude":47.3799427,"longitude":8.5436847,"number_of_employees":100,"type":"BigCompany","2Dgeo":[8.5436847,47.3799427]}
{"name":"Openbravo","category_code":"software","founded_year":2006,"country_code":"ESP","city":"Barcelona","latitude":41.3935324,"longitude":2.1660785,"number_of_employees":100,"type":"BigCompany","2Dgeo":[2.1660785,41.3935324]}
{"name":"EffectiveUI","category_code":"software","founded_year":2005,"country_code":"USA","city":"Denver","latitude":39.755152,"longitude":-104.990968,"number_of_employees":97,"type":"BigCompany","2Dgeo":[-104.990968,39.755152]}
{"name":"EffectiveUI","category_code":"software","founded_year":2005,"country_code":"USA","city":"Rochester","latitude":43.158821,"longitude":-77.585297,"number_of_employees":97,"type":"BigCompany","2Dgeo":[-77.585297,43.158821]}
{"name":"Zmags","category_code":"software","founded_year":2006,"country_code":"DNK","city":"Copenhagen","latitude":55.6839208,"longitude":12.571492,"number_of_employees":95,"type":"BigCompany","2Dgeo":[12.571492,55.6839208]}
{"name":"Zmags","category_code":"software","founded_year":2006,"country_code":"GBR","city":"London","latitude":51.5111369,"longitude":-0.1247662,"number_of_employees":95,"type":"BigCompany","2Dgeo":[-0.1247662,51.5111369]}
{"name":"Ifbyphone","category_code":"software","founded_year":2005,"country_code":"USA","city":"Chicago","latitude":42.040851,"longitude":-87.750643,"number_of_employees":90,"type":"BigCompany","2Dgeo":[-87.750643,42.040851]}
{"name":"Medio","category_code":"software","founded_year":2004,"country_code":"USA","city":"Seattle","latitude":47.611827,"longitude":-122.331308,"number_of_employees":90,"type":"BigCompany","2Dgeo":[-122.331308,47.611827]}
{"name":"Adlucent","category_code":"software","founded_year":2005,"country_code":"USA","city":"Austin","latitude":30.316226,"longitude":-97.71813,"number_of_employees":85,"type":"BigCompany","2Dgeo":[-97.71813,30.316226]}
{"name":"ReverbNation","category_code":"software","founded_year":2006,"country_code":"USA","city":"Durham","latitude":36.002893,"longitude":-78.904075,"number_of_employees":85,"type":"BigCompany","2Dgeo":[-78.904075,36.002893]}
{"name":"ReverbNation","category_code":"software","founded_year":2006,"country_code":"USA","city":"New York","latitude":40.718888,"longitude":-74.001169,"number_of_employees":85,"type":"BigCompany","2Dgeo":[-74.001169,40.718888]}
{"name":"Baynote","category_code":"software","founded_year":2004,"country_code":"USA","city":"San Jose","latitude":37.332271,"longitude":-122.006539,"number_of_employees":80,"type":"BigCompany","2Dgeo":[-122.006539,37.332271]}
{"name":"Navara","category_code":"software","founded_year":2012,"country_code":"NLD","city":"Maarssen","latitude":52.126616,"longitude":5.038078,"number_of_employees":80,"type":"BigCompany","2Dgeo":[5.038078,52.126616]}
{"name":"PrestaShop","category_code":"software","founded_year":2007,"country_code":"FRA","city":"Levallois-Perret","latitude":48.8687217,"longitude":2.3593849,"number_of_employees":80,"type":"BigCompany","2Dgeo":[2.3593849,48.8687217]}
{"name":"Navatar Group","category_code":"software","founded_year":2004,"country_code":"USA","city":"New York","latitude":40.733242,"longitude":-73.991877,"number_of_employees":80,"type":"BigCompany","2Dgeo":[-73.991877,40.733242]}
{"name":"Engagement Systems","category_code":"software","founded_year":2008,"country_code":"USA","city":"Kansas City","latitude":39.156427,"longitude":-94.483334,"number_of_employees":80,"type":"BigCompany","2Dgeo":[-94.483334,39.156427]}
{"name":"Boardwalktech","category_code":"software","founded_year":2004,"country_code":"USA","city":"Palo Alto","latitude":37.431941,"longitude":-122.103076,"number_of_employees":75,"type":"BigCompany","2Dgeo":[-122.103076,37.431941]}
{"name":"Clearleap","category_code":"software","founded_year":2007,"country_code":"USA","city":"Duluth","latitude":34.070164,"longitude":-84.058708,"number_of_employees":75,"type":"BigCompany","2Dgeo":[-84.058708,34.070164]}
{"name":"Synthesio","category_code":"software","founded_year":2006,"country_code":"USA","city":"New York","latitude":40.7431836,"longitude":-73.9935011,"number_of_employees":75,"type":"BigCompany","2Dgeo":[-73.9935011,40.7431836]}
{"name":"itEANz","category_code":"software","founded_year":2006,"country_code":"IND","city":"Bangalore","latitude":12.9332419,"longitude":77.6295577,"number_of_employees":75,"type":"BigCompany","2Dgeo":[77.6295577,12.9332419]}
{"name":"[212]Media","category_code":"games_video","founded_year":2004,"country_code":"USA","city":"New York","latitude":40.743877,"longitude":-73.98618,"number_of_employees":75,"type":"BigCompany","2Dgeo":[-73.98618,40.743877]}
{"name":"Phreesia","category_code":"software","founded_year":2005,"country_code":"USA","city":"New York","latitude":40.739794,"longitude":-73.985878,"number_of_employees":70,"type":"BigCompany","2Dgeo":[-73.985878,40.739794]}
{"name":"YUPPTV","category_code":"games_video","founded_year":2008,"country_code":"USA","city":"Alpharetta","latitude":17.415429,"longitude":78.434422,"number_of_employees":70,"type":"BigCompany","2Dgeo":[78.434422,17.415429]}
{"name":"Spotmau Corporation","category_code":"software","founded_year":2006,"country_code":"USA","city":"Humble","latitude":29.985528,"longitude":-95.3082988,"number_of_employees":70,"type":"BigCompany","2Dgeo":[-95.3082988,29.985528]}
{"name":"Spotmau Corporation","category_code":"software","founded_year":2006,"country_code":"USA","city":"Humble","latitude":29.985528,"longitude":-95.3082988,"number_of_employees":70,"type":"BigCompany","2Dgeo":[-95.3082988,29.985528]}
{"name":"Meteor Games","category_code":"games_video","founded_year":2007,"country_code":"USA","city":"Beverly Hills","latitude":34.09316,"longitude":-118.378335,"number_of_employees":70,"type":"BigCompany","2Dgeo":[-118.378335,34.09316]}
{"name":"ZeroTurnaround","category_code":"software","founded_year":2007,"country_code":"USA","city":"Tartu","latitude":58.3820542,"longitude":26.731054,"number_of_employees":70,"type":"BigCompany","2Dgeo":[26.731054,58.3820542]}
{"name":"Iken Solutions","category_code":"software","founded_year":2005,"country_code":"ARG","city":"Buenos Aires","latitude":-34.4942649,"longitude":-58.5511077,"number_of_employees":70,"type":"BigCompany","2Dgeo":[-58.5511077,-34.4942649]}
{"name":"sevenload","category_code":"games_video","founded_year":2006,"country_code":"DEU","city":"Cologne","latitude":50.945289,"longitude":6.921546,"number_of_employees":67,"type":"BigCompany","2Dgeo":[6.921546,50.945289]}
{"name":"Brainware","category_code":"software","founded_year":2006,"country_code":"USA","city":"Ashburn","latitude":39.0601,"longitude":-77.464018,"number_of_employees":65,"type":"BigCompany","2Dgeo":[-77.464018,39.0601]}
{"name":"StreamTheWorld","category_code":"games_video","founded_year":2005,"country_code":"CAN","city":"Montr\u00c3\u00a9al","latitude":45.4961227,"longitude":-73.5767499,"number_of_employees":65,"type":"BigCompany","2Dgeo":[-73.5767499,45.4961227]}
{"name":"StreamTheWorld","category_code":"games_video","founded_year":2005,"country_code":"CHE","city":"Lausanne","latitude":46.5206291,"longitude":6.6328274,"number_of_employees":65,"type":"BigCompany","2Dgeo":[6.6328274,46.5206291]}
{"name":"FireScope","category_code":"software","founded_year":2006,"country_code":"USA","city":"Huntington Beach","latitude":33.664705,"longitude":-118.012553,"number_of_employees":65,"type":"BigCompany","2Dgeo":[-118.012553,33.664705]}
{"name":"FireScope","category_code":"software","founded_year":2006,"country_code":"USA","city":"Carrollton","latitude":33.0353,"longitude":-96.9274,"number_of_employees":65,"type":"BigCompany","2Dgeo":[-96.9274,33.0353]}
{"name":"FireScope","category_code":"software","founded_year":2006,"country_code":"AUS","city":"Sydney","latitude":-33.867139,"longitude":151.207114,"number_of_employees":65,"type":"BigCompany","2Dgeo":[151.207114,-33.867139]}
{"name":"FireScope","category_code":"software","founded_year":2006,"country_code":"GBR","city":"London","latitude":51.5001524,"longitude":-0.1262362,"number_of_employees":65,"type":"BigCompany","2Dgeo":[-0.1262362,51.5001524]}
{"name":"New Relic","category_code":"software","founded_year":2008,"country_code":"USA","city":"San Francisco","latitude":37.269175,"longitude":-119.306607,"number_of_employees":63,"type":"BigCompany","2Dgeo":[-119.306607,37.269175]}
{"name":"Halosys","category_code":"software","founded_year":2005,"country_code":"USA","city":"Santa Clara","latitude":37.3858901,"longitude":-121.9708095,"number_of_employees":62,"type":"BigCompany","2Dgeo":[-121.9708095,37.3858901]}
{"name":"Bunchball","category_code":"software","founded_year":2005,"country_code":"USA","city":"Redwood City","latitude":37.3208403,"longitude":-121.9479223,"number_of_employees":60,"type":"BigCompany","2Dgeo":[-121.9479223,37.3208403]}
{"name":"Perfect Market","category_code":"software","founded_year":2007,"country_code":"USA","city":"Pasadena","latitude":34.146436,"longitude":-118.153136,"number_of_employees":60,"type":"BigCompany","2Dgeo":[-118.153136,34.146436]}
{"name":"Railsware","category_code":"software","founded_year":2006,"country_code":"USA","city":"Beaverton","latitude":45.494668,"longitude":-122.827044,"number_of_employees":60,"type":"BigCompany","2Dgeo":[-122.827044,45.494668]}
{"name":"Collabor","category_code":"software","founded_year":2005,"country_code":"USA","city":"Marlborough","latitude":42.3389044,"longitude":-71.590103,"number_of_employees":60,"type":"BigCompany","2Dgeo":[-71.590103,42.3389044]}
{"name":"Targetprocess","category_code":"software","founded_year":2006,"country_code":"USA","city":"Corning","latitude":42.979367,"longitude":-78.798947,"number_of_employees":60,"type":"BigCompany","2Dgeo":[-78.798947,42.979367]}
{"name":"AssureSign","category_code":"software","founded_year":2008,"country_code":"USA","city":"Altamonte Springs","latitude":28.672321,"longitude":-81.384939,"number_of_employees":60,"type":"BigCompany","2Dgeo":[-81.384939,28.672321]}
{"name":"Velneo","category_code":"software","founded_year":2005,"country_code":"ESP","city":"Vigo","latitude":42.1638716,"longitude":-8.6105703,"number_of_employees":60,"type":"BigCompany","2Dgeo":[-8.6105703,42.1638716]}
{"name":"Geewa","category_code":"games_video","founded_year":2005,"country_code":"CZE","city":"Prague 8","latitude":50.0938491,"longitude":14.4505336,"number_of_employees":60,"type":"BigCompany","2Dgeo":[14.4505336,50.0938491]}
{"name":"Across Systems","category_code":"software","founded_year":2005,"country_code":"USA","city":"Glendale","latitude":34.1527593,"longitude":-118.2551,"number_of_employees":60,"type":"BigCompany","2Dgeo":[-118.2551,34.1527593]}
{"name":"Across Systems","category_code":"software","founded_year":2005,"country_code":"USA","city":"Rochester","latitude":43.17742,"longitude":-77.7514,"number_of_employees":60,"type":"BigCompany","2Dgeo":[-77.7514,43.17742]}
{"name":"Across Systems","category_code":"software","founded_year":2005,"country_code":"DEU","city":"Karlsbad","latitude":48.8838843,"longitude":8.5093142,"number_of_employees":60,"type":"BigCompany","2Dgeo":[8.5093142,48.8838843]}
{"name":"SCVNGR","category_code":"games_video","founded_year":2008,"country_code":"USA","city":"Boston","latitude":42.3406534,"longitude":-71.0680027,"number_of_employees":60,"type":"BigCompany","2Dgeo":[-71.0680027,42.3406534]}
{"name":"Adeptol","category_code":"software","founded_year":2007,"country_code":"USA","city":"Santa Clara","latitude":37.381341,"longitude":-121.977065,"number_of_employees":60,"type":"BigCompany","2Dgeo":[-121.977065,37.381341]}
{"name":"Curse","category_code":"games_video","founded_year":2006,"country_code":"USA","city":"San Francisco","latitude":37.787092,"longitude":-122.399972,"number_of_employees":58,"type":"BigCompany","2Dgeo":[-122.399972,37.787092]}
{"name":"Smart Online","category_code":"software","founded_year":2005,"country_code":"USA","city":"Durham","latitude":35.8772527,"longitude":-78.8392427,"number_of_employees":52,"type":"BigCompany","2Dgeo":[-78.8392427,35.8772527]}
{"name":"SparkBase","category_code":"software","founded_year":2004,"country_code":"USA","city":"Cleveland","latitude":41.513652,"longitude":-81.666101,"number_of_employees":51,"type":"BigCompany","2Dgeo":[-81.666101,41.513652]}
{"name":"OMGPOP","category_code":"games_video","founded_year":2006,"country_code":"USA","city":"New York","latitude":40.723384,"longitude":-74.001704,"number_of_employees":50,"type":"BigCompany","2Dgeo":[-74.001704,40.723384]}
{"name":"Crunchyroll","category_code":"games_video","founded_year":2008,"country_code":"USA","city":"San Francisco","latitude":37.781265,"longitude":-122.393229,"number_of_employees":50,"type":"BigCompany","2Dgeo":[-122.393229,37.781265]}
{"name":"Athena Archiver","category_code":"software","founded_year":2004,"country_code":"USA","city":"New York","latitude":40.747003,"longitude":-73.991562,"number_of_employees":50,"type":"BigCompany","2Dgeo":[-73.991562,40.747003]}
{"name":"Univa UD","category_code":"software","founded_year":2004,"country_code":"USA","city":"Lisle","latitude":41.808458,"longitude":-88.073008,"number_of_employees":50,"type":"BigCompany","2Dgeo":[-88.073008,41.808458]}
{"name":"Zigron","category_code":"software","founded_year":2006,"country_code":"USA","city":"Alexandria","latitude":37.796164,"longitude":-122.420903,"number_of_employees":50,"type":"BigCompany","2Dgeo":[-122.420903,37.796164]}
{"name":"MakeUseOf","category_code":"software","founded_year":2006,"country_code":"GBR","city":"Glasgow","latitude":55.862878,"longitude":-4.271165,"number_of_employees":50,"type":"BigCompany","2Dgeo":[-4.271165,55.862878]}
{"name":"Votigo","category_code":"software","founded_year":2006,"country_code":"USA","city":"Boulder","latitude":37.8919079,"longitude":-122.1192743,"number_of_employees":50,"type":"BigCompany","2Dgeo":[-122.1192743,37.8919079]}
{"name":"UNOS Development","category_code":"software","founded_year":2004,"country_code":"AUS","city":"NSW","latitude":-33.641732,"longitude":151.313553,"number_of_employees":50,"type":"BigCompany","2Dgeo":[151.313553,-33.641732]}
{"name":"Likewise Software","category_code":"software","founded_year":2004,"country_code":"USA","city":"Bellevue","latitude":47.582658,"longitude":-122.135282,"number_of_employees":50,"type":"BigCompany","2Dgeo":[-122.135282,47.582658]}
{"name":"Atigeo","category_code":"software","founded_year":2005,"country_code":"USA","city":"Bellevue","latitude":47.6174533,"longitude":-122.2016685,"number_of_employees":50,"type":"BigCompany","2Dgeo":[-122.2016685,47.6174533]}
{"name":"UBmatrix","category_code":"software","founded_year":2005,"country_code":"USA","city":"Redwood City","latitude":37.522281,"longitude":-122.258139,"number_of_employees":50,"type":"BigCompany","2Dgeo":[-122.258139,37.522281]}
{"name":"Likewise Software","category_code":"software","founded_year":2004,"country_code":"USA","city":"Bellevue","latitude":47.582658,"longitude":-122.135282,"number_of_employees":50,"type":"BigCompany","2Dgeo":[-122.135282,47.582658]}
{"name":"Atigeo","category_code":"software","founded_year":2005,"country_code":"USA","city":"Bellevue","latitude":47.6174533,"longitude":-122.2016685,"number_of_employees":50,"type":"BigCompany","2Dgeo":[-122.2016685,47.6174533]}
{"name":"UBmatrix","category_code":"software","founded_year":2005,"country_code":"USA","city":"Redwood City","latitude":37.522281,"longitude":-122.258139,"number_of_employees":50,"type":"BigCompany","2Dgeo":[-122.258139,37.522281]}
{"name":"Pardot","category_code":"software","founded_year":2007,"country_code":"USA","city":"Atlanta","latitude":33.84662,"longitude":-84.3565171,"number_of_employees":50,"type":"BigCompany","2Dgeo":[-84.3565171,33.84662]}
{"name":"ViaCube","category_code":"software","founded_year":2006,"country_code":"USA","city":"Atlanta","latitude":33.754487,"longitude":-84.389663,"number_of_employees":50,"type":"BigCompany","2Dgeo":[-84.389663,33.754487]}
{"name":"Sysomos","category_code":"software","founded_year":2007,"country_code":"CAN","city":"Toronto","latitude":43.65508,"longitude":-79.3979364,"number_of_employees":50,"type":"BigCompany","2Dgeo":[-79.3979364,43.65508]}
{"name":"Alachisoft","category_code":"software","founded_year":2004,"country_code":"USA","city":"San Ramon","latitude":37.770657,"longitude":-121.963321,"number_of_employees":50,"type":"BigCompany","2Dgeo":[-121.963321,37.770657]}
{"name":"Ginger Software","category_code":"software","founded_year":2007,"country_code":"USA","city":"Lexington","latitude":42.4352222,"longitude":-71.2344601,"number_of_employees":50,"type":"BigCompany","2Dgeo":[-71.2344601,42.4352222]}
{"name":"AppZero","category_code":"software","founded_year":2009,"country_code":"USA","city":"Andover","latitude":42.6751888,"longitude":-71.1469003,"number_of_employees":50,"type":"BigCompany","2Dgeo":[-71.1469003,42.6751888]}
{"name":"IGLOO Software","category_code":"software","founded_year":2008,"country_code":"CAN","city":"Kitchener","latitude":43.4496954,"longitude":-80.487328,"number_of_employees":50,"type":"BigCompany","2Dgeo":[-80.487328,43.4496954]}
{"name":"Infobright","category_code":"software","founded_year":2005,"country_code":"CAN","city":"Toronto, Ontario","latitude":43.6490631,"longitude":-79.3749698,"number_of_employees":50,"type":"BigCompany","2Dgeo":[-79.3749698,43.6490631]}
{"name":"Infobright","category_code":"software","founded_year":2005,"country_code":"USA","city":"Chicago","latitude":42.377467,"longitude":-71.401307,"number_of_employees":50,"type":"BigCompany","2Dgeo":[-71.401307,42.377467]}
{"name":"Testplant","category_code":"software","founded_year":2008,"country_code":"GBR","city":"London","latitude":51.517356,"longitude":-0.1037742,"number_of_employees":50,"type":"BigCompany","2Dgeo":[-0.1037742,51.517356]}
{"name":"Testplant","category_code":"software","founded_year":2008,"country_code":"USA","city":"Boulder","latitude":40.0230047,"longitude":-105.2532841,"number_of_employees":50,"type":"BigCompany","2Dgeo":[-105.2532841,40.0230047]}
{"name":"Clavis Technology","category_code":"software","founded_year":2007,"country_code":"USA","city":"Cambridge","latitude":42.3626626,"longitude":-71.084153,"number_of_employees":50,"type":"BigCompany","2Dgeo":[-71.084153,42.3626626]}
{"name":"ALOT","category_code":"software","founded_year":2007,"country_code":"USA","city":"New York","latitude":40.72616,"longitude":-74.006023,"number_of_employees":50,"type":"BigCompany","2Dgeo":[-74.006023,40.72616]}
{"name":"38 Studios","category_code":"games_video","founded_year":2006,"country_code":"USA","city":"Maynard","latitude":42.431652,"longitude":-71.455658,"number_of_employees":49,"type":"BigCompany","2Dgeo":[-71.455658,42.431652]}
{"name":"SurveyGizmo","category_code":"software","founded_year":2006,"country_code":"USA","city":"Boulder","latitude":40.031015,"longitude":-105.227764,"number_of_employees":47,"type":"BigCompany","2Dgeo":[-105.227764,40.031015]}
{"name":"Blip","category_code":"games_video","founded_year":2005,"country_code":"USA","city":"Santa Monica","latitude":34.0272246,"longitude":-118.4682333,"number_of_employees":47,"type":"BigCompany","2Dgeo":[-118.4682333,34.0272246]}
{"name":"Aveksa","category_code":"software","founded_year":2004,"country_code":"USA","city":"Waltham","latitude":42.3988661,"longitude":-71.253781,"number_of_employees":46,"type":"BigCompany","2Dgeo":[-71.253781,42.3988661]}
{"name":"Aveksa","category_code":"software","founded_year":2004,"country_code":"IND","city":"Bangalore","latitude":12.9346716,"longitude":77.6317612,"number_of_employees":46,"type":"BigCompany","2Dgeo":[77.6317612,12.9346716]}
{"name":"Zattoo","category_code":"games_video","founded_year":2005,"country_code":"USA","city":"Ann Arbor","latitude":42.292649,"longitude":-83.734673,"number_of_employees":45,"type":"BigCompany","2Dgeo":[-83.734673,42.292649]}
{"name":"Boxee","category_code":"software","founded_year":2004,"country_code":"ISR","city":"Tel Aviv","latitude":32.0554,"longitude":34.7595,"number_of_employees":45,"type":"BigCompany","2Dgeo":[34.7595,32.0554]}
{"name":"Boxee","category_code":"software","founded_year":2004,"country_code":"USA","city":"New York","latitude":40.745064,"longitude":-73.992637,"number_of_employees":45,"type":"BigCompany","2Dgeo":[-73.992637,40.745064]}
{"name":"Ratchet","category_code":"software","founded_year":2004,"country_code":"USA","city":"Minneapolis","latitude":44.989126,"longitude":-93.278663,"number_of_employees":45,"type":"BigCompany","2Dgeo":[-93.278663,44.989126]}
{"name":"Ratchet","category_code":"software","founded_year":2004,"country_code":"USA","city":"Chicago","latitude":41.890441,"longitude":-87.629377,"number_of_employees":45,"type":"BigCompany","2Dgeo":[-87.629377,41.890441]}
{"name":"Ratchet","category_code":"software","founded_year":2004,"country_code":"USA","city":"Los Angeles","latitude":33.810534,"longitude":-118.109206,"number_of_employees":45,"type":"BigCompany","2Dgeo":[-118.109206,33.810534]}
{"name":"Virtual Bridges","category_code":"software","founded_year":2006,"country_code":"USA","city":"Austin","latitude":30.27995,"longitude":-97.807274,"number_of_employees":45,"type":"BigCompany","2Dgeo":[-97.807274,30.27995]}
{"name":"Optify","category_code":"software","founded_year":2008,"country_code":"USA","city":"Seattle","latitude":47.603364,"longitude":-122.333359,"number_of_employees":45,"type":"Startup","2Dgeo":[-122.333359,47.603364]}
{"name":"Busca Corp","category_code":"games_video","founded_year":2007,"country_code":"USA","city":"La Jolla","latitude":32.841791,"longitude":-117.274602,"number_of_employees":45,"type":"BigCompany","2Dgeo":[-117.274602,32.841791]}
{"name":"Busca Corp","category_code":"games_video","founded_year":2007,"country_code":"MEX","city":"Tijuana, B.C.","latitude":32.5217442,"longitude":-117.0274947,"number_of_employees":45,"type":"BigCompany","2Dgeo":[-117.0274947,32.5217442]}
{"name":"Busca Corp","category_code":"games_video","founded_year":2007,"country_code":"MEX","city":"Mexico City","latitude":19.4164309,"longitude":-99.1651395,"number_of_employees":45,"type":"BigCompany","2Dgeo":[-99.1651395,19.4164309]}
{"name":"Tiny Speck","category_code":"games_video","founded_year":2009,"country_code":"CAN","city":"Vancouver","latitude":49.2824551,"longitude":-123.109217,"number_of_employees":45,"type":"Startup","2Dgeo":[-123.109217,49.2824551]}
{"name":"Maas Global Solutions Corporation","category_code":"software","founded_year":2006,"country_code":"USA","city":"Las Vegas","latitude":36.1211955,"longitude":-115.2429972,"number_of_employees":43,"type":"BigCompany","2Dgeo":[-115.2429972,36.1211955]}
{"name":"Double Encore","category_code":"software","founded_year":2008,"country_code":"USA","city":"Denver","latitude":39.69263,"longitude":-104.955012,"number_of_employees":42,"type":"Startup","2Dgeo":[-104.955012,39.69263]}
{"name":"StarWind Software","category_code":"software","founded_year":2008,"country_code":"USA","city":"Burlington","latitude":42.487232,"longitude":-71.204372,"number_of_employees":42,"type":"Startup","2Dgeo":[-71.204372,42.487232]}
{"name":"SpaBooker","category_code":"software","founded_year":2007,"country_code":"USA","city":"New York","latitude":40.738567,"longitude":-73.987199,"number_of_employees":42,"type":"BigCompany","2Dgeo":[-73.987199,40.738567]}
{"name":"Kyte","category_code":"games_video","founded_year":2006,"country_code":"USA","city":"San Francisco","latitude":37.788482,"longitude":-122.409173,"number_of_employees":40,"type":"BigCompany","2Dgeo":[-122.409173,37.788482]}
{"name":"GoingOn","category_code":"software","founded_year":2008,"country_code":"USA","city":"San Francisco","latitude":37.782263,"longitude":-122.392142,"number_of_employees":40,"type":"Startup","2Dgeo":[-122.392142,37.782263]}
{"name":"eYeka","category_code":"software","founded_year":2006,"country_code":"FRA","city":"Paris","latitude":48.856667,"longitude":2.350987,"number_of_employees":40,"type":"BigCompany","2Dgeo":[2.350987,48.856667]}
{"name":"H-care","category_code":"software","founded_year":2005,"country_code":"ITA","city":"Motebelluna","latitude":45.564237,"longitude":12.428383,"number_of_employees":40,"type":"BigCompany","2Dgeo":[12.428383,45.564237]}
{"name":"Pivot","category_code":"software","founded_year":2004,"country_code":"USA","city":"Cambridge","latitude":42.364367,"longitude":-71.078978,"number_of_employees":40,"type":"BigCompany","2Dgeo":[-71.078978,42.364367]}
{"name":"Zenoss","category_code":"software","founded_year":2005,"country_code":"USA","city":"Annapolis","latitude":38.97639,"longitude":-76.503171,"number_of_employees":40,"type":"BigCompany","2Dgeo":[-76.503171,38.97639]}
{"name":"Zenoss","category_code":"software","founded_year":2005,"country_code":"USA","city":"Austin","latitude":30.379593,"longitude":-97.765313,"number_of_employees":40,"type":"BigCompany","2Dgeo":[-97.765313,30.379593]}
{"name":"CrestaTech","category_code":"software","founded_year":2005,"country_code":"USA","city":"Santa Clara","latitude":37.383368,"longitude":-121.980186,"number_of_employees":40,"type":"BigCompany","2Dgeo":[-121.980186,37.383368]}
{"name":"ITBrix","category_code":"software","founded_year":2005,"country_code":"USA","city":"Colorado Springs","latitude":38.919042,"longitude":-104.789289,"number_of_employees":40,"type":"BigCompany","2Dgeo":[-104.789289,38.919042]}
{"name":"ITBrix","category_code":"software","founded_year":2005,"country_code":"GBR","city":"St. Albans Herts","latitude":51.748219,"longitude":-0.341379,"number_of_employees":40,"type":"BigCompany","2Dgeo":[-0.341379,51.748219]}
{"name":"ITBrix","category_code":"software","founded_year":2005,"country_code":"BGR","city":"Plovdiv","latitude":42.133978,"longitude":24.714267,"number_of_employees":40,"type":"BigCompany","2Dgeo":[24.714267,42.133978]}
{"name":"Sentrigo","category_code":"software","founded_year":2006,"country_code":"USA","city":"Santa Clara","latitude":37.55911,"longitude":-122.303493,"number_of_employees":40,"type":"BigCompany","2Dgeo":[-122.303493,37.55911]}
{"name":"Sentrigo","category_code":"software","founded_year":2006,"country_code":"USA","city":"Woburn","latitude":42.508719,"longitude":-71.144313,"number_of_employees":40,"type":"BigCompany","2Dgeo":[-71.144313,42.508719]}
{"name":"ControlCase","category_code":"software","founded_year":2004,"country_code":"USA","city":"McLean","latitude":38.911907,"longitude":-77.215776,"number_of_employees":40,"type":"BigCompany","2Dgeo":[-77.215776,38.911907]}
{"name":"Owlient","category_code":"games_video","founded_year":2005,"country_code":"FRA","city":"Paris","latitude":48.8308091,"longitude":2.3032201,"number_of_employees":40,"type":"BigCompany","2Dgeo":[2.3032201,48.8308091]}
{"name":"illuminate Solutions","category_code":"software","founded_year":2005,"country_code":"USA","city":"Minneapolis","latitude":44.8559566,"longitude":-93.3555637,"number_of_employees":40,"type":"BigCompany","2Dgeo":[-93.3555637,44.8559566]}
{"name":"Servo Software","category_code":"software","founded_year":2008,"country_code":"USA","city":"San Mateo","latitude":37.552262,"longitude":-122.292146,"number_of_employees":40,"type":"Startup","2Dgeo":[-122.292146,37.552262]}
{"name":"Yoostar","category_code":"games_video","founded_year":2007,"country_code":"USA","city":"New York","latitude":40.756054,"longitude":-73.986951,"number_of_employees":40,"type":"BigCompany","2Dgeo":[-73.986951,40.756054]}
{"name":"Yoostar","category_code":"games_video","founded_year":2007,"country_code":"USA","city":"Los Angeles","latitude":34.052187,"longitude":-118.243425,"number_of_employees":40,"type":"BigCompany","2Dgeo":[-118.243425,34.052187]}
{"name":"The Resumator","category_code":"software","founded_year":2009,"country_code":"USA","city":"Pittsburgh","latitude":40.438423,"longitude":-80.001933,"number_of_employees":40,"type":"Startup","2Dgeo":[-80.001933,40.438423]}
{"name":"4Home","category_code":"software","founded_year":2006,"country_code":"USA","city":"Sunnyvale","latitude":37.385225,"longitude":-121.991912,"number_of_employees":36,"type":"BigCompany","2Dgeo":[-121.991912,37.385225]}
{"name":"Corebridge","category_code":"software","founded_year":2004,"country_code":"GBR","city":"London","latitude":51.5051974,"longitude":-0.1457395,"number_of_employees":36,"type":"BigCompany","2Dgeo":[-0.1457395,51.5051974]}
{"name":"Corebridge","category_code":"software","founded_year":2004,"country_code":"FRA","city":"75008 Paris","latitude":48.8732155,"longitude":2.3088701,"number_of_employees":36,"type":"BigCompany","2Dgeo":[2.3088701,48.8732155]}
{"name":"Jinni","category_code":"games_video","founded_year":2008,"country_code":"ISR","city":"Tel Aviv","latitude":32.0554,"longitude":34.7595,"number_of_employees":35,"type":"Startup","2Dgeo":[34.7595,32.0554]}
{"name":"Sometrics","category_code":"games_video","founded_year":2007,"country_code":"USA","city":"El Segundo","latitude":34.048857,"longitude":-118.251343,"number_of_employees":35,"type":"BigCompany","2Dgeo":[-118.251343,34.048857]}
{"name":"Openfilm","category_code":"games_video","founded_year":2007,"country_code":"USA","city":"Miami","latitude":25.887462,"longitude":-80.166155,"number_of_employees":35,"type":"BigCompany","2Dgeo":[-80.166155,25.887462]}
{"name":"Goober Networks","category_code":"software","founded_year":2005,"country_code":"USA","city":"Dover","latitude":39.096465,"longitude":-75.533034,"number_of_employees":35,"type":"BigCompany","2Dgeo":[-75.533034,39.096465]}
{"name":"Banashri Creatives","category_code":"software","founded_year":2006,"country_code":"IND","city":"Bangalore","latitude":12.956128,"longitude":77.592264,"number_of_employees":35,"type":"BigCompany","2Dgeo":[77.592264,12.956128]}
{"name":"Visuamobile","category_code":"software","founded_year":2008,"country_code":"FRA","city":"Paris","latitude":48.8691369,"longitude":2.3602202,"number_of_employees":35,"type":"Startup","2Dgeo":[2.3602202,48.8691369]}
{"name":"RankAbove","category_code":"software","founded_year":2007,"country_code":"ISR","city":"Tel Aviv","latitude":32.0695889,"longitude":34.7836788,"number_of_employees":35,"type":"BigCompany","2Dgeo":[34.7836788,32.0695889]}
{"name":"RankAbove","category_code":"software","founded_year":2007,"country_code":"USA","city":"New York","latitude":40.748047,"longitude":-73.992402,"number_of_employees":35,"type":"BigCompany","2Dgeo":[-73.992402,40.748047]}
{"name":"expressor software","category_code":"software","founded_year":2007,"country_code":"USA","city":"Burlington","latitude":42.485102,"longitude":-71.211568,"number_of_employees":35,"type":"BigCompany","2Dgeo":[-71.211568,42.485102]}
{"name":"Rhxo Technology Group","category_code":"software","founded_year":2004,"country_code":"USA","city":"New York","latitude":40.762897,"longitude":-73.974714,"number_of_employees":35,"type":"BigCompany","2Dgeo":[-73.974714,40.762897]}
{"name":"Aria Networks","category_code":"software","founded_year":2005,"country_code":"GBR","city":"Chippenham","latitude":51.4515283,"longitude":-2.1334555,"number_of_employees":35,"type":"BigCompany","2Dgeo":[-2.1334555,51.4515283]}
{"name":"KnowledgeTree","category_code":"software","founded_year":2006,"country_code":"USA","city":"Raleigh","latitude":35.786975,"longitude":-78.647003,"number_of_employees":33,"type":"BigCompany","2Dgeo":[-78.647003,35.786975]}
{"name":"Vidoop","category_code":"software","founded_year":2006,"country_code":"USA","city":"Portland","latitude":45.5241278,"longitude":-122.675448,"number_of_employees":30,"type":"BigCompany","2Dgeo":[-122.675448,45.5241278]}
{"name":"FlowPlay","category_code":"games_video","founded_year":2006,"country_code":"USA","city":"Seattle","latitude":47.6015315,"longitude":-122.335943,"number_of_employees":30,"type":"BigCompany","2Dgeo":[-122.335943,47.6015315]}
{"name":"Scrabulous","category_code":"games_video","founded_year":2006,"country_code":"IND","city":"Kolkata","latitude":22.572646,"longitude":88.363895,"number_of_employees":30,"type":"BigCompany","2Dgeo":[88.363895,22.572646]}
{"name":"2threads","category_code":"games_video","founded_year":2004,"country_code":"AUS","city":"sydney","latitude":-33.884685,"longitude":151.216427,"number_of_employees":30,"type":"BigCompany","2Dgeo":[151.216427,-33.884685]}
{"name":"Replay Solutions","category_code":"software","founded_year":2004,"country_code":"USA","city":"Redwood City","latitude":37.512318,"longitude":-122.200914,"number_of_employees":30,"type":"BigCompany","2Dgeo":[-122.200914,37.512318]}
{"name":"Cellufun","category_code":"games_video","founded_year":2005,"country_code":"USA","city":"New York","latitude":40.73993,"longitude":-73.9930489,"number_of_employees":30,"type":"BigCompany","2Dgeo":[-73.9930489,40.73993]}
{"name":"eRepublik","category_code":"games_video","founded_year":2007,"country_code":"ESP","city":"Madrid","latitude":40.43094,"longitude":-3.6952896,"number_of_employees":30,"type":"BigCompany","2Dgeo":[-3.6952896,40.43094]}
{"name":"Austhink Software","category_code":"software","founded_year":2004,"country_code":"AUS","city":"Melbourne, Victoria","latitude":-37.813603,"longitude":144.96616,"number_of_employees":30,"type":"BigCompany","2Dgeo":[144.96616,-37.813603]}
{"name":"Cotendo","category_code":"software","founded_year":2008,"country_code":"USA","city":"Sunnyvale","latitude":37.504764,"longitude":-122.259568,"number_of_employees":30,"type":"Startup","2Dgeo":[-122.259568,37.504764]}
{"name":"Keibi Technologies","category_code":"software","founded_year":2006,"country_code":"USA","city":"San Francisco","latitude":37.787646,"longitude":-122.402759,"number_of_employees":30,"type":"BigCompany","2Dgeo":[-122.402759,37.787646]}
{"name":"JumpForward","category_code":"software","founded_year":2010,"country_code":"USA","city":"Chicago","latitude":41.857204,"longitude":-87.623923,"number_of_employees":30,"type":"Startup","2Dgeo":[-87.623923,41.857204]}
{"name":"DocVerify","category_code":"software","founded_year":2006,"country_code":"USA","city":"Irvine","latitude":33.661515,"longitude":-117.821661,"number_of_employees":30,"type":"BigCompany","2Dgeo":[-117.821661,33.661515]}
{"name":"BetterLabs","category_code":"software","founded_year":2006,"country_code":"USA","city":"San Jose","latitude":37.324803,"longitude":-121.771853,"number_of_employees":30,"type":"BigCompany","2Dgeo":[-121.771853,37.324803]}
{"name":"Samfind","category_code":"software","founded_year":2008,"country_code":"USA","city":"Los Angeles","latitude":34.052107,"longitude":-118.385271,"number_of_employees":30,"type":"Startup","2Dgeo":[-118.385271,34.052107]}
{"name":"LiveHive Systems","category_code":"software","founded_year":2005,"country_code":"CAN","city":"Waterloo","latitude":43.474686,"longitude":-80.521246,"number_of_employees":30,"type":"BigCompany","2Dgeo":[-80.521246,43.474686]}
{"name":"SocialTwist","category_code":"software","founded_year":2008,"country_code":"USA","city":"Mountain View","latitude":37.355275,"longitude":-122.014791,"number_of_employees":30,"type":"Startup","2Dgeo":[-122.014791,37.355275]}
{"name":"ApogeeInvent","category_code":"software","founded_year":2004,"country_code":"USA","city":"American Falls","latitude":43.825874,"longitude":-111.780958,"number_of_employees":30,"type":"BigCompany","2Dgeo":[-111.780958,43.825874]}
{"name":"Remal IT","category_code":"software","founded_year":2005,"country_code":"SAU","city":"Dammam","latitude":26.272541,"longitude":50.21028,"number_of_employees":30,"type":"BigCompany","2Dgeo":[50.21028,26.272541]}
{"name":"Brickfish","category_code":"software","founded_year":2005,"country_code":"USA","city":"Chicago","latitude":41.8851542,"longitude":-87.6223183,"number_of_employees":30,"type":"BigCompany","2Dgeo":[-87.6223183,41.8851542]}
{"name":"Unison Technologies","category_code":"software","founded_year":2011,"country_code":"USA","city":"New York","latitude":40.7645772,"longitude":-73.9799007,"number_of_employees":30,"type":"Startup","2Dgeo":[-73.9799007,40.7645772]}
{"name":"iScripts","category_code":"software","founded_year":2006,"country_code":"USA","city":"Deerfield","latitude":42.1652513,"longitude":-87.9215314,"number_of_employees":30,"type":"BigCompany","2Dgeo":[-87.9215314,42.1652513]}
{"name":"MAG STUDIOS","category_code":"software","founded_year":2004,"country_code":"IND","city":"Delhi","latitude":28.635308,"longitude":77.22496,"number_of_employees":30,"type":"BigCompany","2Dgeo":[77.22496,28.635308]}
{"name":"CoSoSys","category_code":"software","founded_year":2004,"country_code":"USA","city":"Eagle","latitude":37.4130691,"longitude":-121.9429714,"number_of_employees":30,"type":"BigCompany","2Dgeo":[-121.9429714,37.4130691]}
{"name":"CoSoSys","category_code":"software","founded_year":2004,"country_code":"DEU","city":"Friedrichshafen","latitude":47.6531483,"longitude":9.4901233,"number_of_employees":30,"type":"BigCompany","2Dgeo":[9.4901233,47.6531483]}
{"name":"The Escapist","category_code":"games_video","founded_year":2005,"country_code":"USA","city":"Durham","latitude":35.911733,"longitude":-78.900103,"number_of_employees":30,"type":"BigCompany","2Dgeo":[-78.900103,35.911733]}
{"name":"Trackset","category_code":"software","founded_year":2007,"country_code":"ITA","city":"Pisa","latitude":43.7161354,"longitude":10.3965843,"number_of_employees":30,"type":"BigCompany","2Dgeo":[10.3965843,43.7161354]}
{"name":"Trackset","category_code":"software","founded_year":2007,"country_code":"ITA","city":"Milano","latitude":45.4636889,"longitude":9.1881408,"number_of_employees":30,"type":"BigCompany","2Dgeo":[9.1881408,45.4636889]}
{"name":"FacebookLicious!","category_code":"games_video","founded_year":2007,"country_code":"USA","city":"Bear","latitude":39.612223,"longitude":-75.696706,"number_of_employees":30,"type":"BigCompany","2Dgeo":[-75.696706,39.612223]}
{"name":"Mytopia","category_code":"games_video","founded_year":2007,"country_code":"USA","city":"Palo Alto","latitude":34.007967,"longitude":-118.489681,"number_of_employees":29,"type":"BigCompany","2Dgeo":[-118.489681,34.007967]}
{"name":"AdJuggler","category_code":"software","founded_year":2008,"country_code":"USA","city":"Alexandria","latitude":38.804559,"longitude":-77.164776,"number_of_employees":27,"type":"Startup","2Dgeo":[-77.164776,38.804559]}
{"name":"Zapproved","category_code":"software","founded_year":2008,"country_code":"USA","city":"Portland","latitude":45.5251,"longitude":-122.8097,"number_of_employees":27,"type":"Startup","2Dgeo":[-122.8097,45.5251]}
{"name":"Yaika","category_code":"games_video","founded_year":2008,"country_code":"EST","city":"Tallinn","latitude":59.437214,"longitude":24.768664,"number_of_employees":26,"type":"Startup","2Dgeo":[24.768664,59.437214]}
{"name":"Preview Networks","category_code":"games_video","founded_year":2004,"country_code":"DNK","city":"Copenhagen","latitude":55.6659813,"longitude":12.5800751,"number_of_employees":26,"type":"BigCompany","2Dgeo":[12.5800751,55.6659813]}
{"name":"ASPgems","category_code":"software","founded_year":2006,"country_code":"ESP","city":"Madrid","latitude":40.4165967,"longitude":-3.6992667,"number_of_employees":26,"type":"BigCompany","2Dgeo":[-3.6992667,40.4165967]}
{"name":"Aniboom","category_code":"games_video","founded_year":2006,"country_code":"ISR","city":null,"latitude":31.046051,"longitude":34.851612,"number_of_employees":25,"type":"BigCompany","2Dgeo":[34.851612,31.046051]}
{"name":"MocoSpace","category_code":"games_video","founded_year":2005,"country_code":"USA","city":"Boston","latitude":42.350274,"longitude":-71.058768,"number_of_employees":25,"type":"BigCompany","2Dgeo":[-71.058768,42.350274]}
{"name":"Fliqz","category_code":"games_video","founded_year":2005,"country_code":"USA","city":"Emeryville","latitude":37.848641,"longitude":-122.289498,"number_of_employees":25,"type":"BigCompany","2Dgeo":[-122.289498,37.848641]}
{"name":"OpenDrive","category_code":"software","founded_year":2008,"country_code":"USA","city":"Palo Alto","latitude":37.794043,"longitude":-122.39736,"number_of_employees":25,"type":"Startup","2Dgeo":[-122.39736,37.794043]}
{"name":"O3Spaces","category_code":"software","founded_year":2005,"country_code":"NLD","city":"Gouda","latitude":52.0259843,"longitude":4.6805473,"number_of_employees":25,"type":"BigCompany","2Dgeo":[4.6805473,52.0259843]}
{"name":"Rollstream","category_code":"software","founded_year":2005,"country_code":"USA","city":"McLean","latitude":38.872668,"longitude":-77.367981,"number_of_employees":25,"type":"BigCompany","2Dgeo":[-77.367981,38.872668]}
{"name":"Analytix On Demand","category_code":"software","founded_year":2008,"country_code":"USA","city":"Irvine","latitude":33.67983,"longitude":-117.839046,"number_of_employees":25,"type":"Startup","2Dgeo":[-117.839046,33.67983]}
{"name":"BASH Gaming","category_code":"games_video","founded_year":2010,"country_code":"USA","city":"Fremont","latitude":37.5561712,"longitude":-122.0780632,"number_of_employees":25,"type":"Startup","2Dgeo":[-122.0780632,37.5561712]}
{"name":"BASH Gaming","category_code":"games_video","founded_year":2010,"country_code":"IND","city":"Bangalore","latitude":12.971606,"longitude":77.594376,"number_of_employees":25,"type":"Startup","2Dgeo":[77.594376,12.971606]}
{"name":"ThirdFrameStudios","category_code":"software","founded_year":2005,"country_code":"SVN","city":"Kranj","latitude":46.2272708,"longitude":14.3611417,"number_of_employees":25,"type":"BigCompany","2Dgeo":[14.3611417,46.2272708]}
{"name":"Spiral16","category_code":"software","founded_year":2007,"country_code":"USA","city":"Overland Park","latitude":38.929582,"longitude":-94.660375,"number_of_employees":25,"type":"BigCompany","2Dgeo":[-94.660375,38.929582]}
{"name":"Saavn","category_code":"games_video","founded_year":2006,"country_code":"USA","city":"New York","latitude":40.743877,"longitude":-73.98618,"number_of_employees":25,"type":"BigCompany","2Dgeo":[-73.98618,40.743877]}
{"name":"Pando Networks","category_code":"games_video","founded_year":2004,"country_code":"USA","city":"New York","latitude":40.722655,"longitude":-73.99873,"number_of_employees":23,"type":"BigCompany","2Dgeo":[-73.99873,40.722655]}
{"name":"semanticlabs","category_code":"software","founded_year":2005,"country_code":"AUT","city":"Vienna","latitude":48.202758,"longitude":16.354637,"number_of_employees":23,"type":"BigCompany","2Dgeo":[16.354637,48.202758]}
{"name":"Stratogon Entertainment","category_code":"software","founded_year":2006,"country_code":"USA","city":"Plantation","latitude":26.1026788,"longitude":-80.2501145,"number_of_employees":23,"type":"BigCompany","2Dgeo":[-80.2501145,26.1026788]}
{"name":"UserVoice","category_code":"software","founded_year":2008,"country_code":"USA","city":"San Francisco","latitude":36.9751032,"longitude":-122.0253784,"number_of_employees":22,"type":"Startup","2Dgeo":[-122.0253784,36.9751032]}
{"name":"Serious Business","category_code":"games_video","founded_year":2008,"country_code":"USA","city":"San Francisco","latitude":37.7893215,"longitude":-122.4013624,"number_of_employees":22,"type":"Startup","2Dgeo":[-122.4013624,37.7893215]}
{"name":"Tweegee","category_code":"games_video","founded_year":2008,"country_code":"ISR","city":"Ramat Gan","latitude":32.037363,"longitude":34.8003705,"number_of_employees":22,"type":"Startup","2Dgeo":[34.8003705,32.037363]}
{"name":"Tweegee","category_code":"games_video","founded_year":2008,"country_code":"ISR","city":"Ramat Gan","latitude":32.037363,"longitude":34.8003705,"number_of_employees":22,"type":"Startup","2Dgeo":[34.8003705,32.037363]}
{"name":"Viridity Software","category_code":"software","founded_year":2008,"country_code":"USA","city":"Burlington","latitude":42.4871509,"longitude":-71.1986329,"number_of_employees":22,"type":"Startup","2Dgeo":[-71.1986329,42.4871509]}
{"name":"Personal Estate Manager","category_code":"software","founded_year":2004,"country_code":"USA","city":"Shelby Township","latitude":42.6031277,"longitude":-83.0294402,"number_of_employees":22,"type":"BigCompany","2Dgeo":[-83.0294402,42.6031277]}
{"name":"Vuze","category_code":"games_video","founded_year":2005,"country_code":"USA","city":"San Mateo","latitude":37.4858654,"longitude":-122.2262606,"number_of_employees":20,"type":"BigCompany","2Dgeo":[-122.2262606,37.4858654]}
{"name":"BuddyTV","category_code":"games_video","founded_year":2005,"country_code":"USA","city":"Seattle","latitude":47.61968,"longitude":-122.356756,"number_of_employees":20,"type":"BigCompany","2Dgeo":[-122.356756,47.61968]}
{"name":"Kongregate","category_code":"games_video","founded_year":2006,"country_code":"USA","city":"San Francisco","latitude":37.786942,"longitude":-122.401245,"number_of_employees":20,"type":"BigCompany","2Dgeo":[-122.401245,37.786942]}
{"name":"Movaya","category_code":"software","founded_year":2006,"country_code":"USA","city":"Seattle","latitude":47.66274,"longitude":-122.300863,"number_of_employees":20,"type":"BigCompany","2Dgeo":[-122.300863,47.66274]}
{"name":"HRSnap! Corporation","category_code":"software","founded_year":2007,"country_code":"USA","city":"Las Vegas","latitude":36.180757,"longitude":-115.242203,"number_of_employees":20,"type":"BigCompany","2Dgeo":[-115.242203,36.180757]}
{"name":"Protecode","category_code":"software","founded_year":2007,"country_code":"CAN","city":"Ottawa","latitude":45.352255,"longitude":-75.834151,"number_of_employees":20,"type":"BigCompany","2Dgeo":[-75.834151,45.352255]}
{"name":"MUBI","category_code":"games_video","founded_year":2007,"country_code":"USA","city":"Palo Alto","latitude":37.44236,"longitude":-122.161025,"number_of_employees":20,"type":"BigCompany","2Dgeo":[-122.161025,37.44236]}
{"name":"PhaseWare","category_code":"software","founded_year":2004,"country_code":"USA","city":"McKinney","latitude":33.17514,"longitude":-96.662494,"number_of_employees":20,"type":"BigCompany","2Dgeo":[-96.662494,33.17514]}
{"name":"Friend2Friend","category_code":"software","founded_year":2007,"country_code":"USA","city":"Palo Alto","latitude":37.445739,"longitude":-122.161284,"number_of_employees":20,"type":"BigCompany","2Dgeo":[-122.161284,37.445739]}
{"name":"BrandDoozie","category_code":"software","founded_year":2006,"country_code":"USA","city":"Irvine","latitude":33.647105,"longitude":-117.73424,"number_of_employees":20,"type":"BigCompany","2Dgeo":[-117.73424,33.647105]}
{"name":"Manam Infotech","category_code":"software","founded_year":2008,"country_code":"IND","city":"Bangalore","latitude":12.975531,"longitude":77.653739,"number_of_employees":20,"type":"Startup","2Dgeo":[77.653739,12.975531]}
{"name":"CohesiveFT","category_code":"software","founded_year":2006,"country_code":"USA","city":"Chicago","latitude":41.882401,"longitude":-87.637816,"number_of_employees":20,"type":"BigCompany","2Dgeo":[-87.637816,41.882401]}
{"name":"BitRock","category_code":"software","founded_year":2009,"country_code":"USA","city":"Alameda","latitude":37.78424,"longitude":-122.274771,"number_of_employees":20,"type":"Startup","2Dgeo":[-122.274771,37.78424]}
{"name":"EventElephant","category_code":"software","founded_year":2008,"country_code":"GBR","city":"Richmond","latitude":53.335194,"longitude":-6.252923,"number_of_employees":20,"type":"Startup","2Dgeo":[-6.252923,53.335194]}
{"name":"CakeMail","category_code":"software","founded_year":2007,"country_code":"CAN","city":"Montreal, QC","latitude":45.475206,"longitude":-73.580782,"number_of_employees":20,"type":"BigCompany","2Dgeo":[-73.580782,45.475206]}
{"name":"Pongr","category_code":"software","founded_year":2008,"country_code":"USA","city":"Boston","latitude":41.587539,"longitude":-93.625499,"number_of_employees":20,"type":"Startup","2Dgeo":[-93.625499,41.587539]}
{"name":"Pongr","category_code":"software","founded_year":2008,"country_code":"USA","city":"Des Moines","latitude":42.3513279,"longitude":-71.0766717,"number_of_employees":20,"type":"Startup","2Dgeo":[-71.0766717,42.3513279]}
{"name":"Sonar6","category_code":"software","founded_year":2004,"country_code":"NZL","city":"Auckland","latitude":-36.8527748,"longitude":174.756168,"number_of_employees":20,"type":"BigCompany","2Dgeo":[174.756168,-36.8527748]}
{"name":"OrcaTec","category_code":"software","founded_year":2006,"country_code":"USA","city":"Atlanta","latitude":45.538651,"longitude":-75.815542,"number_of_employees":20,"type":"BigCompany","2Dgeo":[-75.815542,45.538651]}
{"name":"CaptainU","category_code":"software","founded_year":2007,"country_code":"USA","city":"San Francisco","latitude":41.7894201,"longitude":-87.5962319,"number_of_employees":20,"type":"BigCompany","2Dgeo":[-87.5962319,41.7894201]}
{"name":"Enough Software","category_code":"software","founded_year":2005,"country_code":"DEU","city":"Bremen","latitude":53.0785928,"longitude":8.8088823,"number_of_employees":20,"type":"BigCompany","2Dgeo":[8.8088823,53.0785928]}
{"name":"ascentify","category_code":"software","founded_year":2004,"country_code":"CAN","city":"Ottawa","latitude":45.3479463,"longitude":-75.9200142,"number_of_employees":20,"type":"BigCompany","2Dgeo":[-75.9200142,45.3479463]}
{"name":"VODECLIC","category_code":"software","founded_year":2007,"country_code":"FRA","city":"Levallois-Perret","latitude":48.891986,"longitude":2.319287,"number_of_employees":20,"type":"BigCompany","2Dgeo":[2.319287,48.891986]}
{"name":"Hook Mobile","category_code":"software","founded_year":2006,"country_code":"USA","city":"Vienna","latitude":38.917237,"longitude":-77.232657,"number_of_employees":20,"type":"BigCompany","2Dgeo":[-77.232657,38.917237]}
{"name":"BrowserObject","category_code":"software","founded_year":2007,"country_code":"USA","city":"Brandenton","latitude":27.445135,"longitude":-82.485057,"number_of_employees":20,"type":"BigCompany","2Dgeo":[-82.485057,27.445135]}
{"name":"RJMetrics","category_code":"software","founded_year":2008,"country_code":"USA","city":"Philadelphia","latitude":39.9443552,"longitude":-75.1257381,"number_of_employees":20,"type":"Startup","2Dgeo":[-75.1257381,39.9443552]}
{"name":"Appulate","category_code":"software","founded_year":2005,"country_code":"USA","city":"Agoura Hills","latitude":34.142874,"longitude":-118.7445257,"number_of_employees":20,"type":"BigCompany","2Dgeo":[-118.7445257,34.142874]}
{"name":"SysTools Software","category_code":"software","founded_year":2006,"country_code":"USA","city":"Eden Prairie","latitude":44.864782,"longitude":-93.401984,"number_of_employees":20,"type":"BigCompany","2Dgeo":[-93.401984,44.864782]}
{"name":"Panfu","category_code":"games_video","founded_year":2007,"country_code":"DEU","city":"Berlin","latitude":52.5283111,"longitude":13.4120986,"number_of_employees":20,"type":"BigCompany","2Dgeo":[13.4120986,52.5283111]}
{"name":"GameChanger Media","category_code":"software","founded_year":2009,"country_code":"USA","city":"New York","latitude":40.7078343,"longitude":-74.0136605,"number_of_employees":20,"type":"Startup","2Dgeo":[-74.0136605,40.7078343]}
{"name":"HariOmTechnologies","category_code":"software","founded_year":2008,"country_code":"IND","city":"Bhopal","latitude":23.2771102,"longitude":77.4589032,"number_of_employees":20,"type":"Startup","2Dgeo":[77.4589032,23.2771102]}
{"name":"iPOTT Softech India Private Limited","category_code":"software","founded_year":2005,"country_code":"IND","city":"Bangalore","latitude":12.9959332,"longitude":77.6102811,"number_of_employees":20,"type":"BigCompany","2Dgeo":[77.6102811,12.9959332]}
{"name":"Diamantea","category_code":"software","founded_year":2004,"country_code":"ITA","city":"","latitude":37.5186215,"longitude":15.0916839,"number_of_employees":20,"type":"BigCompany","2Dgeo":[15.0916839,37.5186215]}
{"name":"Tiverias Apps","category_code":"software","founded_year":2009,"country_code":"USA","city":"Cambridge","latitude":42.3672873,"longitude":-71.0814466,"number_of_employees":20,"type":"Startup","2Dgeo":[-71.0814466,42.3672873]}
{"name":"Siri","category_code":"software","founded_year":2007,"country_code":"USA","city":"San Jose","latitude":37.320052,"longitude":-121.877636,"number_of_employees":19,"type":"BigCompany","2Dgeo":[-121.877636,37.320052]}
{"name":"espor","category_code":"software","founded_year":2008,"country_code":"USA","city":"Denver","latitude":39.3926188,"longitude":-104.8943767,"number_of_employees":19,"type":"Startup","2Dgeo":[-104.8943767,39.3926188]}
{"name":"Tsheets","category_code":"software","founded_year":2006,"country_code":"USA","city":"Eagle","latitude":43.6124,"longitude":-116.3908,"number_of_employees":18,"type":"BigCompany","2Dgeo":[-116.3908,43.6124]}
{"name":"Skalfa","category_code":"software","founded_year":2004,"country_code":"USA","city":"South Bend","latitude":41.601645,"longitude":-86.27604,"number_of_employees":18,"type":"BigCompany","2Dgeo":[-86.27604,41.601645]}
{"name":"Titan Gaming","category_code":"games_video","founded_year":2010,"country_code":"USA","city":"Santa Monica","latitude":53.544711,"longitude":-113.515769,"number_of_employees":18,"type":"Startup","2Dgeo":[-113.515769,53.544711]}
{"name":"Filemobile","category_code":"software","founded_year":2006,"country_code":"CAN","city":"Toronto","latitude":43.63559,"longitude":-79.424625,"number_of_employees":18,"type":"BigCompany","2Dgeo":[-79.424625,43.63559]}
{"name":"Artefact","category_code":"software","founded_year":2006,"country_code":"USA","city":"Seattle","latitude":47.611718,"longitude":-122.345874,"number_of_employees":18,"type":"BigCompany","2Dgeo":[-122.345874,47.611718]}
{"name":"Tivix","category_code":"software","founded_year":2008,"country_code":"USA","city":"San Francisco","latitude":37.792303,"longitude":-122.423132,"number_of_employees":18,"type":"Startup","2Dgeo":[-122.423132,37.792303]}
{"name":"ScanDigital","category_code":"games_video","founded_year":2007,"country_code":"USA","city":"Torrance","latitude":33.918151,"longitude":-118.41747,"number_of_employees":17,"type":"BigCompany","2Dgeo":[-118.41747,33.918151]}
{"name":"CareerTours","category_code":"games_video","founded_year":2006,"country_code":"USA","city":"Scottsdale","latitude":33.465063,"longitude":-111.926112,"number_of_employees":17,"type":"BigCompany","2Dgeo":[-111.926112,33.465063]}
{"name":"Planzone","category_code":"software","founded_year":2008,"country_code":"FRA","city":"cedex","latitude":49.5332371,"longitude":2.1346593,"number_of_employees":17,"type":"Startup","2Dgeo":[2.1346593,49.5332371]}
{"name":"Krimson","category_code":"software","founded_year":2007,"country_code":"BEL","city":"Antwerp","latitude":51.2013419,"longitude":4.4292519,"number_of_employees":17,"type":"BigCompany","2Dgeo":[4.4292519,51.2013419]}
{"name":"iPharro Media","category_code":"software","founded_year":2007,"country_code":"DEU","city":"Darmstadt","latitude":49.8740096,"longitude":8.6605881,"number_of_employees":17,"type":"BigCompany","2Dgeo":[8.6605881,49.8740096]}
{"name":"iPharro Media","category_code":"software","founded_year":2007,"country_code":"USA","city":"New York","latitude":40.7438356,"longitude":-73.9890149,"number_of_employees":17,"type":"BigCompany","2Dgeo":[-73.9890149,40.7438356]}
{"name":"Bumblehood","category_code":"software","founded_year":2006,"country_code":"DEU","city":"Munich","latitude":48.1319712,"longitude":11.5696891,"number_of_employees":17,"type":"BigCompany","2Dgeo":[11.5696891,48.1319712]}
{"name":"Clipta","category_code":"games_video","founded_year":2008,"country_code":"USA","city":"Sunnyvale","latitude":37.3793718,"longitude":-122.0124404,"number_of_employees":16,"type":"Startup","2Dgeo":[-122.0124404,37.3793718]}
{"name":"FMYI","category_code":"software","founded_year":2004,"country_code":"USA","city":"Portland","latitude":45.5349042,"longitude":-122.6687628,"number_of_employees":16,"type":"BigCompany","2Dgeo":[-122.6687628,45.5349042]}
{"name":"FMYI","category_code":"software","founded_year":2004,"country_code":"USA","city":"Orlando","latitude":28.553154,"longitude":-81.364438,"number_of_employees":16,"type":"BigCompany","2Dgeo":[-81.364438,28.553154]}
{"name":"FMYI","category_code":"software","founded_year":2004,"country_code":"USA","city":"Portland","latitude":45.5349042,"longitude":-122.6687628,"number_of_employees":16,"type":"BigCompany","2Dgeo":[-122.6687628,45.5349042]}
{"name":"FMYI","category_code":"software","founded_year":2004,"country_code":"USA","city":"Orlando","latitude":28.553154,"longitude":-81.364438,"number_of_employees":16,"type":"BigCompany","2Dgeo":[-81.364438,28.553154]}
{"name":"PayCommerce","category_code":"software","founded_year":2004,"country_code":"USA","city":"Piscataway","latitude":40.55007,"longitude":-74.456689,"number_of_employees":16,"type":"BigCompany","2Dgeo":[-74.456689,40.55007]}
{"name":"Spoonfed","category_code":"games_video","founded_year":2006,"country_code":"GBR","city":"London","latitude":51.7577453,"longitude":-1.2186724,"number_of_employees":16,"type":"BigCompany","2Dgeo":[-1.2186724,51.7577453]}
{"name":"AdaptiveBlue","category_code":"games_video","founded_year":2007,"country_code":"USA","city":"NYC","latitude":40.801358,"longitude":-74.3372,"number_of_employees":15,"type":"BigCompany","2Dgeo":[-74.3372,40.801358]}
{"name":"Veodia","category_code":"games_video","founded_year":2006,"country_code":"USA","city":"San Mateo","latitude":37.553743,"longitude":-122.300246,"number_of_employees":15,"type":"BigCompany","2Dgeo":[-122.300246,37.553743]}
{"name":"Roost","category_code":"software","founded_year":2007,"country_code":"USA","city":"San Francisco","latitude":37.7891288,"longitude":-122.4020276,"number_of_employees":15,"type":"BigCompany","2Dgeo":[-122.4020276,37.7891288]}
{"name":"Mirror42","category_code":"software","founded_year":2004,"country_code":"NLD","city":"Amsterdam","latitude":52.36702,"longitude":4.896468,"number_of_employees":15,"type":"BigCompany","2Dgeo":[4.896468,52.36702]}
{"name":"Medioh!","category_code":"games_video","founded_year":2005,"country_code":"USA","city":"Boulder","latitude":40.016582,"longitude":-105.253601,"number_of_employees":15,"type":"BigCompany","2Dgeo":[-105.253601,40.016582]}
{"name":"Porvus","category_code":"software","founded_year":2006,"country_code":"USA","city":"Sunnyvale","latitude":37.372509,"longitude":-122.038205,"number_of_employees":15,"type":"BigCompany","2Dgeo":[-122.038205,37.372509]}
{"name":"LyricFind","category_code":"games_video","founded_year":2005,"country_code":"CAN","city":"Toronto","latitude":43.7123092,"longitude":-79.3995384,"number_of_employees":15,"type":"BigCompany","2Dgeo":[-79.3995384,43.7123092]}
{"name":"Flimp Media","category_code":"software","founded_year":2006,"country_code":"USA","city":"Hopkinton","latitude":42.228946,"longitude":-71.51888,"number_of_employees":15,"type":"BigCompany","2Dgeo":[-71.51888,42.228946]}
{"name":"Transinsight","category_code":"software","founded_year":2005,"country_code":"DEU","city":"Dresden","latitude":51.055992,"longitude":13.776354,"number_of_employees":15,"type":"BigCompany","2Dgeo":[13.776354,51.055992]}
{"name":"Comindwork","category_code":"software","founded_year":2007,"country_code":"UKR","city":"Kiev","latitude":50.474832,"longitude":30.680651,"number_of_employees":15,"type":"BigCompany","2Dgeo":[30.680651,50.474832]}
{"name":"Endavo Media and Communications","category_code":"games_video","founded_year":2004,"country_code":"USA","city":"Atlanta","latitude":33.8317964,"longitude":-84.3391231,"number_of_employees":15,"type":"BigCompany","2Dgeo":[-84.3391231,33.8317964]}
{"name":"GotGame","category_code":"games_video","founded_year":2006,"country_code":"USA","city":"San Francisco","latitude":37.77772,"longitude":-122.395785,"number_of_employees":15,"type":"BigCompany","2Dgeo":[-122.395785,37.77772]}
{"name":"Aghreni Technologies","category_code":"software","founded_year":2008,"country_code":"IND","city":"Bangalore","latitude":12.9561278,"longitude":77.5922642,"number_of_employees":15,"type":"Startup","2Dgeo":[77.5922642,12.9561278]}
{"name":"Aghreni Technologies","category_code":"software","founded_year":2008,"country_code":"USA","city":"New York","latitude":40.744549,"longitude":-73.988071,"number_of_employees":15,"type":"Startup","2Dgeo":[-73.988071,40.744549]}
{"name":"Aligned Global","category_code":"software","founded_year":2008,"country_code":"USA","city":"Miami","latitude":25.769174,"longitude":-80.331681,"number_of_employees":15,"type":"Startup","2Dgeo":[-80.331681,25.769174]}
{"name":"BAK2u","category_code":"software","founded_year":2005,"country_code":"SGP","city":"Singapore","latitude":1.297079,"longitude":103.8557638,"number_of_employees":15,"type":"BigCompany","2Dgeo":[103.8557638,1.297079]}
{"name":"Paden Noble Consulting","category_code":"software","founded_year":2006,"country_code":"USA","city":"Newark","latitude":40.742416,"longitude":-74.182118,"number_of_employees":15,"type":"BigCompany","2Dgeo":[-74.182118,40.742416]}
{"name":"Drum Channel","category_code":"games_video","founded_year":2007,"country_code":"USA","city":"Oxnard","latitude":34.210099,"longitude":-119.12636,"number_of_employees":15,"type":"BigCompany","2Dgeo":[-119.12636,34.210099]}
{"name":"CodeLean","category_code":"software","founded_year":2008,"country_code":"DNK","city":"Bagsvaerd","latitude":55.7680455,"longitude":12.437582,"number_of_employees":15,"type":"Startup","2Dgeo":[12.437582,55.7680455]}
{"name":"Transcensus","category_code":"software","founded_year":2004,"country_code":"USA","city":"Orem","latitude":40.311946,"longitude":-111.6850207,"number_of_employees":15,"type":"BigCompany","2Dgeo":[-111.6850207,40.311946]}
{"name":"Monarch Teaching Technologies","category_code":"software","founded_year":2005,"country_code":"USA","city":"Shaker Heights","latitude":41.4865099,"longitude":-81.5257116,"number_of_employees":15,"type":"BigCompany","2Dgeo":[-81.5257116,41.4865099]}
{"name":"ProtoShare","category_code":"software","founded_year":2008,"country_code":"USA","city":"Portland","latitude":45.519475,"longitude":-122.675255,"number_of_employees":15,"type":"Startup","2Dgeo":[-122.675255,45.519475]}
{"name":"Vae Victis","category_code":"games_video","founded_year":2007,"country_code":"ITA","city":"Cesena","latitude":44.1480034,"longitude":12.2091265,"number_of_employees":15,"type":"BigCompany","2Dgeo":[12.2091265,44.1480034]}
{"name":"Virtuosant Technology","category_code":"software","founded_year":2007,"country_code":"USA","city":"Ringgold","latitude":34.9790168,"longitude":-85.0957662,"number_of_employees":15,"type":"BigCompany","2Dgeo":[-85.0957662,34.9790168]}
{"name":"HomePros","category_code":"software","founded_year":2008,"country_code":"USA","city":"Austin","latitude":30.43385,"longitude":-97.739316,"number_of_employees":15,"type":"Startup","2Dgeo":[-97.739316,30.43385]}
{"name":"KeyVision","category_code":"software","founded_year":2007,"country_code":"ITA","city":"Monza (MI)","latitude":45.587212,"longitude":9.285378,"number_of_employees":14,"type":"BigCompany","2Dgeo":[9.285378,45.587212]}
{"name":"Olark","category_code":"software","founded_year":2007,"country_code":"USA","city":"Palo Alto","latitude":37.400465,"longitude":-122.073003,"number_of_employees":14,"type":"BigCompany","2Dgeo":[-122.073003,37.400465]}
{"name":"Wuala","category_code":"software","founded_year":2007,"country_code":"CHE","city":"Zurich","latitude":47.384199,"longitude":8.492452,"number_of_employees":14,"type":"BigCompany","2Dgeo":[8.492452,47.384199]}
{"name":"Application Experts","category_code":"software","founded_year":2006,"country_code":"USA","city":"Broomfield","latitude":39.930354,"longitude":-105.092218,"number_of_employees":14,"type":"BigCompany","2Dgeo":[-105.092218,39.930354]}
{"name":"Application Experts","category_code":"software","founded_year":2006,"country_code":"USA","city":"Broomfield","latitude":39.930354,"longitude":-105.092218,"number_of_employees":14,"type":"BigCompany","2Dgeo":[-105.092218,39.930354]}
{"name":"Mobiata","category_code":"software","founded_year":2008,"country_code":"USA","city":"Ann Arbor","latitude":42.277416,"longitude":-83.733276,"number_of_employees":14,"type":"Startup","2Dgeo":[-83.733276,42.277416]}
{"name":"Neustep","category_code":"software","founded_year":2006,"country_code":"USA","city":"Chicago","latitude":41.5911112,"longitude":-87.342177,"number_of_employees":14,"type":"BigCompany","2Dgeo":[-87.342177,41.5911112]}
{"name":"Nirvaha","category_code":"software","founded_year":2007,"country_code":"USA","city":"Bellevue","latitude":47.6008008,"longitude":-122.3342585,"number_of_employees":14,"type":"BigCompany","2Dgeo":[-122.3342585,47.6008008]}
{"name":"MeFeedia","category_code":"games_video","founded_year":2007,"country_code":"USA","city":"Burbank","latitude":34.155869,"longitude":-118.335292,"number_of_employees":13,"type":"BigCompany","2Dgeo":[-118.335292,34.155869]}
{"name":"AtelMedia","category_code":"software","founded_year":2006,"country_code":"ESP","city":"Madrid","latitude":40.416741,"longitude":-3.70325,"number_of_employees":13,"type":"BigCompany","2Dgeo":[-3.70325,40.416741]}
{"name":"AtelMedia","category_code":"software","founded_year":2006,"country_code":"ESP","city":"Sevilla","latitude":37.38264,"longitude":-5.996295,"number_of_employees":13,"type":"BigCompany","2Dgeo":[-5.996295,37.38264]}
{"name":"AtelMedia","category_code":"software","founded_year":2006,"country_code":"ESP","city":"Alicante","latitude":38.346041,"longitude":-0.484756,"number_of_employees":13,"type":"BigCompany","2Dgeo":[-0.484756,38.346041]}
{"name":"AtelMedia","category_code":"software","founded_year":2006,"country_code":"ESP","city":"C\u00c3\u00b3rdoba","latitude":37.884727,"longitude":-4.779152,"number_of_employees":13,"type":"BigCompany","2Dgeo":[-4.779152,37.884727]}
{"name":"Intelligenes","category_code":"software","founded_year":2005,"country_code":"PAK","city":"Karachi","latitude":24.9068278,"longitude":67.0806218,"number_of_employees":13,"type":"BigCompany","2Dgeo":[67.0806218,24.9068278]}
{"name":"Intelligenes","category_code":"software","founded_year":2005,"country_code":"PAK","city":"Karachi","latitude":24.9068278,"longitude":67.0806218,"number_of_employees":13,"type":"BigCompany","2Dgeo":[67.0806218,24.9068278]}
{"name":"Vengeo","category_code":"software","founded_year":2008,"country_code":"CAN","city":"Toronto","latitude":43.678782,"longitude":-79.439315,"number_of_employees":13,"type":"Startup","2Dgeo":[-79.439315,43.678782]}
{"name":"Kynetx","category_code":"software","founded_year":2007,"country_code":"USA","city":"Lehi","latitude":40.4273613,"longitude":-111.8967224,"number_of_employees":13,"type":"BigCompany","2Dgeo":[-111.8967224,40.4273613]}
{"name":"Ceylon Solutions","category_code":"software","founded_year":2008,"country_code":"USA","city":"Denver","latitude":39.62574,"longitude":-105.092372,"number_of_employees":13,"type":"Startup","2Dgeo":[-105.092372,39.62574]}
{"name":"Gloto","category_code":"software","founded_year":2005,"country_code":"USA","city":"Fulton","latitude":39.1481859,"longitude":-76.9061739,"number_of_employees":13,"type":"BigCompany","2Dgeo":[-76.9061739,39.1481859]}
{"name":"scoyo","category_code":"games_video","founded_year":2009,"country_code":"DEU","city":"Hamburg","latitude":53.5622698,"longitude":9.9490139,"number_of_employees":13,"type":"Startup","2Dgeo":[9.9490139,53.5622698]}
{"name":"Metaplace","category_code":"games_video","founded_year":2006,"country_code":"USA","city":"Solana Beach","latitude":33.020832,"longitude":-117.077311,"number_of_employees":12,"type":"BigCompany","2Dgeo":[-117.077311,33.020832]}
{"name":"WonderHowTo","category_code":"games_video","founded_year":2008,"country_code":"USA","city":"Santa Monica","latitude":34.031764,"longitude":-118.461884,"number_of_employees":12,"type":"Startup","2Dgeo":[-118.461884,34.031764]}
{"name":"Woopra","category_code":"software","founded_year":2008,"country_code":"USA","city":"San Francisco","latitude":31.169036,"longitude":-100.076888,"number_of_employees":12,"type":"Startup","2Dgeo":[-100.076888,31.169036]}
{"name":"FragMob","category_code":"software","founded_year":2008,"country_code":"USA","city":"San Diego","latitude":34.063441,"longitude":-118.36543,"number_of_employees":12,"type":"Startup","2Dgeo":[-118.36543,34.063441]}
{"name":"Mercury Intermedia","category_code":"software","founded_year":2004,"country_code":"USA","city":"Brentwood","latitude":36.030702,"longitude":-86.776051,"number_of_employees":12,"type":"BigCompany","2Dgeo":[-86.776051,36.030702]}
{"name":"GEN247","category_code":"games_video","founded_year":2008,"country_code":"USA","city":"Brooklyn","latitude":40.727434,"longitude":-73.9447994,"number_of_employees":12,"type":"Startup","2Dgeo":[-73.9447994,40.727434]}
{"name":"Tubefilter","category_code":"games_video","founded_year":2008,"country_code":"USA","city":"Los Angeles","latitude":34.070436,"longitude":-118.350486,"number_of_employees":12,"type":"Startup","2Dgeo":[-118.350486,34.070436]}
{"name":"Mexuar Communications","category_code":"software","founded_year":2005,"country_code":"GBR","city":"Manchester","latitude":53.465082,"longitude":-2.335605,"number_of_employees":12,"type":"BigCompany","2Dgeo":[-2.335605,53.465082]}
{"name":"Tubefilter","category_code":"games_video","founded_year":2008,"country_code":"USA","city":"Los Angeles","latitude":34.070436,"longitude":-118.350486,"number_of_employees":12,"type":"Startup","2Dgeo":[-118.350486,34.070436]}
{"name":"Mexuar Communications","category_code":"software","founded_year":2005,"country_code":"GBR","city":"Manchester","latitude":53.465082,"longitude":-2.335605,"number_of_employees":12,"type":"BigCompany","2Dgeo":[-2.335605,53.465082]}
{"name":"Fusion Creative Studios","category_code":"games_video","founded_year":2006,"country_code":"USA","city":"Branford","latitude":41.303696,"longitude":-72.768842,"number_of_employees":12,"type":"BigCompany","2Dgeo":[-72.768842,41.303696]}
{"name":"DigitalDeejay","category_code":"games_video","founded_year":2005,"country_code":"FRA","city":"CALUIRE ET CUIRE","latitude":45.792717,"longitude":4.830048,"number_of_employees":12,"type":"BigCompany","2Dgeo":[4.830048,45.792717]}
{"name":"Citizenside","category_code":"games_video","founded_year":2006,"country_code":"FRA","city":"Paris","latitude":48.8926988,"longitude":2.3179601,"number_of_employees":12,"type":"BigCompany","2Dgeo":[2.3179601,48.8926988]}
{"name":"Compete-At","category_code":"games_video","founded_year":2007,"country_code":"USA","city":"Bethesda","latitude":38.9897861,"longitude":-77.0989247,"number_of_employees":12,"type":"BigCompany","2Dgeo":[-77.0989247,38.9897861]}
{"name":"Compete-At","category_code":"games_video","founded_year":2007,"country_code":"USA","city":"Colorado Springs","latitude":38.927596,"longitude":-104.830775,"number_of_employees":12,"type":"BigCompany","2Dgeo":[-104.830775,38.927596]}
{"name":"Socialwrks","category_code":"software","founded_year":2005,"country_code":"GBR","city":"Guildford","latitude":51.2402584,"longitude":-0.6126472,"number_of_employees":12,"type":"BigCompany","2Dgeo":[-0.6126472,51.2402584]}
{"name":"MixMatchMusic","category_code":"games_video","founded_year":2007,"country_code":"USA","city":"Burlingame","latitude":37.5768841,"longitude":-122.3462137,"number_of_employees":12,"type":"BigCompany","2Dgeo":[-122.3462137,37.5768841]}
{"name":"Shane Longman","category_code":"software","founded_year":2006,"country_code":"AUS","city":"Sydney","latitude":-37.639333,"longitude":144.9504861,"number_of_employees":12,"type":"BigCompany","2Dgeo":[144.9504861,-37.639333]}
{"name":"Transifex","category_code":"software","founded_year":2009,"country_code":"USA","city":"Menlo Park","latitude":37.4513629,"longitude":-122.1842112,"number_of_employees":12,"type":"Startup","2Dgeo":[-122.1842112,37.4513629]}
{"name":"FreshNetworks","category_code":"software","founded_year":2007,"country_code":"GBR","city":"London","latitude":51.5178123,"longitude":-0.11796,"number_of_employees":12,"type":"BigCompany","2Dgeo":[-0.11796,51.5178123]}
{"name":"ITDatabase","category_code":"software","founded_year":2007,"country_code":"USA","city":"San Francisco","latitude":37.778545,"longitude":-122.437716,"number_of_employees":12,"type":"BigCompany","2Dgeo":[-122.437716,37.778545]}
{"name":"SwapBeats","category_code":"software","founded_year":2008,"country_code":"USA","city":"Minneapolis","latitude":44.977482,"longitude":-93.264351,"number_of_employees":12,"type":"Startup","2Dgeo":[-93.264351,44.977482]}
{"name":"Garlik","category_code":"software","founded_year":2005,"country_code":"GBR","city":"Richmond","latitude":51.462108,"longitude":-0.295441,"number_of_employees":12,"type":"BigCompany","2Dgeo":[-0.295441,51.462108]}
{"name":"Garlik","category_code":"software","founded_year":2005,"country_code":"USA","city":"New York","latitude":40.7615818,"longitude":-73.970624,"number_of_employees":12,"type":"BigCompany","2Dgeo":[-73.970624,40.7615818]}
{"name":"ubigrate","category_code":"software","founded_year":2008,"country_code":"DEU","city":"Dresden","latitude":51.0343624,"longitude":13.7759644,"number_of_employees":12,"type":"Startup","2Dgeo":[13.7759644,51.0343624]}
{"name":"Redux","category_code":"games_video","founded_year":2007,"country_code":"USA","city":"Berkeley","latitude":37.87168,"longitude":-122.269494,"number_of_employees":11,"type":"BigCompany","2Dgeo":[-122.269494,37.87168]}
{"name":"allyve","category_code":"software","founded_year":2007,"country_code":"DEU","city":"Hamburg","latitude":53.550572,"longitude":9.997669,"number_of_employees":11,"type":"BigCompany","2Dgeo":[9.997669,53.550572]}
{"name":"DisputeSuite","category_code":"software","founded_year":2006,"country_code":"USA","city":"New Port Richey","latitude":28.262756,"longitude":-82.728466,"number_of_employees":11,"type":"BigCompany","2Dgeo":[-82.728466,28.262756]}
{"name":"IBTgames","category_code":"games_video","founded_year":2008,"country_code":"BGD","city":"Dhaka","latitude":23.797333,"longitude":90.401432,"number_of_employees":11,"type":"Startup","2Dgeo":[90.401432,23.797333]}
{"name":"IBTgames","category_code":"games_video","founded_year":2008,"country_code":"USA","city":"Worcester","latitude":42.23988,"longitude":-71.839344,"number_of_employees":11,"type":"Startup","2Dgeo":[-71.839344,42.23988]}
{"name":"TubeSpree","category_code":"games_video","founded_year":2007,"country_code":"USA","city":"San Francisco","latitude":37.781386,"longitude":-122.421406,"number_of_employees":11,"type":"BigCompany","2Dgeo":[-122.421406,37.781386]}
{"name":"PEX Card","category_code":"software","founded_year":2007,"country_code":"USA","city":"New York","latitude":40.752539,"longitude":-73.987871,"number_of_employees":11,"type":"BigCompany","2Dgeo":[-73.987871,40.752539]}
{"name":"JustProto","category_code":"software","founded_year":2009,"country_code":"POL","city":"Gdynia","latitude":54.520135,"longitude":18.5416342,"number_of_employees":11,"type":"Startup","2Dgeo":[18.5416342,54.520135]}
{"name":"Continuity Engine","category_code":"software","founded_year":2008,"country_code":"USA","city":"New Haven","latitude":41.3279176,"longitude":-73.2435522,"number_of_employees":11,"type":"Startup","2Dgeo":[-73.2435522,41.3279176]}
{"name":"Recombinant","category_code":"games_video","founded_year":2005,"country_code":"USA","city":"Santa Cruz","latitude":36.977905,"longitude":-122.03336,"number_of_employees":10,"type":"BigCompany","2Dgeo":[-122.03336,36.977905]}
{"name":"WebRidesTV","category_code":"games_video","founded_year":2006,"country_code":"USA","city":"Culver City","latitude":34.024453,"longitude":-118.380437,"number_of_employees":10,"type":"BigCompany","2Dgeo":[-118.380437,34.024453]}
{"name":"AudioMicro","category_code":"games_video","founded_year":2008,"country_code":"USA","city":"Sherman Oaks","latitude":34.153588,"longitude":-118.422495,"number_of_employees":10,"type":"Startup","2Dgeo":[-118.422495,34.153588]}
{"name":"Moviestorm","category_code":"software","founded_year":2005,"country_code":"GBR","city":"Cambridge","latitude":52.197471,"longitude":0.130588,"number_of_employees":10,"type":"BigCompany","2Dgeo":[0.130588,52.197471]}
{"name":"Podbean LLC","category_code":"games_video","founded_year":2006,"country_code":"USA","city":"Wilmington","latitude":39.786948,"longitude":-75.485407,"number_of_employees":10,"type":"BigCompany","2Dgeo":[-75.485407,39.786948]}
{"name":"AFrame Digital","category_code":"software","founded_year":2005,"country_code":"USA","city":"Reston","latitude":38.875876,"longitude":-77.220779,"number_of_employees":10,"type":"BigCompany","2Dgeo":[-77.220779,38.875876]}
{"name":"Pixelmatic","category_code":"games_video","founded_year":2011,"country_code":"CAN","city":"Vancouver","latitude":49.263588,"longitude":-123.138565,"number_of_employees":10,"type":"Startup","2Dgeo":[-123.138565,49.263588]}
{"name":"My Damn Channel","category_code":"games_video","founded_year":2007,"country_code":"USA","city":"New York","latitude":40.754762,"longitude":-73.988543,"number_of_employees":10,"type":"BigCompany","2Dgeo":[-73.988543,40.754762]}
{"name":"My Damn Channel","category_code":"games_video","founded_year":2007,"country_code":"USA","city":"El Segundo","latitude":33.9019543,"longitude":-118.3872018,"number_of_employees":10,"type":"BigCompany","2Dgeo":[-118.3872018,33.9019543]}
{"name":"YOOWALK","category_code":"games_video","founded_year":2006,"country_code":"FRA","city":"Paris","latitude":48.8475487,"longitude":2.2992348,"number_of_employees":10,"type":"BigCompany","2Dgeo":[2.2992348,48.8475487]}
{"name":"InterActive Applicant","category_code":"software","founded_year":2007,"country_code":"CAN","city":"Calgary","latitude":51.005717,"longitude":-114.130296,"number_of_employees":10,"type":"BigCompany","2Dgeo":[-114.130296,51.005717]}
{"name":"Producteev","category_code":"software","founded_year":2008,"country_code":"USA","city":"New York","latitude":40.775309,"longitude":-73.983656,"number_of_employees":10,"type":"Startup","2Dgeo":[-73.983656,40.775309]}
{"name":"Dooit","category_code":"software","founded_year":2008,"country_code":"ITA","city":"Treviso","latitude":45.657409,"longitude":12.22861,"number_of_employees":10,"type":"Startup","2Dgeo":[12.22861,45.657409]}
{"name":"Producteev","category_code":"software","founded_year":2008,"country_code":"USA","city":"New York","latitude":40.775309,"longitude":-73.983656,"number_of_employees":10,"type":"Startup","2Dgeo":[-73.983656,40.775309]}
{"name":"Dooit","category_code":"software","founded_year":2008,"country_code":"ITA","city":"Treviso","latitude":45.657409,"longitude":12.22861,"number_of_employees":10,"type":"Startup","2Dgeo":[12.22861,45.657409]}
{"name":"Roomex","category_code":"software","founded_year":2006,"country_code":"IRL","city":"Dublin","latitude":53.308258,"longitude":-6.238443,"number_of_employees":10,"type":"BigCompany","2Dgeo":[-6.238443,53.308258]}
{"name":"Radio One Llama","category_code":"games_video","founded_year":2006,"country_code":"USA","city":"Champaign","latitude":40.1128,"longitude":-88.271074,"number_of_employees":10,"type":"BigCompany","2Dgeo":[-88.271074,40.1128]}
{"name":"BonzaDat","category_code":"software","founded_year":2004,"country_code":"AUS","city":"Queensland","latitude":-27.621592,"longitude":152.778976,"number_of_employees":10,"type":"BigCompany","2Dgeo":[152.778976,-27.621592]}
{"name":"ReplayGamez","category_code":"games_video","founded_year":2008,"country_code":"USA","city":"Flowermound","latitude":29.550027,"longitude":-95.693347,"number_of_employees":10,"type":"Startup","2Dgeo":[-95.693347,29.550027]}
{"name":"MaxPowerSoft","category_code":"software","founded_year":2007,"country_code":"USA","city":"San Diego","latitude":32.908601,"longitude":-117.091176,"number_of_employees":10,"type":"BigCompany","2Dgeo":[-117.091176,32.908601]}
{"name":"SonicLiving","category_code":"games_video","founded_year":2006,"country_code":"USA","city":"San Francisco","latitude":37.8448035,"longitude":-122.290897,"number_of_employees":10,"type":"BigCompany","2Dgeo":[-122.290897,37.8448035]}
{"name":"Gtm infotech","category_code":"software","founded_year":2006,"country_code":"IND","city":"Chennai","latitude":13.0600605,"longitude":80.174135,"number_of_employees":10,"type":"BigCompany","2Dgeo":[80.174135,13.0600605]}
{"name":"Pierlis","category_code":"software","founded_year":2006,"country_code":"FRA","city":"Paris","latitude":48.8762407,"longitude":2.3503689,"number_of_employees":10,"type":"BigCompany","2Dgeo":[2.3503689,48.8762407]}
{"name":"Nodeta","category_code":"software","founded_year":2004,"country_code":"FIN","city":"Helsinki","latitude":60.215635,"longitude":24.8703542,"number_of_employees":10,"type":"BigCompany","2Dgeo":[24.8703542,60.215635]}
{"name":"iViioo","category_code":"games_video","founded_year":2007,"country_code":"USA","city":"","latitude":37.5340363,"longitude":-121.9131761,"number_of_employees":10,"type":"BigCompany","2Dgeo":[-121.9131761,37.5340363]}
{"name":"iViioo","category_code":"games_video","founded_year":2007,"country_code":"SWE","city":"Stockholm","latitude":59.3327881,"longitude":18.0644881,"number_of_employees":10,"type":"BigCompany","2Dgeo":[18.0644881,59.3327881]}
{"name":"Adoroi","category_code":"software","founded_year":2007,"country_code":"USA","city":"Houston","latitude":29.7362562,"longitude":-95.6036999,"number_of_employees":10,"type":"BigCompany","2Dgeo":[-95.6036999,29.7362562]}
{"name":"RS Techno Solutions","category_code":"software","founded_year":2007,"country_code":"IND","city":"","latitude":26.9330943,"longitude":75.7969791,"number_of_employees":10,"type":"BigCompany","2Dgeo":[75.7969791,26.9330943]}
{"name":"Filmed Media","category_code":"games_video","founded_year":2008,"country_code":"GBR","city":"London","latitude":51.5359008,"longitude":-0.2055081,"number_of_employees":10,"type":"Startup","2Dgeo":[-0.2055081,51.5359008]}
{"name":"Reactor Zero","category_code":"software","founded_year":2005,"country_code":"USA","city":"Ann Arbor","latitude":42.232512,"longitude":-83.7464742,"number_of_employees":10,"type":"BigCompany","2Dgeo":[-83.7464742,42.232512]}
{"name":"PersonAll","category_code":"software","founded_year":2007,"country_code":"FRA","city":"Saint-Maur","latitude":48.7900014,"longitude":2.4772506,"number_of_employees":10,"type":"BigCompany","2Dgeo":[2.4772506,48.7900014]}
{"name":"OutlookCloud","category_code":"software","founded_year":2008,"country_code":"USA","city":"Sunnyvale","latitude":37.3492097,"longitude":-122.0326019,"number_of_employees":10,"type":"Startup","2Dgeo":[-122.0326019,37.3492097]}
{"name":"SAMP2","category_code":"games_video","founded_year":2008,"country_code":"NLD","city":"Bilthoven","latitude":52.1424695,"longitude":5.2092075,"number_of_employees":10,"type":"Startup","2Dgeo":[5.2092075,52.1424695]}
{"name":"Qbit","category_code":"software","founded_year":2005,"country_code":"USA","city":"Gaithersburg","latitude":39.136902,"longitude":-77.223186,"number_of_employees":10,"type":"BigCompany","2Dgeo":[-77.223186,39.136902]}
{"name":"Emoshape","category_code":"software","founded_year":2007,"country_code":"GBR","city":"London","latitude":51.5123833,"longitude":-0.1158832,"number_of_employees":10,"type":"BigCompany","2Dgeo":[-0.1158832,51.5123833]}
{"name":"LoomTV","category_code":"games_video","founded_year":2007,"country_code":"DEU","city":"Neuss","latitude":51.1977634,"longitude":6.6906699,"number_of_employees":10,"type":"BigCompany","2Dgeo":[6.6906699,51.1977634]}
{"name":"CodeGlide","category_code":"software","founded_year":2007,"country_code":"USA","city":"San Francisco","latitude":37.7934643,"longitude":-122.3979712,"number_of_employees":10,"type":"BigCompany","2Dgeo":[-122.3979712,37.7934643]}
{"name":"CodeGlide","category_code":"software","founded_year":2007,"country_code":"ARG","city":"Puerto Madero","latitude":-34.6070993,"longitude":-58.3667319,"number_of_employees":10,"type":"BigCompany","2Dgeo":[-58.3667319,-34.6070993]}
{"name":"Wisevid","category_code":"games_video","founded_year":2008,"country_code":"CAN","city":"Toronto","latitude":43.670233,"longitude":-79.386755,"number_of_employees":10,"type":"Startup","2Dgeo":[-79.386755,43.670233]}
{"name":"ScienceOps","category_code":"software","founded_year":2007,"country_code":"USA","city":"Mount Vernon","latitude":47.762959,"longitude":-122.1825889,"number_of_employees":10,"type":"BigCompany","2Dgeo":[-122.1825889,47.762959]}
{"name":"Distant Measures","category_code":"software","founded_year":2006,"country_code":"USA","city":"","latitude":33.5725815,"longitude":-112.0118669,"number_of_employees":10,"type":"BigCompany","2Dgeo":[-112.0118669,33.5725815]}
