{"category_code":"web","founded_year":2006,"name":"Geni","number_of_employees":18,"offices":[{"longitude":-118.393064,"latitude":34.090368}],"latitude":34.090368,"longitude":-118.393064,"geojson":{"type":"point","coordinates":[-118.393064,34.090368]}}
{"category_code":"web","founded_year":2007,"name":"Mahalo","number_of_employees":40,"offices":[{"longitude":-118.487267,"latitude":34.017606}],"latitude":34.017606,"longitude":-118.487267,"geojson":{"type":"point","coordinates":[-118.487267,34.017606]}}
{"category_code":"games_video","founded_year":2006,"name":"Kyte","number_of_employees":40,"offices":[{"longitude":-122.409173,"latitude":37.788482}],"latitude":37.788482,"longitude":-122.409173,"geojson":{"type":"point","coordinates":[-122.409173,37.788482]}}
{"category_code":"web","founded_year":2007,"name":"CriticalMetrics","number_of_employees":4,"offices":[{"longitude":-119.306607,"latitude":37.269175}],"latitude":37.269175,"longitude":-119.306607,"geojson":{"type":"point","coordinates":[-119.306607,37.269175]}}
{"category_code":"games_video","founded_year":2006,"name":"Stickam","number_of_employees":35,"offices":[{"longitude":-118.254558,"latitude":34.051409}],"latitude":34.051409,"longitude":-118.254558,"geojson":{"type":"point","coordinates":[-118.254558,34.051409]}}
{"category_code":"games_video","founded_year":2007,"name":"Livestream","number_of_employees":120,"offices":[{"longitude":-73.995625,"latitude":40.726155}],"latitude":40.726155,"longitude":-73.995625,"geojson":{"type":"point","coordinates":[-73.995625,40.726155]}}
{"category_code":"games_video","founded_year":2007,"name":"AdaptiveBlue","number_of_employees":15,"offices":[{"longitude":-74.3372,"latitude":40.801358}],"latitude":40.801358,"longitude":-74.3372,"geojson":{"type":"point","coordinates":[-74.3372,40.801358]}}
{"category_code":"mobile","founded_year":2006,"name":"GrandCentral","number_of_employees":3,"offices":[{"longitude":-121.932202,"latitude":37.465645}],"latitude":37.465645,"longitude":-121.932202,"geojson":{"type":"point","coordinates":[-121.932202,37.465645]}}
{"category_code":"web","founded_year":2007,"name":"Pownce","number_of_employees":6,"offices":[{"longitude":-122.397224,"latitude":37.762541}],"latitude":37.762541,"longitude":-122.397224,"geojson":{"type":"point","coordinates":[-122.397224,37.762541]}}
{"category_code":"web","founded_year":2007,"name":"SodaHead","number_of_employees":25,"offices":[{"longitude":-119.306607,"latitude":37.269175}],"latitude":37.269175,"longitude":-119.306607,"geojson":{"type":"point","coordinates":[-119.306607,37.269175]}}
{"category_code":"mobile","founded_year":2006,"name":"Jaiku","number_of_employees":8,"offices":[{"longitude":24.93105,"latitude":60.16377}],"latitude":60.16377,"longitude":24.93105,"geojson":{"type":"point","coordinates":[24.93105,60.16377]}}
{"category_code":"web","founded_year":2007,"name":"Spotplex","number_of_employees":3,"offices":[{"longitude":-121.940749,"latitude":37.380101}],"latitude":37.380101,"longitude":-121.940749,"geojson":{"type":"point","coordinates":[-121.940749,37.380101]}}
{"category_code":"web","founded_year":2007,"name":"Wakoopa","number_of_employees":8,"offices":[{"longitude":4.8948623,"latitude":52.3745228}],"latitude":52.3745228,"longitude":4.8948623,"geojson":{"type":"point","coordinates":[4.8948623,52.3745228]}}
{"category_code":"web","founded_year":2006,"name":"Fleck","number_of_employees":3,"offices":[{"longitude":4.908556,"latitude":52.375595}],"latitude":52.375595,"longitude":4.908556,"geojson":{"type":"point","coordinates":[4.908556,52.375595]}}
{"category_code":"web","founded_year":2006,"name":"Zamzar","number_of_employees":2,"offices":[{"longitude":-1.3610845,"latitude":50.9444598}],"latitude":50.9444598,"longitude":-1.3610845,"geojson":{"type":"point","coordinates":[-1.3610845,50.9444598]}}
{"category_code":"web","founded_year":2006,"name":"Pageflakes","number_of_employees":20,"offices":[{"longitude":-122.414689,"latitude":37.758113}],"latitude":37.758113,"longitude":-122.414689,"geojson":{"type":"point","coordinates":[-122.414689,37.758113]}}
{"category_code":"web","founded_year":2007,"name":"CrowdVine","number_of_employees":10,"offices":[{"longitude":-122.511687,"latitude":37.90077}],"latitude":37.90077,"longitude":-122.511687,"geojson":{"type":"point","coordinates":[-122.511687,37.90077]}}
{"category_code":"web","founded_year":2006,"name":"WatZatSong","number_of_employees":3,"offices":[{"longitude":2.381514,"latitude":48.866323}],"latitude":48.866323,"longitude":2.381514,"geojson":{"type":"point","coordinates":[2.381514,48.866323]}}
{"category_code":"web","founded_year":2006,"name":"Eventbrite","number_of_employees":200,"offices":[{"longitude":-122.39071,"latitude":37.779507}],"latitude":37.779507,"longitude":-122.39071,"geojson":{"type":"point","coordinates":[-122.39071,37.779507]}}
{"category_code":"web","founded_year":2006,"name":"Terabitz","number_of_employees":12,"offices":[{"longitude":-122.159928,"latitude":37.437328}],"latitude":37.437328,"longitude":-122.159928,"geojson":{"type":"point","coordinates":[-122.159928,37.437328]}}
{"category_code":"web","founded_year":2007,"name":"Seesmic","number_of_employees":13,"offices":[{"longitude":-122.419204,"latitude":37.775196}],"latitude":37.775196,"longitude":-122.419204,"geojson":{"type":"point","coordinates":[-122.419204,37.775196]}}
{"category_code":"web","founded_year":2006,"name":"Hotelicopter","number_of_employees":15,"offices":[{"longitude":-78.48158,"latitude":38.030823}],"latitude":38.030823,"longitude":-78.48158,"geojson":{"type":"point","coordinates":[-78.48158,38.030823]}}
{"category_code":"web","founded_year":2007,"name":"Ujogo","number_of_employees":6,"offices":[{"longitude":-122.392861,"latitude":37.76785}],"latitude":37.76785,"longitude":-122.392861,"geojson":{"type":"point","coordinates":[-122.392861,37.76785]}}
{"category_code":"software","founded_year":2008,"name":"GoingOn","number_of_employees":40,"offices":[{"longitude":-122.392142,"latitude":37.782263}],"latitude":37.782263,"longitude":-122.392142,"geojson":{"type":"point","coordinates":[-122.392142,37.782263]}}
{"category_code":"web","founded_year":2006,"name":"Flixster","number_of_employees":75,"offices":[{"longitude":-122.406676,"latitude":37.766909}],"latitude":37.766909,"longitude":-122.406676,"geojson":{"type":"point","coordinates":[-122.406676,37.766909]}}
{"category_code":"software","founded_year":2006,"name":"spigit","number_of_employees":120,"offices":[{"longitude":-121.8731805,"latitude":37.6637279},{"longitude":-77.3592746,"latitude":38.9590083},{"longitude":-0.1394759,"latitude":51.5170385}],"latitude":37.6637279,"longitude":-121.8731805,"geojson":{"type":"point","coordinates":[-121.8731805,37.6637279]}}
{"category_code":"web","founded_year":2006,"name":"Respectance","number_of_employees":15,"offices":[{"longitude":-122.321836,"latitude":37.55909}],"latitude":37.55909,"longitude":-122.321836,"geojson":{"type":"point","coordinates":[-122.321836,37.55909]}}
{"category_code":"software","founded_year":2006,"name":"JumpBox","number_of_employees":5,"offices":[{"longitude":-111.944967,"latitude":33.429864}],"latitude":33.429864,"longitude":-111.944967,"geojson":{"type":"point","coordinates":[-111.944967,33.429864]}}
{"category_code":"web","founded_year":2006,"name":"IntenseDebate","number_of_employees":4,"offices":[{"longitude":-105.276843,"latitude":40.010492}],"latitude":40.010492,"longitude":-105.276843,"geojson":{"type":"point","coordinates":[-105.276843,40.010492]}}
{"category_code":"mobile","founded_year":2006,"name":"Rebtel","number_of_employees":75,"offices":[{"longitude":18.1582777,"latitude":59.3167843}],"latitude":59.3167843,"longitude":18.1582777,"geojson":{"type":"point","coordinates":[18.1582777,59.3167843]}}
{"category_code":"web","founded_year":2007,"name":"Buxfer","number_of_employees":4,"offices":[{"longitude":-122.073003,"latitude":37.400465}],"latitude":37.400465,"longitude":-122.073003,"geojson":{"type":"point","coordinates":[-122.073003,37.400465]}}
{"category_code":"web","founded_year":2006,"name":"MeeMix","number_of_employees":9,"offices":[{"longitude":34.7595,"latitude":32.0554}],"latitude":32.0554,"longitude":34.7595,"geojson":{"type":"point","coordinates":[34.7595,32.0554]}}
{"category_code":"games_video","founded_year":2006,"name":"Aniboom","number_of_employees":25,"offices":[{"longitude":34.851612,"latitude":31.046051}],"latitude":31.046051,"longitude":34.851612,"geojson":{"type":"point","coordinates":[34.851612,31.046051]}}
{"category_code":"web","founded_year":2006,"name":"Weebly","number_of_employees":70,"offices":[{"longitude":-122.400729,"latitude":37.795555}],"latitude":37.795555,"longitude":-122.400729,"geojson":{"type":"point","coordinates":[-122.400729,37.795555]}}
{"category_code":"games_video","founded_year":2006,"name":"Kongregate","number_of_employees":20,"offices":[{"longitude":-122.401245,"latitude":37.786942}],"latitude":37.786942,"longitude":-122.401245,"geojson":{"type":"point","coordinates":[-122.401245,37.786942]}}
{"category_code":"web","founded_year":2007,"name":"Filtrbox","number_of_employees":14,"offices":[{"longitude":-105.276843,"latitude":40.010492}],"latitude":40.010492,"longitude":-105.276843,"geojson":{"type":"point","coordinates":[-105.276843,40.010492]}}
{"category_code":"web","founded_year":2007,"name":"Docstoc","number_of_employees":40,"offices":[{"longitude":-118.495025,"latitude":34.018275}],"latitude":34.018275,"longitude":-118.495025,"geojson":{"type":"point","coordinates":[-118.495025,34.018275]}}
{"category_code":"games_video","founded_year":2008,"name":"YouBeQB","number_of_employees":8,"offices":[{"longitude":-122.151158,"latitude":47.597965}],"latitude":47.597965,"longitude":-122.151158,"geojson":{"type":"point","coordinates":[-122.151158,47.597965]}}
{"category_code":"web","founded_year":2006,"name":"RampedMedia","number_of_employees":6,"offices":[{"longitude":-90.216499,"latitude":38.618874}],"latitude":38.618874,"longitude":-90.216499,"geojson":{"type":"point","coordinates":[-90.216499,38.618874]}}
{"category_code":"web","founded_year":2007,"name":"MicroPlace","number_of_employees":15,"offices":[{"longitude":-122.419204,"latitude":37.775196}],"latitude":37.775196,"longitude":-122.419204,"geojson":{"type":"point","coordinates":[-122.419204,37.775196]}}
{"category_code":"web","founded_year":2007,"name":"EyeJot","number_of_employees":5,"offices":[{"longitude":-122.3276962,"latitude":47.5999337}],"latitude":47.5999337,"longitude":-122.3276962,"geojson":{"type":"point","coordinates":[-122.3276962,47.5999337]}}
{"category_code":"web","founded_year":2007,"name":"CrowdSpirit","number_of_employees":3,"offices":[{"longitude":5.659066,"latitude":45.206889}],"latitude":45.206889,"longitude":5.659066,"geojson":{"type":"point","coordinates":[5.659066,45.206889]}}
{"category_code":"games_video","founded_year":2008,"name":"Crunchyroll","number_of_employees":50,"offices":[{"longitude":-122.393229,"latitude":37.781265}],"latitude":37.781265,"longitude":-122.393229,"geojson":{"type":"point","coordinates":[-122.393229,37.781265]}}
{"category_code":"web","founded_year":2006,"name":"Behance","number_of_employees":30,"offices":[{"longitude":-74.004592,"latitude":40.74406}],"latitude":40.74406,"longitude":-74.004592,"geojson":{"type":"point","coordinates":[-74.004592,40.74406]}}
{"category_code":"games_video","founded_year":2007,"name":"hulu","number_of_employees":153,"offices":[{"longitude":-118.456806,"latitude":34.031276}],"latitude":34.031276,"longitude":-118.456806,"geojson":{"type":"point","coordinates":[-118.456806,34.031276]}}
{"category_code":"web","founded_year":2007,"name":"Mixx","number_of_employees":11,"offices":[{"longitude":-79.420926,"latitude":38.003376}],"latitude":38.003376,"longitude":-79.420926,"geojson":{"type":"point","coordinates":[-79.420926,38.003376]}}
{"category_code":"mobile","founded_year":2010,"name":"GENWI","number_of_employees":25,"offices":[{"longitude":-111.9035,"latitude":33.8171}],"latitude":33.8171,"longitude":-111.9035,"geojson":{"type":"point","coordinates":[-111.9035,33.8171]}}
{"category_code":"web","founded_year":2006,"name":"app2you","number_of_employees":4,"offices":[{"longitude":-117.274609,"latitude":32.847521}],"latitude":32.847521,"longitude":-117.274609,"geojson":{"type":"point","coordinates":[-117.274609,32.847521]}}
{"category_code":"web","founded_year":2006,"name":"YourStreet","number_of_employees":6,"offices":[{"longitude":-122.421341,"latitude":37.793742}],"latitude":37.793742,"longitude":-122.421341,"geojson":{"type":"point","coordinates":[-122.421341,37.793742]}}
{"category_code":"software","founded_year":2006,"name":"Vidoop","number_of_employees":30,"offices":[{"longitude":-122.675448,"latitude":45.5241278}],"latitude":45.5241278,"longitude":-122.675448,"geojson":{"type":"point","coordinates":[-122.675448,45.5241278]}}
{"category_code":"games_video","founded_year":2006,"name":"FlowPlay","number_of_employees":30,"offices":[{"longitude":-122.335943,"latitude":47.6015315}],"latitude":47.6015315,"longitude":-122.335943,"geojson":{"type":"point","coordinates":[-122.335943,47.6015315]}}
{"category_code":"web","founded_year":2006,"name":"IMSafer","number_of_employees":5,"offices":[{"longitude":-95.536,"latitude":30.182107}],"latitude":30.182107,"longitude":-95.536,"geojson":{"type":"point","coordinates":[-95.536,30.182107]}}
{"category_code":"web","founded_year":2007,"name":"Feedjit","number_of_employees":2,"offices":[{"longitude":-122.084356,"latitude":47.585114}],"latitude":47.585114,"longitude":-122.084356,"geojson":{"type":"point","coordinates":[-122.084356,47.585114]}}
{"category_code":"web","founded_year":2006,"name":"Viewpoints","number_of_employees":15,"offices":[{"longitude":-87.63406,"latitude":41.890376}],"latitude":41.890376,"longitude":-87.63406,"geojson":{"type":"point","coordinates":[-87.63406,41.890376]}}
{"category_code":"software","founded_year":2006,"name":"RatePoint","number_of_employees":45,"offices":[{"longitude":-71.238524,"latitude":42.296111}],"latitude":42.296111,"longitude":-71.238524,"geojson":{"type":"point","coordinates":[-71.238524,42.296111]}}
{"category_code":"web","founded_year":2007,"name":"UpDown","number_of_employees":5,"offices":[{"longitude":-71.118487,"latitude":42.375392}],"latitude":42.375392,"longitude":-71.118487,"geojson":{"type":"point","coordinates":[-71.118487,42.375392]}}
{"category_code":"web","founded_year":2006,"name":"GamerDNA","number_of_employees":13,"offices":[{"longitude":-71.118487,"latitude":42.375392}],"latitude":42.375392,"longitude":-71.118487,"geojson":{"type":"point","coordinates":[-71.118487,42.375392]}}
{"category_code":"web","founded_year":2007,"name":"Houseglue","number_of_employees":5,"offices":[{"longitude":-121.983814,"latitude":37.222604}],"latitude":37.222604,"longitude":-121.983814,"geojson":{"type":"point","coordinates":[-121.983814,37.222604]}}
{"category_code":"games_video","founded_year":2006,"name":"Realius","number_of_employees":3,"offices":[{"longitude":-122.26999,"latitude":37.887864}],"latitude":37.887864,"longitude":-122.26999,"geojson":{"type":"point","coordinates":[-122.26999,37.887864]}}
{"category_code":"games_video","founded_year":2006,"name":"Metaplace","number_of_employees":12,"offices":[{"longitude":-117.077311,"latitude":33.020832}],"latitude":33.020832,"longitude":-117.077311,"geojson":{"type":"point","coordinates":[-117.077311,33.020832]}}
{"category_code":"software","founded_year":2006,"name":"BroadClip","number_of_employees":8,"offices":[{"longitude":-121.803572,"latitude":37.661237}],"latitude":37.661237,"longitude":-121.803572,"geojson":{"type":"point","coordinates":[-121.803572,37.661237]}}
{"category_code":"web","founded_year":2013,"name":"Fixya","number_of_employees":30,"offices":[{"longitude":-122.323895,"latitude":37.566879}],"latitude":37.566879,"longitude":-122.323895,"geojson":{"type":"point","coordinates":[-122.323895,37.566879]}}
{"category_code":"web","founded_year":2006,"name":"Syntraxis","number_of_employees":6,"offices":[{"longitude":-96.9403,"latitude":32.860831}],"latitude":32.860831,"longitude":-96.9403,"geojson":{"type":"point","coordinates":[-96.9403,32.860831]}}
{"category_code":"games_video","founded_year":2006,"name":"SuTree","number_of_employees":5,"offices":[{"longitude":34.7595,"latitude":32.0554}],"latitude":32.0554,"longitude":34.7595,"geojson":{"type":"point","coordinates":[34.7595,32.0554]}}
{"category_code":"mobile","founded_year":2006,"name":"Worklight","number_of_employees":30,"offices":[{"longitude":-73.976348,"latitude":40.756799}],"latitude":40.756799,"longitude":-73.976348,"geojson":{"type":"point","coordinates":[-73.976348,40.756799]}}
{"category_code":"web","founded_year":2007,"name":"Dopetracks","number_of_employees":4,"offices":[{"longitude":-118.474261,"latitude":34.210785}],"latitude":34.210785,"longitude":-118.474261,"geojson":{"type":"point","coordinates":[-118.474261,34.210785]}}
{"category_code":"web","founded_year":2007,"name":"SueEasy","number_of_employees":6,"offices":[{"longitude":-122.104099,"latitude":37.401355}],"latitude":37.401355,"longitude":-122.104099,"geojson":{"type":"point","coordinates":[-122.104099,37.401355]}}
{"category_code":"mobile","founded_year":2006,"name":"Fon","number_of_employees":100,"offices":[{"longitude":-3.632687,"latitude":40.530724}],"latitude":40.530724,"longitude":-3.632687,"geojson":{"type":"point","coordinates":[-3.632687,40.530724]}}
{"category_code":"games_video","founded_year":2007,"name":"Mixaloo","number_of_employees":4,"offices":[{"longitude":-73.938638,"latitude":41.705555}],"latitude":41.705555,"longitude":-73.938638,"geojson":{"type":"point","coordinates":[-73.938638,41.705555]}}
{"category_code":"web","founded_year":2007,"name":"RecipeMatcher","number_of_employees":2,"offices":[{"longitude":-117.20717,"latitude":32.856744}],"latitude":32.856744,"longitude":-117.20717,"geojson":{"type":"point","coordinates":[-117.20717,32.856744]}}
{"category_code":"web","founded_year":2007,"name":"Whiskey Media","number_of_employees":12,"offices":[{"longitude":-122.495222,"latitude":37.856331}],"latitude":37.856331,"longitude":-122.495222,"geojson":{"type":"point","coordinates":[-122.495222,37.856331]}}
{"category_code":"games_video","founded_year":2009,"name":"alluc","number_of_employees":7,"offices":[{"longitude":10.023246,"latitude":53.707739}],"latitude":53.707739,"longitude":10.023246,"geojson":{"type":"point","coordinates":[10.023246,53.707739]}}
{"category_code":"web","founded_year":2007,"name":"Polyvore","number_of_employees":73,"offices":[{"longitude":-122.083487,"latitude":37.386175}],"latitude":37.386175,"longitude":-122.083487,"geojson":{"type":"point","coordinates":[-122.083487,37.386175]}}
{"category_code":"games_video","founded_year":2006,"name":"Veodia","number_of_employees":15,"offices":[{"longitude":-122.300246,"latitude":37.553743}],"latitude":37.553743,"longitude":-122.300246,"geojson":{"type":"point","coordinates":[-122.300246,37.553743]}}
{"category_code":"web","founded_year":2006,"name":"Crusher","number_of_employees":3,"offices":[{"longitude":-122.430127,"latitude":37.772542}],"latitude":37.772542,"longitude":-122.430127,"geojson":{"type":"point","coordinates":[-122.430127,37.772542]}}
{"category_code":"web","founded_year":2006,"name":"XLNTads","number_of_employees":6,"offices":[{"longitude":-75.298032,"latitude":40.09665}],"latitude":40.09665,"longitude":-75.298032,"geojson":{"type":"point","coordinates":[-75.298032,40.09665]}}
{"category_code":"web","founded_year":2007,"name":"Floobs","number_of_employees":10,"offices":[{"longitude":24.9279199,"latitude":60.1760995}],"latitude":60.1760995,"longitude":24.9279199,"geojson":{"type":"point","coordinates":[24.9279199,60.1760995]}}
{"category_code":"web","founded_year":2007,"name":"Disqus","number_of_employees":43,"offices":[{"longitude":-122.397672,"latitude":37.786906}],"latitude":37.786906,"longitude":-122.397672,"geojson":{"type":"point","coordinates":[-122.397672,37.786906]}}
{"category_code":"web","founded_year":2006,"name":"SezWho","number_of_employees":9,"offices":[{"longitude":-122.085807,"latitude":37.351894}],"latitude":37.351894,"longitude":-122.085807,"geojson":{"type":"point","coordinates":[-122.085807,37.351894]}}
{"category_code":"games_video","founded_year":2007,"name":"FilmCrave","number_of_employees":3,"offices":[{"longitude":-94.370901,"latitude":38.977092}],"latitude":38.977092,"longitude":-94.370901,"geojson":{"type":"point","coordinates":[-94.370901,38.977092]}}
{"category_code":"games_video","founded_year":2007,"name":"DraftMix","number_of_employees":3,"offices":[{"longitude":-121.956295,"latitude":37.279132}],"latitude":37.279132,"longitude":-121.956295,"geojson":{"type":"point","coordinates":[-121.956295,37.279132]}}
{"category_code":"web","founded_year":2006,"name":"Plazes","number_of_employees":15,"offices":[{"longitude":13.398694,"latitude":52.523402}],"latitude":52.523402,"longitude":13.398694,"geojson":{"type":"point","coordinates":[13.398694,52.523402]}}
{"category_code":"web","founded_year":2007,"name":"StylePath","number_of_employees":4,"offices":[{"longitude":-71.288568,"latitude":42.402378}],"latitude":42.402378,"longitude":-71.288568,"geojson":{"type":"point","coordinates":[-71.288568,42.402378]}}
{"category_code":"games_video","founded_year":2007,"name":"GotCast","number_of_employees":5,"offices":[{"longitude":-118.468672,"latitude":34.064139}],"latitude":34.064139,"longitude":-118.468672,"geojson":{"type":"point","coordinates":[-118.468672,34.064139]}}
{"category_code":"web","founded_year":2006,"name":"Yedda","number_of_employees":5,"offices":[{"longitude":34.7595,"latitude":32.0554}],"latitude":32.0554,"longitude":34.7595,"geojson":{"type":"point","coordinates":[34.7595,32.0554]}}
{"category_code":"web","founded_year":2007,"name":"RepairPal","number_of_employees":25,"offices":[{"longitude":-122.296411,"latitude":37.838225}],"latitude":37.838225,"longitude":-122.296411,"geojson":{"type":"point","coordinates":[-122.296411,37.838225]}}
{"category_code":"web","founded_year":2007,"name":"Dipity","number_of_employees":4,"offices":[{"longitude":-122.394958,"latitude":37.781262}],"latitude":37.781262,"longitude":-122.394958,"geojson":{"type":"point","coordinates":[-122.394958,37.781262]}}
{"category_code":"software","founded_year":2006,"name":"Jackson Fish Market","number_of_employees":3,"offices":[{"longitude":-122.3355636,"latitude":47.6018824}],"latitude":47.6018824,"longitude":-122.3355636,"geojson":{"type":"point","coordinates":[-122.3355636,47.6018824]}}
{"category_code":"web","founded_year":2006,"name":"RealSelf","number_of_employees":23,"offices":[{"longitude":-122.347533,"latitude":47.620716}],"latitude":47.620716,"longitude":-122.347533,"geojson":{"type":"point","coordinates":[-122.347533,47.620716]}}
{"category_code":"software","founded_year":2007,"name":"littleye","number_of_employees":3,"offices":[{"longitude":-118.455798,"latitude":33.971132}],"latitude":33.971132,"longitude":-118.455798,"geojson":{"type":"point","coordinates":[-118.455798,33.971132]}}
{"category_code":"web","founded_year":2007,"name":"GameLayers","number_of_employees":5,"offices":[{"longitude":-122.402468,"latitude":37.803847}],"latitude":37.803847,"longitude":-122.402468,"geojson":{"type":"point","coordinates":[-122.402468,37.803847]}}
{"category_code":"mobile","founded_year":2006,"name":"Mogreet","number_of_employees":30,"offices":[{"longitude":-118.472297,"latitude":33.999004}],"latitude":33.999004,"longitude":-118.472297,"geojson":{"type":"point","coordinates":[-118.472297,33.999004]}}
{"category_code":"web","founded_year":2007,"name":"WEbook","number_of_employees":10,"offices":[{"longitude":-77.095965,"latitude":38.984172}],"latitude":38.984172,"longitude":-77.095965,"geojson":{"type":"point","coordinates":[-77.095965,38.984172]}}
{"category_code":"web","founded_year":2007,"name":"Skribit","number_of_employees":3,"offices":[{"longitude":-84.3927,"latitude":33.7759}],"latitude":33.7759,"longitude":-84.3927,"geojson":{"type":"point","coordinates":[-84.3927,33.7759]}}
{"category_code":"web","founded_year":2006,"name":"AddLiveVoice","number_of_employees":5,"offices":[{"longitude":-79.435661,"latitude":43.744031}],"latitude":43.744031,"longitude":-79.435661,"geojson":{"type":"point","coordinates":[-79.435661,43.744031]}}
{"category_code":"web","founded_year":2006,"name":"Doodlekit","number_of_employees":2,"offices":[{"longitude":-94.4284985,"latitude":38.9143473}],"latitude":38.9143473,"longitude":-94.4284985,"geojson":{"type":"point","coordinates":[-94.4284985,38.9143473]}}
{"category_code":"music","founded_year":2006,"name":"Deezer","number_of_employees":200,"offices":[{"longitude":2.3283853,"latitude":48.8780596}],"latitude":48.8780596,"longitude":2.3283853,"geojson":{"type":"point","coordinates":[2.3283853,48.8780596]}}
{"category_code":"web","founded_year":2007,"name":"MyNeighborhood","number_of_employees":3,"offices":[{"longitude":9.993586,"latitude":53.540804}],"latitude":53.540804,"longitude":9.993586,"geojson":{"type":"point","coordinates":[9.993586,53.540804]}}
{"category_code":"web","founded_year":2007,"name":"divorce360","number_of_employees":6,"offices":[{"longitude":-80.058401,"latitude":26.820375}],"latitude":26.820375,"longitude":-80.058401,"geojson":{"type":"point","coordinates":[-80.058401,26.820375]}}
{"category_code":"software","founded_year":2006,"name":"HubSpot","number_of_employees":650,"offices":[{"longitude":-71.118487,"latitude":42.375392}],"latitude":42.375392,"longitude":-71.118487,"geojson":{"type":"point","coordinates":[-71.118487,42.375392]}}
{"category_code":"mobile","founded_year":2007,"name":"Utterz","number_of_employees":3,"offices":[{"longitude":-71.483077,"latitude":42.431555}],"latitude":42.431555,"longitude":-71.483077,"geojson":{"type":"point","coordinates":[-71.483077,42.431555]}}
{"category_code":"web","founded_year":2006,"name":"CrossLoop","number_of_employees":8,"offices":[{"longitude":-121.898539,"latitude":36.611645}],"latitude":36.611645,"longitude":-121.898539,"geojson":{"type":"point","coordinates":[-121.898539,36.611645]}}
{"category_code":"web","founded_year":2007,"name":"eventsbot","number_of_employees":10,"offices":[{"longitude":-74.453466,"latitude":40.532457}],"latitude":40.532457,"longitude":-74.453466,"geojson":{"type":"point","coordinates":[-74.453466,40.532457]}}
{"category_code":"web","founded_year":2006,"name":"HubPages","number_of_employees":21,"offices":[{"longitude":-122.3991505,"latitude":37.7876952}],"latitude":37.7876952,"longitude":-122.3991505,"geojson":{"type":"point","coordinates":[-122.3991505,37.7876952]}}
{"category_code":"web","founded_year":2007,"name":"GoLark","number_of_employees":3,"offices":[{"longitude":-73.996122,"latitude":40.7508}],"latitude":40.7508,"longitude":-73.996122,"geojson":{"type":"point","coordinates":[-73.996122,40.7508]}}
{"category_code":"mobile","founded_year":2006,"name":"Qik","number_of_employees":60,"offices":[{"longitude":-122.230116,"latitude":37.486368}],"latitude":37.486368,"longitude":-122.230116,"geojson":{"type":"point","coordinates":[-122.230116,37.486368]}}
{"category_code":"mobile","founded_year":2007,"name":"Flixwagon","number_of_employees":10,"offices":[{"longitude":34.7595,"latitude":32.0554}],"latitude":32.0554,"longitude":34.7595,"geojson":{"type":"point","coordinates":[34.7595,32.0554]}}
{"category_code":"games_video","founded_year":2007,"name":"Picktastic","number_of_employees":2,"offices":[{"longitude":-122.120938,"latitude":47.680496}],"latitude":47.680496,"longitude":-122.120938,"geojson":{"type":"point","coordinates":[-122.120938,47.680496]}}
{"category_code":"software","founded_year":2006,"name":"RipCode","number_of_employees":39,"offices":[{"longitude":-96.70737,"latitude":32.959908},{"longitude":-97.748795,"latitude":30.402252}],"latitude":32.959908,"longitude":-96.70737,"geojson":{"type":"point","coordinates":[-96.70737,32.959908]}}
{"category_code":"games_video","founded_year":2007,"name":"LiveHire","number_of_employees":5,"offices":[{"longitude":-74.331811,"latitude":40.565602}],"latitude":40.565602,"longitude":-74.331811,"geojson":{"type":"point","coordinates":[-74.331811,40.565602]}}
{"category_code":"web","founded_year":2007,"name":"TravelMuse","number_of_employees":11,"offices":[{"longitude":-122.117418,"latitude":37.402802}],"latitude":37.402802,"longitude":-122.117418,"geojson":{"type":"point","coordinates":[-122.117418,37.402802]}}
{"category_code":"software","founded_year":2006,"name":"4Home","number_of_employees":36,"offices":[{"longitude":-121.991912,"latitude":37.385225}],"latitude":37.385225,"longitude":-121.991912,"geojson":{"type":"point","coordinates":[-121.991912,37.385225]}}
{"category_code":"web","founded_year":2007,"name":"Frevvo","number_of_employees":10,"offices":[{"longitude":-95.712891,"latitude":37.09024}],"latitude":37.09024,"longitude":-95.712891,"geojson":{"type":"point","coordinates":[-95.712891,37.09024]}}
{"category_code":"web","founded_year":2007,"name":"Boobik","number_of_employees":3,"offices":[{"longitude":-95.712891,"latitude":37.09024}],"latitude":37.09024,"longitude":-95.712891,"geojson":{"type":"point","coordinates":[-95.712891,37.09024]}}
{"category_code":"games_video","founded_year":2006,"name":"Scrabulous","number_of_employees":30,"offices":[{"longitude":88.363895,"latitude":22.572646}],"latitude":22.572646,"longitude":88.363895,"geojson":{"type":"point","coordinates":[88.363895,22.572646]}}
{"category_code":"software","founded_year":2007,"name":"Roost","number_of_employees":15,"offices":[{"longitude":-122.4020276,"latitude":37.7891288}],"latitude":37.7891288,"longitude":-122.4020276,"geojson":{"type":"point","coordinates":[-122.4020276,37.7891288]}}
{"category_code":"games_video","founded_year":2006,"name":"WorldTV","number_of_employees":5,"offices":[{"longitude":-8.6267726,"latitude":52.6638571},{"longitude":-0.1262362,"latitude":51.5001524}],"latitude":52.6638571,"longitude":-8.6267726,"geojson":{"type":"point","coordinates":[-8.6267726,52.6638571]}}
{"category_code":"games_video","founded_year":2008,"name":"WonderHowTo","number_of_employees":12,"offices":[{"longitude":-118.461884,"latitude":34.031764}],"latitude":34.031764,"longitude":-118.461884,"geojson":{"type":"point","coordinates":[-118.461884,34.031764]}}
{"category_code":"web","founded_year":2007,"name":"clipsync","number_of_employees":28,"offices":[{"longitude":-121.9317853,"latitude":37.2906027}],"latitude":37.2906027,"longitude":-121.9317853,"geojson":{"type":"point","coordinates":[-121.9317853,37.2906027]}}
{"category_code":"web","founded_year":2007,"name":"Lookery","number_of_employees":9,"offices":[{"longitude":-122.403865,"latitude":37.788266},{"longitude":-71.130297,"latitude":42.398424}],"latitude":37.788266,"longitude":-122.403865,"geojson":{"type":"point","coordinates":[-122.403865,37.788266]}}
{"category_code":"web","founded_year":2006,"name":"XLR8 Mobile","number_of_employees":21,"offices":[{"longitude":-122.38944,"latitude":37.788827}],"latitude":37.788827,"longitude":-122.38944,"geojson":{"type":"point","coordinates":[-122.38944,37.788827]}}
{"category_code":"web","founded_year":2007,"name":"Mill River Labs","number_of_employees":5,"offices":[{"longitude":-122.079114,"latitude":37.392962}],"latitude":37.392962,"longitude":-122.079114,"geojson":{"type":"point","coordinates":[-122.079114,37.392962]}}
{"category_code":"web","founded_year":2007,"name":"Sharetivity","number_of_employees":10,"offices":[{"longitude":-122.315396,"latitude":37.550954}],"latitude":37.550954,"longitude":-122.315396,"geojson":{"type":"point","coordinates":[-122.315396,37.550954]}}
{"category_code":"web","founded_year":2008,"name":"First30Days","number_of_employees":17,"offices":[{"longitude":-85.717393,"latitude":38.257035}],"latitude":38.257035,"longitude":-85.717393,"geojson":{"type":"point","coordinates":[-85.717393,38.257035]}}
{"category_code":"web","founded_year":2007,"name":"LimeAll","number_of_employees":2,"offices":[{"longitude":-71.44698,"latitude":42.710437}],"latitude":42.710437,"longitude":-71.44698,"geojson":{"type":"point","coordinates":[-71.44698,42.710437]}}
{"category_code":"web","founded_year":2007,"name":"Web2Wave","number_of_employees":3,"offices":[{"longitude":1.434685,"latitude":43.604071}],"latitude":43.604071,"longitude":1.434685,"geojson":{"type":"point","coordinates":[1.434685,43.604071]}}
{"category_code":"web","founded_year":2006,"name":"VisualCV","number_of_employees":5,"offices":[{"longitude":-77.3479238,"latitude":38.9530391}],"latitude":38.9530391,"longitude":-77.3479238,"geojson":{"type":"point","coordinates":[-77.3479238,38.9530391]}}
{"category_code":"web","founded_year":2007,"name":"FutonMedia","number_of_employees":2,"offices":[{"longitude":-157.837351,"latitude":21.338849}],"latitude":21.338849,"longitude":-157.837351,"geojson":{"type":"point","coordinates":[-157.837351,21.338849]}}
{"category_code":"web","founded_year":2008,"name":"PokerPlayersSocialNetwork","number_of_employees":3,"offices":[{"longitude":-122.187925,"latitude":47.704875}],"latitude":47.704875,"longitude":-122.187925,"geojson":{"type":"point","coordinates":[-122.187925,47.704875]}}
{"category_code":"web","founded_year":2007,"name":"myfirstpaycheck","number_of_employees":4,"offices":[{"longitude":-75.162644,"latitude":39.952229}],"latitude":39.952229,"longitude":-75.162644,"geojson":{"type":"point","coordinates":[-75.162644,39.952229]}}
{"category_code":"web","founded_year":2006,"name":"memelabs","number_of_employees":10,"offices":[{"longitude":-123.095238,"latitude":49.285173}],"latitude":49.285173,"longitude":-123.095238,"geojson":{"type":"point","coordinates":[-123.095238,49.285173]}}
{"category_code":"web","founded_year":2006,"name":"PopShops","number_of_employees":3,"offices":[{"longitude":-122.3308,"latitude":47.6064}],"latitude":47.6064,"longitude":-122.3308,"geojson":{"type":"point","coordinates":[-122.3308,47.6064]}}
{"category_code":"web","founded_year":2007,"name":"MetaNotes","number_of_employees":4,"offices":[{"longitude":-118.289065,"latitude":34.128046}],"latitude":34.128046,"longitude":-118.289065,"geojson":{"type":"point","coordinates":[-118.289065,34.128046]}}
{"category_code":"web","founded_year":2008,"name":"thatsmymouse","number_of_employees":3,"offices":[{"longitude":151.039775,"latitude":-34.054416}],"latitude":-34.054416,"longitude":151.039775,"geojson":{"type":"point","coordinates":[151.039775,-34.054416]}}
{"category_code":"web","founded_year":2007,"name":"TripnTale","number_of_employees":3,"offices":[{"longitude":-122.278487,"latitude":37.773545}],"latitude":37.773545,"longitude":-122.278487,"geojson":{"type":"point","coordinates":[-122.278487,37.773545]}}
{"category_code":"web","founded_year":2007,"name":"Mergelab","number_of_employees":3,"offices":[{"longitude":-122.334393,"latitude":47.599136}],"latitude":47.599136,"longitude":-122.334393,"geojson":{"type":"point","coordinates":[-122.334393,47.599136]}}
{"category_code":"web","founded_year":2006,"name":"TalentSpring","number_of_employees":9,"offices":[{"longitude":-122.120938,"latitude":47.680496}],"latitude":47.680496,"longitude":-122.120938,"geojson":{"type":"point","coordinates":[-122.120938,47.680496]}}
{"category_code":"web","founded_year":2007,"name":"Metromole","number_of_employees":3,"offices":[{"longitude":-74.007413,"latitude":40.707253}],"latitude":40.707253,"longitude":-74.007413,"geojson":{"type":"point","coordinates":[-74.007413,40.707253]}}
{"category_code":"games_video","founded_year":2008,"name":"Triptuber","number_of_employees":2,"offices":[{"longitude":51.5082,"latitude":25.2948}],"latitude":25.2948,"longitude":51.5082,"geojson":{"type":"point","coordinates":[51.5082,25.2948]}}
{"category_code":"web","founded_year":2006,"name":"China-8","number_of_employees":5,"offices":[{"longitude":113.997909,"latitude":22.266141}],"latitude":22.266141,"longitude":113.997909,"geojson":{"type":"point","coordinates":[113.997909,22.266141]}}
{"category_code":"web","founded_year":2008,"name":"Unknown Vector","number_of_employees":7,"offices":[{"longitude":-122.404488,"latitude":37.790032}],"latitude":37.790032,"longitude":-122.404488,"geojson":{"type":"point","coordinates":[-122.404488,37.790032]}}
{"category_code":"web","founded_year":2006,"name":"Jet Numbers","number_of_employees":5,"offices":[{"longitude":-74.411658,"latitude":40.407946}],"latitude":40.407946,"longitude":-74.411658,"geojson":{"type":"point","coordinates":[-74.411658,40.407946]}}
{"category_code":"web","founded_year":2006,"name":"PlanJam","number_of_employees":3,"offices":[{"longitude":-118.425401,"latitude":34.059721}],"latitude":34.059721,"longitude":-118.425401,"geojson":{"type":"point","coordinates":[-118.425401,34.059721]}}
{"category_code":"software","founded_year":2006,"name":"Vuzit","number_of_employees":6,"offices":[{"longitude":-75.1961715,"latitude":39.9564403}],"latitude":39.9564403,"longitude":-75.1961715,"geojson":{"type":"point","coordinates":[-75.1961715,39.9564403]}}
{"category_code":"web","founded_year":2006,"name":"Mixbook","number_of_employees":90,"offices":[{"longitude":-121.918319,"latitude":37.383844}],"latitude":37.383844,"longitude":-121.918319,"geojson":{"type":"point","coordinates":[-121.918319,37.383844]}}
{"category_code":"web","founded_year":2007,"name":"Kazowie","number_of_employees":6,"offices":[{"longitude":-122.395792,"latitude":37.776467}],"latitude":37.776467,"longitude":-122.395792,"geojson":{"type":"point","coordinates":[-122.395792,37.776467]}}
{"category_code":"web","founded_year":2007,"name":"Otrib","number_of_employees":2,"offices":[{"longitude":-71.434135,"latitude":42.445825}],"latitude":42.445825,"longitude":-71.434135,"geojson":{"type":"point","coordinates":[-71.434135,42.445825]}}
{"category_code":"web","founded_year":2006,"name":"LUNARR","number_of_employees":11,"offices":[{"longitude":-122.773646,"latitude":45.446475}],"latitude":45.446475,"longitude":-122.773646,"geojson":{"type":"point","coordinates":[-122.773646,45.446475]}}
{"category_code":"software","founded_year":2006,"name":"HeadStrong Brain Gym","number_of_employees":5,"offices":[{"longitude":-73.968173,"latitude":40.75033}],"latitude":40.75033,"longitude":-73.968173,"geojson":{"type":"point","coordinates":[-73.968173,40.75033]}}
{"category_code":"web","founded_year":2007,"name":"What They Like","number_of_employees":10,"offices":[{"longitude":-122.3921102,"latitude":37.7776778}],"latitude":37.7776778,"longitude":-122.3921102,"geojson":{"type":"point","coordinates":[-122.3921102,37.7776778]}}
{"category_code":"games_video","founded_year":2007,"name":"JukeFly","number_of_employees":2,"offices":[{"longitude":-121.9053,"latitude":37.244187}],"latitude":37.244187,"longitude":-121.9053,"geojson":{"type":"point","coordinates":[-121.9053,37.244187]}}
{"category_code":"web","founded_year":2007,"name":"LittleEngine","number_of_employees":5,"offices":[{"longitude":-121.234636,"latitude":38.744194}],"latitude":38.744194,"longitude":-121.234636,"geojson":{"type":"point","coordinates":[-121.234636,38.744194]}}
{"category_code":"software","founded_year":2006,"name":"Movaya","number_of_employees":20,"offices":[{"longitude":-122.300863,"latitude":47.66274}],"latitude":47.66274,"longitude":-122.300863,"geojson":{"type":"point","coordinates":[-122.300863,47.66274]}}
{"category_code":"web","founded_year":2007,"name":"Cellware","number_of_employees":25,"offices":[{"longitude":-80.064158,"latitude":26.524058}],"latitude":26.524058,"longitude":-80.064158,"geojson":{"type":"point","coordinates":[-80.064158,26.524058]}}
{"category_code":"mobile","founded_year":2008,"name":"Jirbo","number_of_employees":23,"offices":[{"longitude":-118.469316,"latitude":34.064629}],"latitude":34.064629,"longitude":-118.469316,"geojson":{"type":"point","coordinates":[-118.469316,34.064629]}}
{"category_code":"web","founded_year":2007,"name":"LyfeSystems","number_of_employees":9,"offices":[{"longitude":-122.3419,"latitude":47.634444}],"latitude":47.634444,"longitude":-122.3419,"geojson":{"type":"point","coordinates":[-122.3419,47.634444]}}
{"category_code":"web","founded_year":2007,"name":"Kaddoz","number_of_employees":4,"offices":[{"longitude":-122.267654,"latitude":37.494965}],"latitude":37.494965,"longitude":-122.267654,"geojson":{"type":"point","coordinates":[-122.267654,37.494965]}}
{"category_code":"web","founded_year":2008,"name":"Poodz","number_of_employees":5,"offices":[{"longitude":3.165225,"latitude":50.694712}],"latitude":50.694712,"longitude":3.165225,"geojson":{"type":"point","coordinates":[3.165225,50.694712]}}
{"category_code":"web","founded_year":2007,"name":"Bragster","number_of_employees":10,"offices":[{"longitude":-0.0766034,"latitude":51.5220072}],"latitude":51.5220072,"longitude":-0.0766034,"geojson":{"type":"point","coordinates":[-0.0766034,51.5220072]}}
{"category_code":"web","founded_year":2006,"name":"amiando","number_of_employees":76,"offices":[{"longitude":11.556452,"latitude":48.124827},{"longitude":-0.0836311,"latitude":51.5248598},{"longitude":114.1587983,"latitude":22.2799907},{"longitude":2.381153,"latitude":48.857993}],"latitude":48.124827,"longitude":11.556452,"geojson":{"type":"point","coordinates":[11.556452,48.124827]}}
{"category_code":"web","founded_year":2006,"name":"openPeople","number_of_employees":5,"offices":[{"longitude":9.7580413,"latitude":52.3653872}],"latitude":52.3653872,"longitude":9.7580413,"geojson":{"type":"point","coordinates":[9.7580413,52.3653872]}}
{"category_code":"web","founded_year":2006,"name":"GroundReport","number_of_employees":6,"offices":[{"longitude":-73.998208,"latitude":40.725568}],"latitude":40.725568,"longitude":-73.998208,"geojson":{"type":"point","coordinates":[-73.998208,40.725568]}}
{"category_code":"web","founded_year":2007,"name":"2 under entertainment","number_of_employees":4,"offices":[{"longitude":-83.042051,"latitude":39.976837}],"latitude":39.976837,"longitude":-83.042051,"geojson":{"type":"point","coordinates":[-83.042051,39.976837]}}
{"category_code":"web","founded_year":2006,"name":"Shelfari","number_of_employees":11,"offices":[{"longitude":-122.347533,"latitude":47.620716}],"latitude":47.620716,"longitude":-122.347533,"geojson":{"type":"point","coordinates":[-122.347533,47.620716]}}
{"category_code":"web","founded_year":2006,"name":"QponDirect","number_of_employees":10,"offices":[{"longitude":-79.996384,"latitude":40.442796}],"latitude":40.442796,"longitude":-79.996384,"geojson":{"type":"point","coordinates":[-79.996384,40.442796]}}
{"category_code":"web","founded_year":2007,"name":"Fat Goose","number_of_employees":2,"offices":[{"longitude":-122.4033943,"latitude":37.7876175}],"latitude":37.7876175,"longitude":-122.4033943,"geojson":{"type":"point","coordinates":[-122.4033943,37.7876175]}}
{"category_code":"web","founded_year":2007,"name":"octabox","number_of_employees":3,"offices":[{"longitude":34.7595,"latitude":32.0554}],"latitude":32.0554,"longitude":34.7595,"geojson":{"type":"point","coordinates":[34.7595,32.0554]}}
{"category_code":"web","founded_year":2007,"name":"PerfSpot","number_of_employees":50,"offices":[{"longitude":-111.9261618,"latitude":33.5060338}],"latitude":33.5060338,"longitude":-111.9261618,"geojson":{"type":"point","coordinates":[-111.9261618,33.5060338]}}
{"category_code":"web","founded_year":2007,"name":"Yulop","number_of_employees":8,"offices":[{"longitude":139.605025,"latitude":35.929723}],"latitude":35.929723,"longitude":139.605025,"geojson":{"type":"point","coordinates":[139.605025,35.929723]}}
{"category_code":"games_video","founded_year":2011,"name":"Social Gaming Network","number_of_employees":100,"offices":[{"longitude":-122.161523,"latitude":37.446823},{"longitude":-118.4054182,"latitude":34.0698494}],"latitude":37.446823,"longitude":-122.161523,"geojson":{"type":"point","coordinates":[-122.161523,37.446823]}}
{"category_code":"mobile","founded_year":2006,"name":"Foneshow","number_of_employees":8,"offices":[{"longitude":-70.253959,"latitude":43.657058}],"latitude":43.657058,"longitude":-70.253959,"geojson":{"type":"point","coordinates":[-70.253959,43.657058]}}
{"category_code":"software","founded_year":2007,"name":"Compulsivo","number_of_employees":2,"offices":[{"longitude":-97.746387,"latitude":30.27646}],"latitude":30.27646,"longitude":-97.746387,"geojson":{"type":"point","coordinates":[-97.746387,30.27646]}}
{"category_code":"mobile","founded_year":2007,"name":"Avot Media","number_of_employees":20,"offices":[{"longitude":-121.999306,"latitude":37.371861}],"latitude":37.371861,"longitude":-121.999306,"geojson":{"type":"point","coordinates":[-121.999306,37.371861]}}
{"category_code":"web","founded_year":2007,"name":"Pollsit","number_of_employees":3,"offices":[{"longitude":-96.666242,"latitude":40.748578}],"latitude":40.748578,"longitude":-96.666242,"geojson":{"type":"point","coordinates":[-96.666242,40.748578]}}
{"category_code":"web","founded_year":2007,"name":"Tipped","number_of_employees":2,"offices":[{"longitude":-0.0778345,"latitude":51.5211159}],"latitude":51.5211159,"longitude":-0.0778345,"geojson":{"type":"point","coordinates":[-0.0778345,51.5211159]}}
{"category_code":"web","founded_year":2008,"name":"Newspond","number_of_employees":2,"offices":[{"longitude":-113.5291728,"latitude":53.4665377}],"latitude":53.4665377,"longitude":-113.5291728,"geojson":{"type":"point","coordinates":[-113.5291728,53.4665377]}}
{"category_code":"games_video","founded_year":2007,"name":"YouCastr","number_of_employees":5,"offices":[{"longitude":-71.078258,"latitude":42.36787}],"latitude":42.36787,"longitude":-71.078258,"geojson":{"type":"point","coordinates":[-71.078258,42.36787]}}
{"category_code":"games_video","founded_year":2006,"name":"RiffTrax","number_of_employees":8,"offices":[{"longitude":-117.240431,"latitude":32.936973}],"latitude":32.936973,"longitude":-117.240431,"geojson":{"type":"point","coordinates":[-117.240431,32.936973]}}
{"category_code":"web","founded_year":2006,"name":"Grooveshark","number_of_employees":113,"offices":[{"longitude":-82.3230981,"latitude":29.6502461}],"latitude":29.6502461,"longitude":-82.3230981,"geojson":{"type":"point","coordinates":[-82.3230981,29.6502461]}}
{"category_code":"games_video","founded_year":2007,"name":"HD Greetings","number_of_employees":5,"offices":[{"longitude":-122.347654,"latitude":37.590056}],"latitude":37.590056,"longitude":-122.347654,"geojson":{"type":"point","coordinates":[-122.347654,37.590056]}}
{"category_code":"games_video","founded_year":2007,"name":"Redux","number_of_employees":11,"offices":[{"longitude":-122.269494,"latitude":37.87168}],"latitude":37.87168,"longitude":-122.269494,"geojson":{"type":"point","coordinates":[-122.269494,37.87168]}}
{"category_code":"web","founded_year":2007,"name":"8coupons","number_of_employees":4,"offices":[{"longitude":-73.9934288,"latitude":40.7431477}],"latitude":40.7431477,"longitude":-73.9934288,"geojson":{"type":"point","coordinates":[-73.9934288,40.7431477]}}
{"category_code":"games_video","founded_year":2008,"name":"CineGoGo","number_of_employees":2,"offices":[{"longitude":-122.294847,"latitude":37.534317}],"latitude":37.534317,"longitude":-122.294847,"geojson":{"type":"point","coordinates":[-122.294847,37.534317]}}
{"category_code":"games_video","founded_year":2007,"name":"Camlink","number_of_employees":4,"offices":[{"longitude":-73.985506,"latitude":40.757929}],"latitude":40.757929,"longitude":-73.985506,"geojson":{"type":"point","coordinates":[-73.985506,40.757929]}}
{"category_code":"web","founded_year":2007,"name":"TripSailor","number_of_employees":2,"offices":[{"longitude":-115.217851,"latitude":36.225757}],"latitude":36.225757,"longitude":-115.217851,"geojson":{"type":"point","coordinates":[-115.217851,36.225757]}}
{"category_code":"web","founded_year":2006,"name":"Top of the Barrel","number_of_employees":7,"offices":[{"longitude":-97.807032,"latitude":30.414146}],"latitude":30.414146,"longitude":-97.807032,"geojson":{"type":"point","coordinates":[-97.807032,30.414146]}}
{"category_code":"web","founded_year":2008,"name":"Scred","number_of_employees":3,"offices":[{"longitude":24.704663,"latitude":60.214102}],"latitude":60.214102,"longitude":24.704663,"geojson":{"type":"point","coordinates":[24.704663,60.214102]}}
{"category_code":"web","founded_year":2007,"name":"Popularo","number_of_employees":2,"offices":[{"longitude":-75.163808,"latitude":39.951639}],"latitude":39.951639,"longitude":-75.163808,"geojson":{"type":"point","coordinates":[-75.163808,39.951639]}}
{"category_code":"web","founded_year":2006,"name":"The Industry Standard","number_of_employees":4,"offices":[{"longitude":-122.393323,"latitude":37.783151}],"latitude":37.783151,"longitude":-122.393323,"geojson":{"type":"point","coordinates":[-122.393323,37.783151]}}
{"category_code":"web","founded_year":2006,"name":"PhotoCrank","number_of_employees":3,"offices":[{"longitude":-122.160671,"latitude":37.445326}],"latitude":37.445326,"longitude":-122.160671,"geojson":{"type":"point","coordinates":[-122.160671,37.445326]}}
{"category_code":"web","founded_year":2006,"name":"Zilpy","number_of_employees":3,"offices":[{"longitude":-122.075413,"latitude":37.419156}],"latitude":37.419156,"longitude":-122.075413,"geojson":{"type":"point","coordinates":[-122.075413,37.419156]}}
{"category_code":"web","founded_year":2006,"name":"OLX","number_of_employees":85,"offices":[{"longitude":-73.7258199,"latitude":40.8587524}],"latitude":40.8587524,"longitude":-73.7258199,"geojson":{"type":"point","coordinates":[-73.7258199,40.8587524]}}
{"category_code":"web","founded_year":2006,"name":"Fifteen Reasons","number_of_employees":6,"offices":[{"longitude":-87.646307,"latitude":41.948365}],"latitude":41.948365,"longitude":-87.646307,"geojson":{"type":"point","coordinates":[-87.646307,41.948365]}}
{"category_code":"games_video","founded_year":2007,"name":"I Heart Movies","number_of_employees":2,"offices":[{"longitude":-84.227415,"latitude":43.626128}],"latitude":43.626128,"longitude":-84.227415,"geojson":{"type":"point","coordinates":[-84.227415,43.626128]}}
{"category_code":"mobile","founded_year":2006,"name":"Qiro","number_of_employees":15,"offices":[{"longitude":13.441005,"latitude":52.502633}],"latitude":52.502633,"longitude":13.441005,"geojson":{"type":"point","coordinates":[13.441005,52.502633]}}
{"category_code":"software","founded_year":2007,"name":"Boomerang Data","number_of_employees":8,"offices":[{"longitude":-96.714066,"latitude":32.974194}],"latitude":32.974194,"longitude":-96.714066,"geojson":{"type":"point","coordinates":[-96.714066,32.974194]}}
{"category_code":"web","founded_year":2007,"name":"IT'S ART","number_of_employees":3,"offices":[{"longitude":-0.474933,"latitude":46.330771}],"latitude":46.330771,"longitude":-0.474933,"geojson":{"type":"point","coordinates":[-0.474933,46.330771]}}
{"category_code":"web","founded_year":2008,"name":"ZapNat","number_of_employees":2,"offices":[{"longitude":-71.683502,"latitude":42.037302}],"latitude":42.037302,"longitude":-71.683502,"geojson":{"type":"point","coordinates":[-71.683502,42.037302]}}
{"category_code":"web","founded_year":2006,"name":"Fanpop","number_of_employees":4,"offices":[{"longitude":-122.439512,"latitude":37.758229}],"latitude":37.758229,"longitude":-122.439512,"geojson":{"type":"point","coordinates":[-122.439512,37.758229]}}
{"category_code":"mobile","founded_year":2007,"name":"RingBranch","number_of_employees":4,"offices":[{"longitude":-84.387491,"latitude":33.859484}],"latitude":33.859484,"longitude":-84.387491,"geojson":{"type":"point","coordinates":[-84.387491,33.859484]}}
{"category_code":"games_video","founded_year":2006,"name":"WebRidesTV","number_of_employees":10,"offices":[{"longitude":-118.380437,"latitude":34.024453}],"latitude":34.024453,"longitude":-118.380437,"geojson":{"type":"point","coordinates":[-118.380437,34.024453]}}
{"category_code":"web","founded_year":2006,"name":"Rutube","number_of_employees":80,"offices":[{"longitude":36.42735,"latitude":52.78945}],"latitude":52.78945,"longitude":36.42735,"geojson":{"type":"point","coordinates":[36.42735,52.78945]}}
{"category_code":"web","founded_year":2006,"name":"Footnote","number_of_employees":66,"offices":[{"longitude":-111.7276347,"latitude":40.3310529}],"latitude":40.3310529,"longitude":-111.7276347,"geojson":{"type":"point","coordinates":[-111.7276347,40.3310529]}}
{"category_code":"games_video","founded_year":2006,"name":"Akoha","number_of_employees":12,"offices":[{"longitude":-73.578477,"latitude":45.516545}],"latitude":45.516545,"longitude":-73.578477,"geojson":{"type":"point","coordinates":[-73.578477,45.516545]}}
{"category_code":"software","founded_year":2007,"name":"doXtop","number_of_employees":5,"offices":[{"longitude":9.2223731,"latitude":48.7243517}],"latitude":48.7243517,"longitude":9.2223731,"geojson":{"type":"point","coordinates":[9.2223731,48.7243517]}}
{"category_code":"games_video","founded_year":2007,"name":"Taltopia","number_of_employees":3,"offices":[{"longitude":-118.243425,"latitude":34.052187}],"latitude":34.052187,"longitude":-118.243425,"geojson":{"type":"point","coordinates":[-118.243425,34.052187]}}
{"category_code":"web","founded_year":2006,"name":"Tripology","number_of_employees":9,"offices":[{"longitude":-73.983969,"latitude":40.746883}],"latitude":40.746883,"longitude":-73.983969,"geojson":{"type":"point","coordinates":[-73.983969,40.746883]}}
{"category_code":"web","founded_year":2007,"name":"Thrive","number_of_employees":15,"offices":[{"longitude":-74.00118,"latitude":40.718871}],"latitude":40.718871,"longitude":-74.00118,"geojson":{"type":"point","coordinates":[-74.00118,40.718871]}}
{"category_code":"games_video","founded_year":2007,"name":"ScanDigital","number_of_employees":17,"offices":[{"longitude":-118.41747,"latitude":33.918151}],"latitude":33.918151,"longitude":-118.41747,"geojson":{"type":"point","coordinates":[-118.41747,33.918151]}}
{"category_code":"web","founded_year":2007,"name":"JigJak","number_of_employees":3,"offices":[{"longitude":-96.592839,"latitude":32.963205}],"latitude":32.963205,"longitude":-96.592839,"geojson":{"type":"point","coordinates":[-96.592839,32.963205]}}
{"category_code":"web","founded_year":2008,"name":"CityIN","number_of_employees":11,"offices":[{"longitude":104.195397,"latitude":35.86166}],"latitude":35.86166,"longitude":104.195397,"geojson":{"type":"point","coordinates":[104.195397,35.86166]}}
{"category_code":"software","founded_year":2006,"name":"Litmos","number_of_employees":3,"offices":[{"longitude":174.794107,"latitude":-36.831639}],"latitude":-36.831639,"longitude":174.794107,"geojson":{"type":"point","coordinates":[174.794107,-36.831639]}}
{"category_code":"games_video","founded_year":2007,"name":"ScribeStorm","number_of_employees":12,"offices":[{"longitude":-91.962789,"latitude":41.007625}],"latitude":41.007625,"longitude":-91.962789,"geojson":{"type":"point","coordinates":[-91.962789,41.007625]}}
{"category_code":"web","founded_year":2006,"name":"JacketFlap","number_of_employees":2,"offices":[{"longitude":-118.443517,"latitude":34.126815}],"latitude":34.126815,"longitude":-118.443517,"geojson":{"type":"point","coordinates":[-118.443517,34.126815]}}
{"category_code":"software","founded_year":2007,"name":"Booklamp","number_of_employees":6,"offices":[{"longitude":-114.143262,"latitude":45.494552}],"latitude":45.494552,"longitude":-114.143262,"geojson":{"type":"point","coordinates":[-114.143262,45.494552]}}
{"category_code":"web","founded_year":2007,"name":"Clickpass","number_of_employees":90,"offices":[{"longitude":-122.419204,"latitude":37.775196}],"latitude":37.775196,"longitude":-122.419204,"geojson":{"type":"point","coordinates":[-122.419204,37.775196]}}
{"category_code":"mobile","founded_year":2006,"name":"Global Roaming","number_of_employees":29,"offices":[{"longitude":-80.1417742,"latitude":25.9690885}],"latitude":25.9690885,"longitude":-80.1417742,"geojson":{"type":"point","coordinates":[-80.1417742,25.9690885]}}
{"category_code":"web","founded_year":2006,"name":"DailyStrength","number_of_employees":14,"offices":[{"longitude":-118.468204,"latitude":34.043948}],"latitude":34.043948,"longitude":-118.468204,"geojson":{"type":"point","coordinates":[-118.468204,34.043948]}}
{"category_code":"games_video","founded_year":2009,"name":"Crootpad","number_of_employees":2,"offices":[{"longitude":-88.288749,"latitude":42.091078}],"latitude":42.091078,"longitude":-88.288749,"geojson":{"type":"point","coordinates":[-88.288749,42.091078]}}
{"category_code":"web","founded_year":2007,"name":"Next New Networks","number_of_employees":121,"offices":[{"longitude":-73.983626,"latitude":40.743808}],"latitude":40.743808,"longitude":-73.983626,"geojson":{"type":"point","coordinates":[-73.983626,40.743808]}}
{"category_code":"mobile","founded_year":2012,"name":"Skydeck","number_of_employees":9,"offices":[{"longitude":-122.3254705,"latitude":37.5645375}],"latitude":37.5645375,"longitude":-122.3254705,"geojson":{"type":"point","coordinates":[-122.3254705,37.5645375]}}
{"category_code":"software","founded_year":2007,"name":"Zuora","number_of_employees":250,"offices":[{"longitude":-122.2709868,"latitude":37.5596277}],"latitude":37.5596277,"longitude":-122.2709868,"geojson":{"type":"point","coordinates":[-122.2709868,37.5596277]}}
{"category_code":"web","founded_year":2007,"name":"CrewedUp","number_of_employees":8,"offices":[{"longitude":-118.292618,"latitude":34.089679}],"latitude":34.089679,"longitude":-118.292618,"geojson":{"type":"point","coordinates":[-118.292618,34.089679]}}
{"category_code":"web","founded_year":2006,"name":"Krillion","number_of_employees":10,"offices":[{"longitude":-122.077597,"latitude":37.391727}],"latitude":37.391727,"longitude":-122.077597,"geojson":{"type":"point","coordinates":[-122.077597,37.391727]}}
{"category_code":"mobile","founded_year":2006,"name":"kwiry","number_of_employees":3,"offices":[{"longitude":-122.4035985,"latitude":37.7885714}],"latitude":37.7885714,"longitude":-122.4035985,"geojson":{"type":"point","coordinates":[-122.4035985,37.7885714]}}
{"category_code":"software","founded_year":2007,"name":"Coordinatr","number_of_employees":2,"offices":[{"longitude":-122.427021,"latitude":37.804477}],"latitude":37.804477,"longitude":-122.427021,"geojson":{"type":"point","coordinates":[-122.427021,37.804477]}}
{"category_code":"web","founded_year":2008,"name":"Wordki","number_of_employees":2,"offices":[{"longitude":-3.435973,"latitude":55.378051}],"latitude":55.378051,"longitude":-3.435973,"geojson":{"type":"point","coordinates":[-3.435973,55.378051]}}
{"category_code":"web","founded_year":2007,"name":"Ubuket","number_of_employees":15,"offices":[{"longitude":-95.712891,"latitude":37.09024}],"latitude":37.09024,"longitude":-95.712891,"geojson":{"type":"point","coordinates":[-95.712891,37.09024]}}
{"category_code":"web","founded_year":2007,"name":"Stateless Systems","number_of_employees":5,"offices":[{"longitude":145.088205,"latitude":-38.234925}],"latitude":-38.234925,"longitude":145.088205,"geojson":{"type":"point","coordinates":[145.088205,-38.234925]}}
{"category_code":"web","founded_year":2008,"name":"CreateDebate","number_of_employees":3,"offices":[{"longitude":-77.12016,"latitude":38.909812}],"latitude":38.909812,"longitude":-77.12016,"geojson":{"type":"point","coordinates":[-77.12016,38.909812]}}
{"category_code":"web","founded_year":2007,"name":"MyTrade","number_of_employees":2,"offices":[{"longitude":-85.5136366,"latitude":38.2798482}],"latitude":38.2798482,"longitude":-85.5136366,"geojson":{"type":"point","coordinates":[-85.5136366,38.2798482]}}
{"category_code":"web","founded_year":2008,"name":"ReadBurner","number_of_employees":4,"offices":[{"longitude":-122.4042586,"latitude":37.80391}],"latitude":37.80391,"longitude":-122.4042586,"geojson":{"type":"point","coordinates":[-122.4042586,37.80391]}}
{"category_code":"web","founded_year":2006,"name":"ScanCafe","number_of_employees":350,"offices":[{"longitude":-122.369676,"latitude":37.592584}],"latitude":37.592584,"longitude":-122.369676,"geojson":{"type":"point","coordinates":[-122.369676,37.592584]}}
{"category_code":"web","founded_year":2007,"name":"acomo","number_of_employees":6,"offices":[{"longitude":13.345143,"latitude":52.525092}],"latitude":52.525092,"longitude":13.345143,"geojson":{"type":"point","coordinates":[13.345143,52.525092]}}
{"category_code":"games_video","founded_year":2008,"name":"Clipta","number_of_employees":16,"offices":[{"longitude":-122.0124404,"latitude":37.3793718}],"latitude":37.3793718,"longitude":-122.0124404,"geojson":{"type":"point","coordinates":[-122.0124404,37.3793718]}}
{"category_code":"games_video","founded_year":2007,"name":"Viddyou","number_of_employees":5,"offices":[{"longitude":-122.419204,"latitude":37.775196}],"latitude":37.775196,"longitude":-122.419204,"geojson":{"type":"point","coordinates":[-122.419204,37.775196]}}
{"category_code":"web","founded_year":2007,"name":"My Complete Event","number_of_employees":10,"offices":[{"longitude":-71.199863,"latitude":42.427428}],"latitude":42.427428,"longitude":-71.199863,"geojson":{"type":"point","coordinates":[-71.199863,42.427428]}}
{"category_code":"games_video","founded_year":2007,"name":"MyMiniLife","number_of_employees":4,"offices":[{"longitude":-122.159928,"latitude":37.437328}],"latitude":37.437328,"longitude":-122.159928,"geojson":{"type":"point","coordinates":[-122.159928,37.437328]}}
{"category_code":"web","founded_year":2008,"name":"InformedMD","number_of_employees":2,"offices":[{"longitude":-71.13129,"latitude":42.322072}],"latitude":42.322072,"longitude":-71.13129,"geojson":{"type":"point","coordinates":[-71.13129,42.322072]}}
{"category_code":"web","founded_year":2007,"name":"My IT Career","number_of_employees":4,"offices":[{"longitude":-122.028899,"latitude":47.677988}],"latitude":47.677988,"longitude":-122.028899,"geojson":{"type":"point","coordinates":[-122.028899,47.677988]}}
{"category_code":"web","founded_year":2006,"name":"DevHD","number_of_employees":7,"offices":[{"longitude":-122.195057,"latitude":37.46629}],"latitude":37.46629,"longitude":-122.195057,"geojson":{"type":"point","coordinates":[-122.195057,37.46629]}}
{"category_code":"web","founded_year":2007,"name":"YiGG","number_of_employees":3,"offices":[{"longitude":11.53283,"latitude":48.1128}],"latitude":48.1128,"longitude":11.53283,"geojson":{"type":"point","coordinates":[11.53283,48.1128]}}
{"category_code":"games_video","founded_year":2007,"name":"Mytopia","number_of_employees":29,"offices":[{"longitude":-118.489681,"latitude":34.007967}],"latitude":34.007967,"longitude":-118.489681,"geojson":{"type":"point","coordinates":[-118.489681,34.007967]}}
{"category_code":"software","founded_year":2007,"name":"Infovark","number_of_employees":3,"offices":[{"longitude":-77.294526,"latitude":38.875724}],"latitude":38.875724,"longitude":-77.294526,"geojson":{"type":"point","coordinates":[-77.294526,38.875724]}}
{"category_code":"web","founded_year":2006,"name":"RelevantMind","number_of_employees":13,"offices":[{"longitude":-122.256239,"latitude":37.892301}],"latitude":37.892301,"longitude":-122.256239,"geojson":{"type":"point","coordinates":[-122.256239,37.892301]}}
{"category_code":"games_video","founded_year":2007,"name":"Pikum","number_of_employees":15,"offices":[{"longitude":-0.152998,"latitude":51.539778}],"latitude":51.539778,"longitude":-0.152998,"geojson":{"type":"point","coordinates":[-0.152998,51.539778]}}
{"category_code":"games_video","founded_year":2007,"name":"HungryFlix","number_of_employees":4,"offices":[{"longitude":-74.276451,"latitude":40.84014}],"latitude":40.84014,"longitude":-74.276451,"geojson":{"type":"point","coordinates":[-74.276451,40.84014]}}
{"category_code":"games_video","founded_year":2007,"name":"itbreaks","number_of_employees":4,"offices":[{"longitude":2.402304,"latitude":48.887824}],"latitude":48.887824,"longitude":2.402304,"geojson":{"type":"point","coordinates":[2.402304,48.887824]}}
{"category_code":"web","founded_year":2008,"name":"Intent","number_of_employees":6,"offices":[{"longitude":-118.495981,"latitude":34.01052}],"latitude":34.01052,"longitude":-118.495981,"geojson":{"type":"point","coordinates":[-118.495981,34.01052]}}
{"category_code":"web","founded_year":2007,"name":"HelloTxt","number_of_employees":2,"offices":[{"longitude":-0.0808503,"latitude":51.5235368}],"latitude":51.5235368,"longitude":-0.0808503,"geojson":{"type":"point","coordinates":[-0.0808503,51.5235368]}}
{"category_code":"web","founded_year":2008,"name":"BuyerRaja","number_of_employees":20,"offices":[{"longitude":77.578768,"latitude":13.033353}],"latitude":13.033353,"longitude":77.578768,"geojson":{"type":"point","coordinates":[77.578768,13.033353]}}
{"category_code":"web","founded_year":2007,"name":"SeatNation","number_of_employees":9,"offices":[{"longitude":-111.9269272,"latitude":33.5076738}],"latitude":33.5076738,"longitude":-111.9269272,"geojson":{"type":"point","coordinates":[-111.9269272,33.5076738]}}
{"category_code":"games_video","founded_year":2008,"name":"Episodic","number_of_employees":6,"offices":[{"longitude":-119.306607,"latitude":37.269175}],"latitude":37.269175,"longitude":-119.306607,"geojson":{"type":"point","coordinates":[-119.306607,37.269175]}}
{"category_code":"games_video","founded_year":2007,"name":"YourTeamOnline","number_of_employees":2,"offices":[{"longitude":-66.061181,"latitude":45.271401}],"latitude":45.271401,"longitude":-66.061181,"geojson":{"type":"point","coordinates":[-66.061181,45.271401]}}
{"category_code":"web","founded_year":2007,"name":"MindBites","number_of_employees":15,"offices":[{"longitude":-95.712891,"latitude":37.09024}],"latitude":37.09024,"longitude":-95.712891,"geojson":{"type":"point","coordinates":[-95.712891,37.09024]}}
{"category_code":"web","founded_year":2007,"name":"Zemanta","number_of_employees":30,"offices":[{"longitude":-0.0934254,"latitude":51.5141566},{"longitude":-73.9939213,"latitude":40.7387945},{"longitude":14.4972218,"latitude":46.0607926}],"latitude":51.5141566,"longitude":-0.0934254,"geojson":{"type":"point","coordinates":[-0.0934254,51.5141566]}}
{"category_code":"web","founded_year":2007,"name":"Glassdoor","number_of_employees":180,"offices":[{"longitude":-122.500111,"latitude":37.868002}],"latitude":37.868002,"longitude":-122.500111,"geojson":{"type":"point","coordinates":[-122.500111,37.868002]}}
{"category_code":"web","founded_year":2007,"name":"Pressflip","number_of_employees":3,"offices":[{"longitude":-119.306607,"latitude":37.269175}],"latitude":37.269175,"longitude":-119.306607,"geojson":{"type":"point","coordinates":[-119.306607,37.269175]}}
{"category_code":"web","founded_year":2007,"name":"Fresho","number_of_employees":11,"offices":[{"longitude":24.603189,"latitude":56.879635}],"latitude":56.879635,"longitude":24.603189,"geojson":{"type":"point","coordinates":[24.603189,56.879635]}}
{"category_code":"web","founded_year":2006,"name":"Get the Point","number_of_employees":2,"offices":[{"longitude":-3.201328,"latitude":55.945399}],"latitude":55.945399,"longitude":-3.201328,"geojson":{"type":"point","coordinates":[-3.201328,55.945399]}}
{"category_code":"web","founded_year":2008,"name":"Wakozi","number_of_employees":5,"offices":[{"longitude":-73.992706,"latitude":40.755409}],"latitude":40.755409,"longitude":-73.992706,"geojson":{"type":"point","coordinates":[-73.992706,40.755409]}}
{"category_code":"web","founded_year":2008,"name":"Kalibera","number_of_employees":2,"offices":[{"longitude":10.738741,"latitude":59.91382}],"latitude":59.91382,"longitude":10.738741,"geojson":{"type":"point","coordinates":[10.738741,59.91382]}}
{"category_code":"software","founded_year":2006,"name":"Marketo","number_of_employees":260,"offices":[{"longitude":-122.301385,"latitude":37.5583}],"latitude":37.5583,"longitude":-122.301385,"geojson":{"type":"point","coordinates":[-122.301385,37.5583]}}
{"category_code":"web","founded_year":2008,"name":"Noovo","number_of_employees":8,"offices":[{"longitude":-122.155678,"latitude":37.446382}],"latitude":37.446382,"longitude":-122.155678,"geojson":{"type":"point","coordinates":[-122.155678,37.446382]}}
{"category_code":"software","founded_year":2008,"name":"Woopra","number_of_employees":12,"offices":[{"longitude":-100.076888,"latitude":31.169036}],"latitude":31.169036,"longitude":-100.076888,"geojson":{"type":"point","coordinates":[-100.076888,31.169036]}}
{"category_code":"games_video","founded_year":2008,"name":"AudioMicro","number_of_employees":10,"offices":[{"longitude":-118.422495,"latitude":34.153588}],"latitude":34.153588,"longitude":-118.422495,"geojson":{"type":"point","coordinates":[-118.422495,34.153588]}}
{"category_code":"games_video","founded_year":2008,"name":"stickychicken","number_of_employees":2,"offices":[{"longitude":-122.419204,"latitude":37.775196}],"latitude":37.775196,"longitude":-122.419204,"geojson":{"type":"point","coordinates":[-122.419204,37.775196]}}
{"category_code":"software","founded_year":2007,"name":"KeyVision","number_of_employees":14,"offices":[{"longitude":9.285378,"latitude":45.587212}],"latitude":45.587212,"longitude":9.285378,"geojson":{"type":"point","coordinates":[9.285378,45.587212]}}
{"category_code":"games_video","founded_year":2007,"name":"Zankapfel","number_of_employees":2,"offices":[{"longitude":11.558864,"latitude":48.122346}],"latitude":48.122346,"longitude":11.558864,"geojson":{"type":"point","coordinates":[11.558864,48.122346]}}
{"category_code":"web","founded_year":2007,"name":"School of Everything","number_of_employees":8,"offices":[{"longitude":-0.053981,"latitude":51.528817}],"latitude":51.528817,"longitude":-0.053981,"geojson":{"type":"point","coordinates":[-0.053981,51.528817]}}
{"category_code":"web","founded_year":2006,"name":"Xteque","number_of_employees":2,"offices":[{"longitude":9.203316,"latitude":45.461552}],"latitude":45.461552,"longitude":9.203316,"geojson":{"type":"point","coordinates":[9.203316,45.461552]}}
{"category_code":"web","founded_year":2007,"name":"Naubo","number_of_employees":5,"offices":[{"longitude":-75.386462,"latitude":39.145022}],"latitude":39.145022,"longitude":-75.386462,"geojson":{"type":"point","coordinates":[-75.386462,39.145022]}}
{"category_code":"web","founded_year":2007,"name":"Kublax","number_of_employees":10,"offices":[{"longitude":-0.1262362,"latitude":51.5001524}],"latitude":51.5001524,"longitude":-0.1262362,"geojson":{"type":"point","coordinates":[-0.1262362,51.5001524]}}
{"category_code":"web","founded_year":2008,"name":"Weardrobe","number_of_employees":2,"offices":[{"longitude":-122.164925,"latitude":37.446662}],"latitude":37.446662,"longitude":-122.164925,"geojson":{"type":"point","coordinates":[-122.164925,37.446662]}}
{"category_code":"software","founded_year":2006,"name":"dotSyntax","number_of_employees":7,"offices":[{"longitude":-77.663171,"latitude":43.073968}],"latitude":43.073968,"longitude":-77.663171,"geojson":{"type":"point","coordinates":[-77.663171,43.073968]}}
{"category_code":"web","founded_year":2006,"name":"Netcipia","number_of_employees":3,"offices":[{"longitude":-122.160671,"latitude":37.445326}],"latitude":37.445326,"longitude":-122.160671,"geojson":{"type":"point","coordinates":[-122.160671,37.445326]}}
{"category_code":"software","founded_year":2007,"name":"HRSnap! Corporation","number_of_employees":20,"offices":[{"longitude":-115.242203,"latitude":36.180757}],"latitude":36.180757,"longitude":-115.242203,"geojson":{"type":"point","coordinates":[-115.242203,36.180757]}}
{"category_code":"web","founded_year":2007,"name":"Intridea","number_of_employees":37,"offices":[{"longitude":-77.043194,"latitude":38.901279}],"latitude":38.901279,"longitude":-77.043194,"geojson":{"type":"point","coordinates":[-77.043194,38.901279]}}
{"category_code":"web","founded_year":2007,"name":"MyWellnessSpace","number_of_employees":6,"offices":[{"longitude":-82.527888,"latitude":27.338536}],"latitude":27.338536,"longitude":-82.527888,"geojson":{"type":"point","coordinates":[-82.527888,27.338536]}}
{"category_code":"web","founded_year":2006,"name":"TripSay","number_of_employees":6,"offices":[{"longitude":24.9457414,"latitude":60.1642238}],"latitude":60.1642238,"longitude":24.9457414,"geojson":{"type":"point","coordinates":[24.9457414,60.1642238]}}
{"category_code":"web","founded_year":2006,"name":"Misohoni","number_of_employees":4,"offices":[{"longitude":114.150956,"latitude":22.2806}],"latitude":22.2806,"longitude":114.150956,"geojson":{"type":"point","coordinates":[114.150956,22.2806]}}
{"category_code":"web","founded_year":2008,"name":"GamerNook","number_of_employees":3,"offices":[{"longitude":-74.125176,"latitude":39.949301}],"latitude":39.949301,"longitude":-74.125176,"geojson":{"type":"point","coordinates":[-74.125176,39.949301]}}
{"category_code":"games_video","founded_year":2007,"name":"Vivity Labs","number_of_employees":10,"offices":[{"longitude":-123.108456,"latitude":49.282249}],"latitude":49.282249,"longitude":-123.108456,"geojson":{"type":"point","coordinates":[-123.108456,49.282249]}}
{"category_code":"software","founded_year":2008,"name":"FinFolio","number_of_employees":3,"offices":[{"longitude":-115.154816,"latitude":36.136552}],"latitude":36.136552,"longitude":-115.154816,"geojson":{"type":"point","coordinates":[-115.154816,36.136552]}}
{"category_code":"web","founded_year":2007,"name":"Nsyght","number_of_employees":4,"offices":[{"longitude":-0.3387433,"latitude":51.4751999}],"latitude":51.4751999,"longitude":-0.3387433,"geojson":{"type":"point","coordinates":[-0.3387433,51.4751999]}}
{"category_code":"software","founded_year":2006,"name":"Zogix","number_of_employees":2,"offices":[{"longitude":-0.56253,"latitude":51.762918}],"latitude":51.762918,"longitude":-0.56253,"geojson":{"type":"point","coordinates":[-0.56253,51.762918]}}
{"category_code":"software","founded_year":2008,"name":"FragMob","number_of_employees":12,"offices":[{"longitude":-118.36543,"latitude":34.063441}],"latitude":34.063441,"longitude":-118.36543,"geojson":{"type":"point","coordinates":[-118.36543,34.063441]}}
{"category_code":"web","founded_year":2006,"name":"trymehere","number_of_employees":3,"offices":[{"longitude":-0.744466,"latitude":51.287062}],"latitude":51.287062,"longitude":-0.744466,"geojson":{"type":"point","coordinates":[-0.744466,51.287062]}}
{"category_code":"software","founded_year":2007,"name":"Protecode","number_of_employees":20,"offices":[{"longitude":-75.834151,"latitude":45.352255}],"latitude":45.352255,"longitude":-75.834151,"geojson":{"type":"point","coordinates":[-75.834151,45.352255]}}
{"category_code":"web","founded_year":2008,"name":"Jobingenieur","number_of_employees":2,"offices":[{"longitude":-1.6629087,"latitude":48.1128512}],"latitude":48.1128512,"longitude":-1.6629087,"geojson":{"type":"point","coordinates":[-1.6629087,48.1128512]}}
{"category_code":"web","founded_year":2008,"name":"Cutcaster","number_of_employees":8,"offices":[{"longitude":-122.457454,"latitude":37.79851}],"latitude":37.79851,"longitude":-122.457454,"geojson":{"type":"point","coordinates":[-122.457454,37.79851]}}
{"category_code":"mobile","founded_year":2007,"name":"Heysan","number_of_employees":8,"offices":[{"longitude":-122.410076,"latitude":37.774997}],"latitude":37.774997,"longitude":-122.410076,"geojson":{"type":"point","coordinates":[-122.410076,37.774997]}}
{"category_code":"software","founded_year":2008,"name":"GitHub","number_of_employees":106,"offices":[{"longitude":-122.419204,"latitude":37.775196}],"latitude":37.775196,"longitude":-122.419204,"geojson":{"type":"point","coordinates":[-122.419204,37.775196]}}
{"category_code":"games_video","founded_year":2008,"name":"YUPPTV","number_of_employees":70,"offices":[{"longitude":78.434422,"latitude":17.415429}],"latitude":17.415429,"longitude":78.434422,"geojson":{"type":"point","coordinates":[78.434422,17.415429]}}
{"category_code":"software","founded_year":2007,"name":"KIVISOFT","number_of_employees":6,"offices":[{"longitude":28.977046,"latitude":41.06052}],"latitude":41.06052,"longitude":28.977046,"geojson":{"type":"point","coordinates":[28.977046,41.06052]}}
{"category_code":"web","founded_year":2007,"name":"Compfight","number_of_employees":5,"offices":[{"longitude":-122.419204,"latitude":37.775196}],"latitude":37.775196,"longitude":-122.419204,"geojson":{"type":"point","coordinates":[-122.419204,37.775196]}}
{"category_code":"web","founded_year":2008,"name":"Mad Mimi","number_of_employees":35,"offices":[{"longitude":-73.980306,"latitude":40.66509}],"latitude":40.66509,"longitude":-73.980306,"geojson":{"type":"point","coordinates":[-73.980306,40.66509]}}
{"category_code":"web","founded_year":2006,"name":"Campus Destinations","number_of_employees":35,"offices":[{"longitude":-78.922055,"latitude":36.009825}],"latitude":36.009825,"longitude":-78.922055,"geojson":{"type":"point","coordinates":[-78.922055,36.009825]}}
{"category_code":"mobile","founded_year":2008,"name":"TutorByTxt","number_of_employees":2,"offices":[{"longitude":-0.217662,"latitude":51.48916}],"latitude":51.48916,"longitude":-0.217662,"geojson":{"type":"point","coordinates":[-0.217662,51.48916]}}
{"category_code":"mobile","founded_year":2007,"name":"PhoneFavs","number_of_employees":2,"offices":[{"longitude":-117.233586,"latitude":32.7907}],"latitude":32.7907,"longitude":-117.233586,"geojson":{"type":"point","coordinates":[-117.233586,32.7907]}}
{"category_code":"games_video","founded_year":2008,"name":"Sutros","number_of_employees":3,"offices":[{"longitude":-122.42087,"latitude":37.756922}],"latitude":37.756922,"longitude":-122.42087,"geojson":{"type":"point","coordinates":[-122.42087,37.756922]}}
{"category_code":"games_video","founded_year":2007,"name":"imcandy","number_of_employees":4,"offices":[{"longitude":34.851612,"latitude":31.046051}],"latitude":31.046051,"longitude":34.851612,"geojson":{"type":"point","coordinates":[34.851612,31.046051]}}
{"category_code":"mobile","founded_year":2007,"name":"Soocial","number_of_employees":4,"offices":[{"longitude":4.92319,"latitude":52.3768747}],"latitude":52.3768747,"longitude":4.92319,"geojson":{"type":"point","coordinates":[4.92319,52.3768747]}}
{"category_code":"web","founded_year":2008,"name":"Beer Universe","number_of_employees":3,"offices":[{"longitude":-78.922055,"latitude":36.009825}],"latitude":36.009825,"longitude":-78.922055,"geojson":{"type":"point","coordinates":[-78.922055,36.009825]}}
{"category_code":"games_video","founded_year":2006,"name":"Podbean LLC","number_of_employees":10,"offices":[{"longitude":-75.485407,"latitude":39.786948}],"latitude":39.786948,"longitude":-75.485407,"geojson":{"type":"point","coordinates":[-75.485407,39.786948]}}
{"category_code":"web","founded_year":2006,"name":"MediaScrape","number_of_employees":6,"offices":[{"longitude":-73.639076,"latitude":45.545447}],"latitude":45.545447,"longitude":-73.639076,"geojson":{"type":"point","coordinates":[-73.639076,45.545447]}}
{"category_code":"web","founded_year":2006,"name":"SaneBull","number_of_employees":4,"offices":[{"longitude":-73.98641,"latitude":40.586041}],"latitude":40.586041,"longitude":-73.98641,"geojson":{"type":"point","coordinates":[-73.98641,40.586041]}}
{"category_code":"software","founded_year":2009,"name":"Macroaxis","number_of_employees":8,"offices":[{"longitude":-122.3998782,"latitude":37.7896292}],"latitude":37.7896292,"longitude":-122.3998782,"geojson":{"type":"point","coordinates":[-122.3998782,37.7896292]}}
{"category_code":"web","founded_year":2006,"name":"IdiotsTrafficSchool","number_of_employees":4,"offices":[{"longitude":-118.373868,"latitude":34.090373}],"latitude":34.090373,"longitude":-118.373868,"geojson":{"type":"point","coordinates":[-118.373868,34.090373]}}
{"category_code":"mobile","founded_year":2007,"name":"Dial Plus","number_of_employees":10,"offices":[{"longitude":-117.171819,"latitude":32.745998}],"latitude":32.745998,"longitude":-117.171819,"geojson":{"type":"point","coordinates":[-117.171819,32.745998]}}
{"category_code":"web","founded_year":2007,"name":"TeachStreet","number_of_employees":8,"offices":[{"longitude":-122.3370801,"latitude":47.6171788}],"latitude":47.6171788,"longitude":-122.3370801,"geojson":{"type":"point","coordinates":[-122.3370801,47.6171788]}}
{"category_code":"web","founded_year":2007,"name":"Couch Tycoon","number_of_employees":3,"offices":[{"longitude":9.983828,"latitude":53.595054}],"latitude":53.595054,"longitude":9.983828,"geojson":{"type":"point","coordinates":[9.983828,53.595054]}}
{"category_code":"web","founded_year":2006,"name":"Implicit Link","number_of_employees":2,"offices":[{"longitude":6.900318,"latitude":52.227998}],"latitude":52.227998,"longitude":6.900318,"geojson":{"type":"point","coordinates":[6.900318,52.227998]}}
{"category_code":"web","founded_year":2006,"name":"ChickAdvisor","number_of_employees":3,"offices":[{"longitude":-79.380702,"latitude":43.639922}],"latitude":43.639922,"longitude":-79.380702,"geojson":{"type":"point","coordinates":[-79.380702,43.639922]}}
{"category_code":"web","founded_year":2007,"name":"FlipKey","number_of_employees":10,"offices":[{"longitude":-71.058096,"latitude":42.354023}],"latitude":42.354023,"longitude":-71.058096,"geojson":{"type":"point","coordinates":[-71.058096,42.354023]}}
{"category_code":"web","founded_year":2008,"name":"StrawPoll","number_of_employees":3,"offices":[{"longitude":-78.9206,"latitude":36.0073}],"latitude":36.0073,"longitude":-78.9206,"geojson":{"type":"point","coordinates":[-78.9206,36.0073]}}
{"category_code":"web","founded_year":2007,"name":"Royalquiz","number_of_employees":6,"offices":[{"longitude":18.050035,"latitude":59.336969}],"latitude":59.336969,"longitude":18.050035,"geojson":{"type":"point","coordinates":[18.050035,59.336969]}}
{"category_code":"web","founded_year":2008,"name":"Imagine Whatever","number_of_employees":3,"offices":[{"longitude":-121.262316,"latitude":38.589948}],"latitude":38.589948,"longitude":-121.262316,"geojson":{"type":"point","coordinates":[-121.262316,38.589948]}}
{"category_code":"web","founded_year":2008,"name":"Sideline Report","number_of_employees":5,"offices":[{"longitude":-82.391633,"latitude":28.554855}],"latitude":28.554855,"longitude":-82.391633,"geojson":{"type":"point","coordinates":[-82.391633,28.554855]}}
{"category_code":"software","founded_year":2006,"name":"Tsheets","number_of_employees":18,"offices":[{"longitude":-116.3908,"latitude":43.6124}],"latitude":43.6124,"longitude":-116.3908,"geojson":{"type":"point","coordinates":[-116.3908,43.6124]}}
{"category_code":"games_video","founded_year":2007,"name":"Modern Feed","number_of_employees":123,"offices":[{"longitude":-118.343791,"latitude":34.085749}],"latitude":34.085749,"longitude":-118.343791,"geojson":{"type":"point","coordinates":[-118.343791,34.085749]}}
{"category_code":"games_video","founded_year":2007,"name":"Omnivents","number_of_employees":5,"offices":[{"longitude":-122.151198,"latitude":37.44296}],"latitude":37.44296,"longitude":-122.151198,"geojson":{"type":"point","coordinates":[-122.151198,37.44296]}}
{"category_code":"web","founded_year":2007,"name":"PrepChamps","number_of_employees":10,"offices":[{"longitude":-78.902617,"latitude":35.914702}],"latitude":35.914702,"longitude":-78.902617,"geojson":{"type":"point","coordinates":[-78.902617,35.914702]}}
{"category_code":"games_video","founded_year":2007,"name":"FeedFlix","number_of_employees":2,"offices":[{"longitude":-122.030476,"latitude":37.35351}],"latitude":37.35351,"longitude":-122.030476,"geojson":{"type":"point","coordinates":[-122.030476,37.35351]}}
{"category_code":"web","founded_year":2007,"name":"Aardvark","number_of_employees":30,"offices":[{"longitude":-122.415813,"latitude":37.748676}],"latitude":37.748676,"longitude":-122.415813,"geojson":{"type":"point","coordinates":[-122.415813,37.748676]}}
{"category_code":"games_video","founded_year":2006,"name":"SuperVirals","number_of_employees":5,"offices":[{"longitude":151.209351,"latitude":-33.88106}],"latitude":-33.88106,"longitude":151.209351,"geojson":{"type":"point","coordinates":[151.209351,-33.88106]}}
{"category_code":"web","founded_year":2007,"name":"PurpleTrail","number_of_employees":35,"offices":[{"longitude":-122.19292,"latitude":47.584224}],"latitude":47.584224,"longitude":-122.19292,"geojson":{"type":"point","coordinates":[-122.19292,47.584224]}}
{"category_code":"web","founded_year":2007,"name":"RateBuilding","number_of_employees":2,"offices":[{"longitude":-71.249495,"latitude":46.787474}],"latitude":46.787474,"longitude":-71.249495,"geojson":{"type":"point","coordinates":[-71.249495,46.787474]}}
{"category_code":"games_video","founded_year":2008,"name":"Serious Business","number_of_employees":22,"offices":[{"longitude":-122.4013624,"latitude":37.7893215}],"latitude":37.7893215,"longitude":-122.4013624,"geojson":{"type":"point","coordinates":[-122.4013624,37.7893215]}}
{"category_code":"web","founded_year":2006,"name":"FreedomSpeaks","number_of_employees":2,"offices":[{"longitude":-118.445257,"latitude":34.0634}],"latitude":34.0634,"longitude":-118.445257,"geojson":{"type":"point","coordinates":[-118.445257,34.0634]}}
{"category_code":"software","founded_year":2006,"name":"KnowledgeTree","number_of_employees":33,"offices":[{"longitude":-78.647003,"latitude":35.786975}],"latitude":35.786975,"longitude":-78.647003,"geojson":{"type":"point","coordinates":[-78.647003,35.786975]}}
{"category_code":"web","founded_year":2007,"name":"Youcode","number_of_employees":2,"offices":[{"longitude":-80.137881,"latitude":26.052462}],"latitude":26.052462,"longitude":-80.137881,"geojson":{"type":"point","coordinates":[-80.137881,26.052462]}}
{"category_code":"web","founded_year":2006,"name":"Techrigy","number_of_employees":15,"offices":[{"longitude":-77.467129,"latitude":43.0594}],"latitude":43.0594,"longitude":-77.467129,"geojson":{"type":"point","coordinates":[-77.467129,43.0594]}}
{"category_code":"web","founded_year":2007,"name":"Lingoloopy","number_of_employees":3,"offices":[{"longitude":-0.126236,"latitude":51.500152}],"latitude":51.500152,"longitude":-0.126236,"geojson":{"type":"point","coordinates":[-0.126236,51.500152]}}
{"category_code":"mobile","founded_year":2008,"name":"GeoGraffiti","number_of_employees":5,"offices":[{"longitude":-118.264858,"latitude":34.05285}],"latitude":34.05285,"longitude":-118.264858,"geojson":{"type":"point","coordinates":[-118.264858,34.05285]}}
{"category_code":"software","founded_year":2008,"name":"New Relic","number_of_employees":63,"offices":[{"longitude":-119.306607,"latitude":37.269175}],"latitude":37.269175,"longitude":-119.306607,"geojson":{"type":"point","coordinates":[-119.306607,37.269175]}}
{"category_code":"games_video","founded_year":2008,"name":"Rekatu","number_of_employees":5,"offices":[{"longitude":-110.958319,"latitude":32.240301}],"latitude":32.240301,"longitude":-110.958319,"geojson":{"type":"point","coordinates":[-110.958319,32.240301]}}
{"category_code":"software","founded_year":2006,"name":"MakeUseOf","number_of_employees":50,"offices":[{"longitude":-4.271165,"latitude":55.862878}],"latitude":55.862878,"longitude":-4.271165,"geojson":{"type":"point","coordinates":[-4.271165,55.862878]}}
{"category_code":"web","founded_year":2006,"name":"Yoono","number_of_employees":10,"offices":[{"longitude":-122.397884,"latitude":37.787204}],"latitude":37.787204,"longitude":-122.397884,"geojson":{"type":"point","coordinates":[-122.397884,37.787204]}}
{"category_code":"games_video","founded_year":2008,"name":"Jinni","number_of_employees":35,"offices":[{"longitude":34.7595,"latitude":32.0554}],"latitude":32.0554,"longitude":34.7595,"geojson":{"type":"point","coordinates":[34.7595,32.0554]}}
{"category_code":"web","founded_year":2008,"name":"Park Hill","number_of_employees":10,"offices":[{"longitude":74.84256,"latitude":12.86936}],"latitude":12.86936,"longitude":74.84256,"geojson":{"type":"point","coordinates":[74.84256,12.86936]}}
{"category_code":"games_video","founded_year":2007,"name":"FantasyBook","number_of_employees":3,"offices":[{"longitude":-122.464349,"latitude":37.652325}],"latitude":37.652325,"longitude":-122.464349,"geojson":{"type":"point","coordinates":[-122.464349,37.652325]}}
{"category_code":"web","founded_year":2008,"name":"RemindBlast","number_of_employees":5,"offices":[{"longitude":-122.401537,"latitude":37.773727}],"latitude":37.773727,"longitude":-122.401537,"geojson":{"type":"point","coordinates":[-122.401537,37.773727]}}
{"category_code":"web","founded_year":2008,"name":"CogCog","number_of_employees":2,"offices":[{"longitude":-81.473725,"latitude":41.143544}],"latitude":41.143544,"longitude":-81.473725,"geojson":{"type":"point","coordinates":[-81.473725,41.143544]}}
{"category_code":"web","founded_year":2009,"name":"Supercool School","number_of_employees":3,"offices":[{"longitude":-122.416804,"latitude":37.754332}],"latitude":37.754332,"longitude":-122.416804,"geojson":{"type":"point","coordinates":[-122.416804,37.754332]}}
{"category_code":"software","founded_year":2006,"name":"Cartedge","number_of_employees":100,"offices":[{"longitude":-111.900917,"latitude":40.622919}],"latitude":40.622919,"longitude":-111.900917,"geojson":{"type":"point","coordinates":[-111.900917,40.622919]}}
{"category_code":"web","founded_year":2006,"name":"zweitgeist","number_of_employees":21,"offices":[{"longitude":9.926475,"latitude":53.563564}],"latitude":53.563564,"longitude":9.926475,"geojson":{"type":"point","coordinates":[9.926475,53.563564]}}
{"category_code":"games_video","founded_year":2006,"name":"sevenload","number_of_employees":67,"offices":[{"longitude":6.921546,"latitude":50.945289}],"latitude":50.945289,"longitude":6.921546,"geojson":{"type":"point","coordinates":[6.921546,50.945289]}}
{"category_code":"mobile","founded_year":2007,"name":"DoApp","number_of_employees":19,"offices":[{"longitude":-93.3439291,"latitude":44.9091984}],"latitude":44.9091984,"longitude":-93.3439291,"geojson":{"type":"point","coordinates":[-93.3439291,44.9091984]}}
{"category_code":"web","founded_year":2008,"name":"uLiken","number_of_employees":2,"offices":[{"longitude":-75.024335,"latitude":39.928792}],"latitude":39.928792,"longitude":-75.024335,"geojson":{"type":"point","coordinates":[-75.024335,39.928792]}}
{"category_code":"software","founded_year":2007,"name":"allyve","number_of_employees":11,"offices":[{"longitude":9.997669,"latitude":53.550572}],"latitude":53.550572,"longitude":9.997669,"geojson":{"type":"point","coordinates":[9.997669,53.550572]}}
{"category_code":"web","founded_year":2006,"name":"Your Survival","number_of_employees":10,"offices":[{"longitude":-73.34415,"latitude":41.137996}],"latitude":41.137996,"longitude":-73.34415,"geojson":{"type":"point","coordinates":[-73.34415,41.137996]}}
{"category_code":"mobile","founded_year":2007,"name":"Koollage","number_of_employees":3,"offices":[{"longitude":-121.873881,"latitude":37.316466}],"latitude":37.316466,"longitude":-121.873881,"geojson":{"type":"point","coordinates":[-121.873881,37.316466]}}
{"category_code":"software","founded_year":2006,"name":"EADOC","number_of_employees":6,"offices":[{"longitude":-122.270677,"latitude":37.804436}],"latitude":37.804436,"longitude":-122.270677,"geojson":{"type":"point","coordinates":[-122.270677,37.804436]}}
{"category_code":"web","founded_year":2007,"name":"WebVet","number_of_employees":6,"offices":[{"longitude":-73.9513502,"latitude":40.7717776}],"latitude":40.7717776,"longitude":-73.9513502,"geojson":{"type":"point","coordinates":[-73.9513502,40.7717776]}}
{"category_code":"web","founded_year":2008,"name":"FRoSP","number_of_employees":2,"offices":[{"longitude":6.9280123,"latitude":50.9508924}],"latitude":50.9508924,"longitude":6.9280123,"geojson":{"type":"point","coordinates":[6.9280123,50.9508924]}}
{"category_code":"web","founded_year":2008,"name":"College Mogul","number_of_employees":9,"offices":[{"longitude":-73.963158,"latitude":40.798345}],"latitude":40.798345,"longitude":-73.963158,"geojson":{"type":"point","coordinates":[-73.963158,40.798345]}}
{"category_code":"games_video","founded_year":2011,"name":"Fuzz","number_of_employees":6,"offices":[{"longitude":-122.387799,"latitude":37.760524}],"latitude":37.760524,"longitude":-122.387799,"geojson":{"type":"point","coordinates":[-122.387799,37.760524]}}
{"category_code":"games_video","founded_year":2007,"name":"Posh24","number_of_employees":5,"offices":[{"longitude":18.064488,"latitude":59.332788}],"latitude":59.332788,"longitude":18.064488,"geojson":{"type":"point","coordinates":[18.064488,59.332788]}}
{"category_code":"web","founded_year":2007,"name":"Streamy","number_of_employees":4,"offices":[{"longitude":-118.418098,"latitude":33.901121}],"latitude":33.901121,"longitude":-118.418098,"geojson":{"type":"point","coordinates":[-118.418098,33.901121]}}
{"category_code":"mobile","founded_year":2006,"name":"Squace","number_of_employees":15,"offices":[{"longitude":18.057069,"latitude":59.345126}],"latitude":59.345126,"longitude":18.057069,"geojson":{"type":"point","coordinates":[18.057069,59.345126]}}
{"category_code":"software","founded_year":2007,"name":"rVita","number_of_employees":6,"offices":[{"longitude":-121.978821,"latitude":37.398476}],"latitude":37.398476,"longitude":-121.978821,"geojson":{"type":"point","coordinates":[-121.978821,37.398476]}}
{"category_code":"games_video","founded_year":2007,"name":"MeFeedia","number_of_employees":13,"offices":[{"longitude":-118.335292,"latitude":34.155869}],"latitude":34.155869,"longitude":-118.335292,"geojson":{"type":"point","coordinates":[-118.335292,34.155869]}}
{"category_code":"mobile","founded_year":2008,"name":"Fonemesh","number_of_employees":7,"offices":[{"longitude":-122.398126,"latitude":37.791128},