{"category_code":"web","company_class":"Big","founded_year":2006,"geo_loc":[-118.393064,34.090368],"latitude":34.090368,"longitude":-118.393064,"n_total_money":16500000,"name":"Geni","number_of_employees":18,"total_money_raised":"$16.5M","around_companies":6,"money_density":2750000.0,"sb_ratio":0.1666666667}
{"category_code":"search","company_class":"Big","founded_year":2006,"geo_loc":[-122.395289,37.778613],"latitude":37.778613,"longitude":-122.395289,"n_total_money":22500000,"name":"Powerset","number_of_employees":60,"total_money_raised":"$22.5M","around_companies":92,"money_density":15939157.6086956523,"sb_ratio":0.2173913043}
{"category_code":"web","company_class":"Big","founded_year":2007,"geo_loc":[-118.487267,34.017606],"latitude":34.017606,"longitude":-118.487267,"n_total_money":21000000,"name":"Mahalo","number_of_employees":40,"total_money_raised":"$21M","around_companies":10,"money_density":11843200.0,"sb_ratio":0.5}
{"category_code":"games_video","company_class":"Big","founded_year":2006,"geo_loc":[-122.409173,37.788482],"latitude":37.788482,"longitude":-122.409173,"n_total_money":23400000,"name":"Kyte","number_of_employees":40,"total_money_raised":"$23.4M","around_companies":126,"money_density":10869396.0317460317,"sb_ratio":0.2619047619}
{"category_code":"web","company_class":"Big","founded_year":2002,"geo_loc":[-73.995722,40.72604],"latitude":40.72604,"longitude":-73.995722,"n_total_money":18300000,"name":"Meetup","number_of_employees":75,"total_money_raised":"$18.3M","around_companies":51,"money_density":5848403.9215686275,"sb_ratio":0.3137254902}
{"category_code":"mobile","company_class":"Big","founded_year":2005,"geo_loc":[-122.173887,37.480999],"latitude":37.480999,"longitude":-122.173887,"n_total_money":88700000,"name":"Jingle Networks","number_of_employees":35,"total_money_raised":"$88.7M","around_companies":2,"money_density":66350000.0,"sb_ratio":0.0}
{"category_code":"games_video","company_class":"Big","founded_year":2006,"geo_loc":[-74.0094471,40.7464969],"latitude":40.7464969,"longitude":-74.0094471,"n_total_money":45000000,"name":"Joost","number_of_employees":0,"total_money_raised":"$45M","around_companies":50,"money_density":5864556.0,"sb_ratio":0.28}
{"category_code":"photo_video","company_class":"Big","founded_year":2002,"geo_loc":[-122.067692,37.390056],"latitude":37.390056,"longitude":-122.067692,"n_total_money":0,"name":"SmugMug","number_of_employees":62,"total_money_raised":"$0","around_companies":23,"money_density":13271608.6956521738,"sb_ratio":0.1304347826}
{"category_code":"web","company_class":"Big","founded_year":2002,"geo_loc":[-122.055197,37.387845],"latitude":37.387845,"longitude":-122.055197,"n_total_money":28300000,"name":"Plaxo","number_of_employees":50,"total_money_raised":"$28.3M","around_companies":7,"money_density":11900000.0,"sb_ratio":0.1428571429}
{"category_code":"games_video","company_class":"Big","founded_year":2007,"geo_loc":[-73.995625,40.726155],"latitude":40.726155,"longitude":-73.995625,"n_total_money":14700000,"name":"Livestream","number_of_employees":120,"total_money_raised":"$14.7M","around_companies":51,"money_density":5848403.9215686275,"sb_ratio":0.3137254902}
{"category_code":"games_video","company_class":"Big","founded_year":2005,"geo_loc":[-122.426804,37.627971],"latitude":37.627971,"longitude":-122.426804,"n_total_money":11500000,"name":"YouTube","number_of_employees":0,"total_money_raised":"$11.5M","around_companies":2,"money_density":19638000.0,"sb_ratio":0.0}
{"category_code":"web","company_class":"Big","founded_year":2003,"geo_loc":[-73.563878,41.049051],"latitude":41.049051,"longitude":-73.563878,"n_total_money":0,"name":"Ikan","number_of_employees":5,"total_money_raised":"$0","around_companies":1,"money_density":0.0,"sb_ratio":0.0}
{"category_code":"mobile","company_class":"Big","founded_year":2006,"geo_loc":[-121.932202,37.465645],"latitude":37.465645,"longitude":-121.932202,"n_total_money":4000000,"name":"GrandCentral","number_of_employees":3,"total_money_raised":"$4M","around_companies":1,"money_density":4000000.0,"sb_ratio":0.0}
{"category_code":"web","company_class":"Big","founded_year":2007,"geo_loc":[-122.397224,37.762541],"latitude":37.762541,"longitude":-122.397224,"n_total_money":0,"name":"Pownce","number_of_employees":6,"total_money_raised":"$0","around_companies":30,"money_density":20235249.9666666649,"sb_ratio":0.1666666667}
{"category_code":"games_video","company_class":"Big","founded_year":2004,"geo_loc":[-73.99873,40.722655],"latitude":40.722655,"longitude":-73.99873,"n_total_money":11000000,"name":"Pando Networks","number_of_employees":23,"total_money_raised":"$11M","around_companies":37,"money_density":4676637.8378378376,"sb_ratio":0.2432432432}
{"category_code":"web","company_class":"Big","founded_year":2007,"geo_loc":[-119.306607,37.269175],"latitude":37.269175,"longitude":-119.306607,"n_total_money":100000,"name":"CriticalMetrics","number_of_employees":4,"total_money_raised":"$100k","around_companies":7,"money_density":29828571.4285714291,"sb_ratio":0.5714285714}
{"category_code":"search","company_class":"Big","founded_year":2006,"geo_loc":[-122.217964,37.488336],"latitude":37.488336,"longitude":-122.217964,"n_total_money":7000000,"name":"Spock","number_of_employees":30,"total_money_raised":"$7M","around_companies":12,"money_density":49963666.6666666642,"sb_ratio":0.0833333333}
{"category_code":"games_video","company_class":"Big","founded_year":2007,"geo_loc":[-74.3372,40.801358],"latitude":40.801358,"longitude":-74.3372,"n_total_money":24000000,"name":"AdaptiveBlue","number_of_employees":15,"total_money_raised":"$24M","around_companies":1,"money_density":24000000.0,"sb_ratio":0.0}
{"category_code":"games_video","company_class":"Big","founded_year":2006,"geo_loc":[-122.393913,37.780716],"latitude":37.780716,"longitude":-122.393913,"n_total_money":3100000,"name":"CastTV","number_of_employees":0,"total_money_raised":"$3.1M","around_companies":90,"money_density":16224916.666666666,"sb_ratio":0.2222222222}
{"category_code":"web","company_class":"Big","founded_year":2007,"geo_loc":[-119.306607,37.269175],"latitude":37.269175,"longitude":-119.306607,"n_total_money":12700000,"name":"SodaHead","number_of_employees":25,"total_money_raised":"$12.7M","around_companies":7,"money_density":29828571.4285714291,"sb_ratio":0.5714285714}
{"category_code":"web","company_class":"Big","founded_year":2005,"geo_loc":[-118.756618,34.155211],"latitude":34.155211,"longitude":-118.756618,"n_total_money":0,"name":"ClipBlast!","number_of_employees":15,"total_money_raised":"$0","around_companies":3,"money_density":0.0,"sb_ratio":0.3333333333}
{"category_code":"search","company_class":"Big","founded_year":2004,"geo_loc":[-122.402195,37.786183],"latitude":37.786183,"longitude":-122.402195,"n_total_money":90000000,"name":"Yelp","number_of_employees":800,"total_money_raised":"$90M","around_companies":124,"money_density":11449354.0322580654,"sb_ratio":0.2580645161}
{"category_code":"web","company_class":"Big","founded_year":2006,"geo_loc":[-1.3610845,50.9444598],"latitude":50.9444598,"longitude":-1.3610845,"n_total_money":0,"name":"Zamzar","number_of_employees":2,"total_money_raised":"$0","around_companies":1,"money_density":0.0,"sb_ratio":0.0}
{"category_code":"web","company_class":"Big","founded_year":1999,"geo_loc":[-121.977853,37.374998],"latitude":37.374998,"longitude":-121.977853,"n_total_money":32000000,"name":"SideStep","number_of_employees":75,"total_money_raised":"$32M","around_companies":12,"money_density":35749583.3333333358,"sb_ratio":0.0}
{"category_code":"search","company_class":"Big","founded_year":2003,"geo_loc":[-122.359397,47.620982],"latitude":47.620982,"longitude":-122.359397,"n_total_money":20600000,"name":"Farecast","number_of_employees":26,"total_money_raised":"$20.6M","around_companies":20,"money_density":4370950.0,"sb_ratio":0.2}
{"category_code":"mobile","company_class":"Big","founded_year":2005,"geo_loc":[-122.0899512,37.4233896],"latitude":37.4233896,"longitude":-122.0899512,"n_total_money":33000000,"name":"Jajah","number_of_employees":110,"total_money_raised":"$33M","around_companies":11,"money_density":20043454.5454545468,"sb_ratio":0.0909090909}
{"category_code":"web","company_class":"Big","founded_year":2006,"geo_loc":[-122.414689,37.758113],"latitude":37.758113,"longitude":-122.414689,"n_total_money":4099999,"name":"Pageflakes","number_of_employees":20,"total_money_raised":"$4.1M","around_companies":41,"money_density":15709314.6097560972,"sb_ratio":0.2682926829}
{"category_code":"web","company_class":"Big","founded_year":2007,"geo_loc":[-122.02421,37.36965],"latitude":37.36965,"longitude":-122.02421,"n_total_money":0,"name":"coRank","number_of_employees":0,"total_money_raised":"$0","around_companies":9,"money_density":0.0,"sb_ratio":0.2222222222}
{"category_code":"web","company_class":"Big","founded_year":2007,"geo_loc":[4.8948623,52.3745228],"latitude":52.3745228,"longitude":4.8948623,"n_total_money":1000000,"name":"Wakoopa","number_of_employees":8,"total_money_raised":"$1M","around_companies":13,"money_density":1398769.2307692308,"sb_ratio":0.4615384615}
{"category_code":"games_video","company_class":"Big","founded_year":2005,"geo_loc":[-122.206893,37.484619],"latitude":37.484619,"longitude":-122.206893,"n_total_money":136000000,"name":"RockYou","number_of_employees":106,"total_money_raised":"$136M","around_companies":7,"money_density":78188571.4285714328,"sb_ratio":0.0}
{"category_code":"web","company_class":"Big","founded_year":2006,"geo_loc":[2.381514,48.866323],"latitude":48.866323,"longitude":2.381514,"n_total_money":0,"name":"WatZatSong","number_of_employees":3,"total_money_raised":"$0","around_companies":9,"money_density":251102.2222222222,"sb_ratio":0.4444444444}
{"category_code":"web","company_class":"Big","founded_year":2005,"geo_loc":[-122.358484,47.618599],"latitude":47.618599,"longitude":-122.358484,"n_total_money":1250000,"name":"Newsvine","number_of_employees":8,"total_money_raised":"$1.25M","around_companies":19,"money_density":4601000.0,"sb_ratio":0.2105263158}
{"category_code":"web","company_class":"Big","founded_year":2005,"geo_loc":[-122.401116,37.782103],"latitude":37.782103,"longitude":-122.401116,"n_total_money":15000000,"name":"Bebo","number_of_employees":0,"total_money_raised":"$15M","around_companies":117,"money_density":14948537.6068376061,"sb_ratio":0.2393162393}
{"category_code":"web","company_class":"Big","founded_year":2006,"geo_loc":[-122.39071,37.779507],"latitude":37.779507,"longitude":-122.39071,"n_total_money":140000000,"name":"Eventbrite","number_of_employees":200,"total_money_raised":"$140M","around_companies":88,"money_density":16568210.2272727266,"sb_ratio":0.2159090909}
{"category_code":"web","company_class":"Big","founded_year":2004,"geo_loc":[-122.025485,37.418531],"latitude":37.418531,"longitude":-122.025485,"n_total_money":0,"name":"Flickr","number_of_employees":36,"total_money_raised":"$0","around_companies":4,"money_density":21222500.0,"sb_ratio":0.0}
{"category_code":"web","company_class":"Big","founded_year":2006,"geo_loc":[-122.159928,37.437328],"latitude":37.437328,"longitude":-122.159928,"n_total_money":10000000,"name":"Terabitz","number_of_employees":12,"total_money_raised":"$10M","around_companies":39,"money_density":14380876.9230769239,"sb_ratio":0.4358974359}
{"category_code":"games_video","company_class":"Big","founded_year":2002,"geo_loc":[-122.323408,47.615313],"latitude":47.615313,"longitude":-122.323408,"n_total_money":16500000,"name":"iLike","number_of_employees":28,"total_money_raised":"$16.5M","around_companies":31,"money_density":6173693.5483870972,"sb_ratio":0.1935483871}
{"category_code":"network_hosting","company_class":"Big","founded_year":2005,"geo_loc":[-122.143701,37.425801],"latitude":37.425801,"longitude":-122.143701,"n_total_money":409000000,"name":"Box","number_of_employees":950,"total_money_raised":"$409M","around_companies":10,"money_density":43895720.0,"sb_ratio":0.4}
{"category_code":"network_hosting","company_class":"Big","founded_year":2006,"geo_loc":[-71.076869,42.350571],"latitude":42.350571,"longitude":-71.076869,"n_total_money":66000000,"name":"Carbonite","number_of_employees":68,"total_money_raised":"$66M","around_companies":15,"money_density":10178810.666666666,"sb_ratio":0.4}
{"category_code":"web","company_class":"Big","founded_year":2007,"geo_loc":[-122.511687,37.90077],"latitude":37.90077,"longitude":-122.511687,"n_total_money":0,"name":"CrowdVine","number_of_employees":10,"total_money_raised":"$0","around_companies":1,"money_density":0.0,"sb_ratio":0.0}
{"category_code":"web","company_class":"Big","founded_year":2004,"geo_loc":[-122.3985871,37.7618242],"latitude":37.7618242,"longitude":-122.3985871,"n_total_money":0,"name":"Techmeme","number_of_employees":11,"total_money_raised":"$0","around_companies":26,"money_density":18024057.6538461521,"sb_ratio":0.1153846154}
{"category_code":"web","company_class":"Big","founded_year":2007,"geo_loc":[-122.419204,37.775196],"latitude":37.775196,"longitude":-122.419204,"n_total_money":16000000,"name":"Seesmic","number_of_employees":13,"total_money_raised":"$16M","around_companies":57,"money_density":13767991.2105263155,"sb_ratio":0.2456140351}
{"category_code":"web","company_class":"Big","founded_year":2001,"geo_loc":[-84.351532,39.06685],"latitude":39.06685,"longitude":-84.351532,"n_total_money":0,"name":"TechnologyGuide","number_of_employees":10,"total_money_raised":"$0","around_companies":1,"money_density":0.0,"sb_ratio":0.0}
{"category_code":"web","company_class":"Big","founded_year":2005,"geo_loc":[-122.178557,37.479952],"latitude":37.479952,"longitude":-122.178557,"n_total_money":44000000,"name":"oDesk","number_of_employees":120,"total_money_raised":"$44M","around_companies":2,"money_density":66350000.0,"sb_ratio":0.0}
{"category_code":"search","company_class":"Big","founded_year":2004,"geo_loc":[-122.0780632,37.4219165],"latitude":37.4219165,"longitude":-122.0780632,"n_total_money":22300000,"name":"Simply Hired","number_of_employees":100,"total_money_raised":"$22.3M","around_companies":9,"money_density":24435333.3333333321,"sb_ratio":0.1111111111}
{"category_code":"web","company_class":"Big","founded_year":2006,"geo_loc":[34.7595,32.0554],"latitude":32.0554,"longitude":34.7595,"n_total_money":0,"name":"Go2Web20","number_of_employees":0,"total_money_raised":"$0","around_companies":9,"money_density":5152444.444444444,"sb_ratio":0.2222222222}
{"category_code":"network_hosting","company_class":"Big","founded_year":2007,"geo_loc":[-122.420903,37.796164],"latitude":37.796164,"longitude":-122.420903,"n_total_money":0,"name":"Cofoundr","number_of_employees":0,"total_money_raised":"$0","around_companies":59,"money_density":11205905.0847457629,"sb_ratio":0.3050847458}
{"category_code":"web","company_class":"Big","founded_year":1999,"geo_loc":[-122.450942,47.420728],"latitude":47.420728,"longitude":-122.450942,"n_total_money":0,"name":"Recipezaar","number_of_employees":5,"total_money_raised":"$0","around_companies":1,"money_density":0.0,"sb_ratio":0.0}
{"category_code":"web","company_class":"Big","founded_year":2004,"geo_loc":[-118.350486,34.070436],"latitude":34.070436,"longitude":-118.350486,"n_total_money":0,"name":"stylediary","number_of_employees":0,"total_money_raised":"$0","around_companies":7,"money_density":480000.0,"sb_ratio":0.4285714286}
{"category_code":"web","company_class":"Big","founded_year":2005,"geo_loc":[-122.301534,37.553121],"latitude":37.553121,"longitude":-122.301534,"n_total_money":31200000,"name":"Zvents","number_of_employees":55,"total_money_raised":"$31.2M","around_companies":13,"money_density":35521461.5384615362,"sb_ratio":0.1538461538}
{"category_code":"web","company_class":"Big","founded_year":2006,"geo_loc":[-122.547445,37.905544],"latitude":37.905544,"longitude":-122.547445,"n_total_money":0,"name":"Checkster","number_of_employees":0,"total_money_raised":"$0","around_companies":3,"money_density":0.0,"sb_ratio":0.0}
{"category_code":"web","company_class":"Big","founded_year":2004,"geo_loc":[-77.072003,38.897428],"latitude":38.897428,"longitude":-77.072003,"n_total_money":0,"name":"MyPublicInfo","number_of_employees":7,"total_money_raised":"$0","around_companies":4,"money_density":0.0,"sb_ratio":0.25}
{"category_code":"software","company_class":"StartUp","founded_year":2008,"geo_loc":[-122.392142,37.782263],"latitude":37.782263,"longitude":-122.392142,"n_total_money":8500000,"name":"GoingOn","number_of_employees":40,"total_money_raised":"$8.5M","around_companies":93,"money_density":13036500.0,"sb_ratio":0.2150537634}
{"category_code":"web","company_class":"Big","founded_year":2006,"geo_loc":[-122.406676,37.766909],"latitude":37.766909,"longitude":-122.406676,"n_total_money":7180000,"name":"Flixster","number_of_employees":75,"total_money_raised":"$7.18M","around_companies":64,"money_density":13144304.671875,"sb_ratio":0.25}
{"category_code":"software","company_class":"Big","founded_year":2005,"geo_loc":[-97.717667,30.407545],"latitude":30.407545,"longitude":-97.717667,"n_total_money":131000000,"name":"Bazaarvoice","number_of_employees":600,"total_money_raised":"$131M","around_companies":1,"money_density":131000000.0,"sb_ratio":0.0}
{"category_code":"software","company_class":"Big","founded_year":2006,"geo_loc":[-121.8731805,37.6637279],"latitude":37.6637279,"longitude":-121.8731805,"n_total_money":55600000,"name":"spigit","number_of_employees":120,"total_money_raised":"$55.6M","around_companies":2,"money_density":27800000.0,"sb_ratio":0.0}
{"category_code":"software","company_class":"Big","founded_year":2006,"geo_loc":[-77.3592746,38.9590083],"latitude":38.9590083,"longitude":-77.3592746,"n_total_money":55600000,"name":"spigit","number_of_employees":120,"total_money_raised":"$55.6M","around_companies":7,"money_density":10785714.2857142854,"sb_ratio":0.0}
{"category_code":"web","company_class":"Big","founded_year":2006,"geo_loc":[-118.601532,34.184598],"latitude":34.184598,"longitude":-118.601532,"n_total_money":0,"name":"Gumiyo","number_of_employees":0,"total_money_raised":"$0","around_companies":1,"money_density":0.0,"sb_ratio":0.0}
{"category_code":"software","company_class":"Big","founded_year":2006,"geo_loc":[-0.1394759,51.5170385],"latitude":51.5170385,"longitude":-0.1394759,"n_total_money":55600000,"name":"spigit","number_of_employees":120,"total_money_raised":"$55.6M","around_companies":20,"money_density":8906600.0,"sb_ratio":0.2}
{"category_code":"web","company_class":"Big","founded_year":2005,"geo_loc":[11.978686,44.418166],"latitude":44.418166,"longitude":11.978686,"n_total_money":0,"name":"Clipperz","number_of_employees":2,"total_money_raised":"$0","around_companies":1,"money_density":0.0,"sb_ratio":0.0}
{"category_code":"web","company_class":"Big","founded_year":2006,"geo_loc":[-122.321836,37.55909],"latitude":37.55909,"longitude":-122.321836,"n_total_money":1750000,"name":"Respectance","number_of_employees":15,"total_money_raised":"$1.75M","around_companies":11,"money_density":36566000.0,"sb_ratio":0.2727272727}
{"category_code":"web","company_class":"Big","founded_year":2007,"geo_loc":[-122.417928,37.779392],"latitude":37.779392,"longitude":-122.417928,"n_total_money":0,"name":"FeVote","number_of_employees":1,"total_money_raised":"$0","around_companies":91,"money_density":14424075.8241758235,"sb_ratio":0.2307692308}
{"category_code":"games_video","company_class":"Big","founded_year":2003,"geo_loc":[-122.400558,37.788668],"latitude":37.788668,"longitude":-122.400558,"n_total_money":52000000,"name":"hi5","number_of_employees":100,"total_money_raised":"$52M","around_companies":104,"money_density":11338456.7307692301,"sb_ratio":0.2403846154}
{"category_code":"games_video","company_class":"Big","founded_year":2005,"geo_loc":[-122.2262606,37.4858654],"latitude":37.4858654,"longitude":-122.2262606,"n_total_money":34000000,"name":"Vuze","number_of_employees":20,"total_money_raised":"$34M","around_companies":14,"money_density":43383142.8571428582,"sb_ratio":0.0714285714}
{"category_code":"ecommerce","company_class":"Big","founded_year":2006,"geo_loc":[-122.347533,47.620716],"latitude":47.620716,"longitude":-122.347533,"n_total_money":1300000,"name":"Wishpot","number_of_employees":10,"total_money_raised":"$1.3M","around_companies":27,"money_density":5437740.7407407407,"sb_ratio":0.1851851852}
{"category_code":"software","company_class":"Big","founded_year":2006,"geo_loc":[-111.944967,33.429864],"latitude":33.429864,"longitude":-111.944967,"n_total_money":0,"name":"JumpBox","number_of_employees":5,"total_money_raised":"$0","around_companies":1,"money_density":0.0,"sb_ratio":0.0}
{"category_code":"software","company_class":"Big","founded_year":1999,"geo_loc":[-122.3276962,47.5999337],"latitude":47.5999337,"longitude":-122.3276962,"n_total_money":31100000,"name":"PayScale","number_of_employees":130,"total_money_raised":"$31.1M","around_companies":22,"money_density":7157977.2727272725,"sb_ratio":0.1818181818}
{"category_code":"photo_video","company_class":"Big","founded_year":2003,"geo_loc":[-73.985506,40.757929],"latitude":40.757929,"longitude":-73.985506,"n_total_money":0,"name":"Clipmarks","number_of_employees":10,"total_money_raised":"$0","around_companies":79,"money_density":6443394.936708861,"sb_ratio":0.2911392405}
{"category_code":"web","company_class":"Big","founded_year":2003,"geo_loc":[-119.641821,34.42071],"latitude":34.42071,"longitude":-119.641821,"n_total_money":2700000,"name":"introNetworks","number_of_employees":11,"total_money_raised":"$2.7M","around_companies":1,"money_density":2700000.0,"sb_ratio":0.0}
{"category_code":"software","company_class":"Big","founded_year":2000,"geo_loc":[150.981801,-33.722577],"latitude":-33.722577,"longitude":150.981801,"n_total_money":0,"name":"Boonex","number_of_employees":16,"total_money_raised":"$0","around_companies":1,"money_density":0.0,"sb_ratio":0.0}
{"category_code":"mobile","company_class":"Big","founded_year":2006,"geo_loc":[18.1582777,59.3167843],"latitude":59.3167843,"longitude":18.1582777,"n_total_money":20000000,"name":"Rebtel","number_of_employees":75,"total_money_raised":"$20M","around_companies":1,"money_density":20000000.0,"sb_ratio":0.0}
{"category_code":"web","company_class":"Big","founded_year":2007,"geo_loc":[-122.073003,37.400465],"latitude":37.400465,"longitude":-122.073003,"n_total_money":315000,"name":"Buxfer","number_of_employees":4,"total_money_raised":"$315k","around_companies":21,"money_density":11820790.4761904757,"sb_ratio":0.1428571429}
{"category_code":"web","company_class":"Big","founded_year":2006,"geo_loc":[-105.276843,40.010492],"latitude":40.010492,"longitude":-105.276843,"n_total_money":515000,"name":"IntenseDebate","number_of_employees":4,"total_money_raised":"$515k","around_companies":11,"money_density":10517718.1818181816,"sb_ratio":0.3636363636}
{"category_code":"mobile","company_class":"Big","founded_year":2005,"geo_loc":[-122.18676,37.451026],"latitude":37.451026,"longitude":-122.18676,"n_total_money":21500000,"name":"Jaxtr","number_of_employees":30,"total_money_raised":"$21.5M","around_companies":11,"money_density":10293454.5454545449,"sb_ratio":0.2727272727}
{"category_code":"games_video","company_class":"Big","founded_year":2005,"geo_loc":[-122.356756,47.61968],"latitude":47.61968,"longitude":-122.356756,"n_total_money":10600000,"name":"BuddyTV","number_of_employees":20,"total_money_raised":"$10.6M","around_companies":21,"money_density":4162809.5238095238,"sb_ratio":0.1904761905}
{"category_code":"web","company_class":"Big","founded_year":2006,"geo_loc":[34.7595,32.0554],"latitude":32.0554,"longitude":34.7595,"n_total_money":0,"name":"MeeMix","number_of_employees":9,"total_money_raised":"$0","around_companies":9,"money_density":5152444.444444444,"sb_ratio":0.2222222222}
{"category_code":"network_hosting","company_class":"Big","founded_year":2006,"geo_loc":[-86.463026,37.018244],"latitude":37.018244,"longitude":-86.463026,"n_total_money":0,"name":"Outdoorzy","number_of_employees":2,"total_money_raised":"$0","around_companies":1,"money_density":0.0,"sb_ratio":0.0}
{"category_code":"games_video","company_class":"Big","founded_year":2006,"geo_loc":[34.851612,31.046051],"latitude":31.046051,"longitude":34.851612,"n_total_money":14500000,"name":"Aniboom","number_of_employees":25,"total_money_raised":"$14.5M","around_companies":4,"money_density":3625000.0,"sb_ratio":0.0}
{"category_code":"web","company_class":"Big","founded_year":2005,"geo_loc":[-79.549577,43.76969],"latitude":43.76969,"longitude":-79.549577,"n_total_money":0,"name":"Webkinz","number_of_employees":8657,"total_money_raised":"$0","around_companies":1,"money_density":0.0,"sb_ratio":0.0}
{"category_code":"web","company_class":"Big","founded_year":2004,"geo_loc":[-122.0727749,37.3927975],"latitude":37.3927975,"longitude":-122.0727749,"n_total_money":29000000,"name":"IMVU","number_of_employees":150,"total_money_raised":"$29M","around_companies":22,"money_density":12693045.4545454551,"sb_ratio":0.1363636364}
{"category_code":"network_hosting","company_class":"Big","founded_year":2000,"geo_loc":[-73.990004,40.740251],"latitude":40.740251,"longitude":-73.990004,"n_total_money":5500000,"name":"SelectMinds","number_of_employees":55,"total_money_raised":"$5.5M","around_companies":92,"money_density":6784089.1304347822,"sb_ratio":0.2826086957}
{"category_code":"web","company_class":"Big","founded_year":2005,"geo_loc":[-122.228843,37.491356],"latitude":37.491356,"longitude":-122.228843,"n_total_money":28300000,"name":"Flock","number_of_employees":40,"total_money_raised":"$28.3M","around_companies":12,"money_density":8513666.666666666,"sb_ratio":0.0833333333}
{"category_code":"web","company_class":"Big","founded_year":2006,"geo_loc":[-96.76492,17.08881],"latitude":17.08881,"longitude":-96.76492,"n_total_money":3200000,"name":"Sportingo","number_of_employees":0,"total_money_raised":"$3.2M","around_companies":1,"money_density":3200000.0,"sb_ratio":0.0}
{"category_code":"network_hosting","company_class":"Big","founded_year":2004,"geo_loc":[-121.935688,37.288974],"latitude":37.288974,"longitude":-121.935688,"n_total_money":82700000,"name":"Hightail","number_of_employees":200,"total_money_raised":"$82.7M","around_companies":7,"money_density":18795314.2857142873,"sb_ratio":0.1428571429}
{"category_code":"network_hosting","company_class":"Big","founded_year":2005,"geo_loc":[-1.197534,51.785428],"latitude":51.785428,"longitude":-1.197534,"n_total_money":390000,"name":"Curverider","number_of_employees":5,"total_money_raised":"\u00a3300k","around_companies":1,"money_density":390000.0,"sb_ratio":0.0}
{"category_code":"network_hosting","company_class":"Big","founded_year":2007,"geo_loc":[-105.2762236,40.0186731],"latitude":40.0186731,"longitude":-105.2762236,"n_total_money":539500,"name":"Socialthing","number_of_employees":5,"total_money_raised":"$415k","around_companies":12,"money_density":9641241.666666666,"sb_ratio":0.3333333333}
{"category_code":"web","company_class":"Big","founded_year":2006,"geo_loc":[-122.400729,37.795555],"latitude":37.795555,"longitude":-122.400729,"n_total_money":871000,"name":"Weebly","number_of_employees":70,"total_money_raised":"$670k","around_companies":94,"money_density":12520659.5744680855,"sb_ratio":0.2553191489}
{"category_code":"games_video","company_class":"Big","founded_year":2006,"geo_loc":[-122.401245,37.786942],"latitude":37.786942,"longitude":-122.401245,"n_total_money":24700000,"name":"Kongregate","number_of_employees":20,"total_money_raised":"$19M","around_companies":102,"money_density":11914897.0588235296,"sb_ratio":0.2254901961}
{"category_code":"web","company_class":"Big","founded_year":2007,"geo_loc":[-105.276843,40.010492],"latitude":40.010492,"longitude":-105.276843,"n_total_money":2496000,"name":"Filtrbox","number_of_employees":14,"total_money_raised":"$1.92M","around_companies":11,"money_density":10517718.1818181816,"sb_ratio":0.3636363636}
{"category_code":"web","company_class":"Big","founded_year":2005,"geo_loc":[-122.145783,37.427235],"latitude":37.427235,"longitude":-122.145783,"n_total_money":7475000,"name":"Doostang","number_of_employees":10,"total_money_raised":"$5.75M","around_companies":13,"money_density":33915938.4615384638,"sb_ratio":0.3076923077}
{"category_code":"network_hosting","company_class":"Big","founded_year":2007,"geo_loc":[-122.397593,37.789488],"latitude":37.789488,"longitude":-122.397593,"n_total_money":10400000,"name":"Zivity","number_of_employees":16,"total_money_raised":"$8M","around_companies":94,"money_density":12382750.0,"sb_ratio":0.2446808511}
{"category_code":"network_hosting","company_class":"Big","founded_year":2003,"geo_loc":[-118.372953,34.076061],"latitude":34.076061,"longitude":-118.372953,"n_total_money":0,"name":"MySpace","number_of_employees":800,"total_money_raised":"$0","around_companies":8,"money_density":0.0,"sb_ratio":0.375}
{"category_code":"web","company_class":"Big","founded_year":2004,"geo_loc":[-122.394668,37.790998],"latitude":37.790998,"longitude":-122.394668,"n_total_money":53040000,"name":"BitTorrent","number_of_employees":80,"total_money_raised":"$40.8M","around_companies":93,"money_density":12503666.666666666,"sb_ratio":0.247311828}
{"category_code":"search","company_class":"Big","founded_year":2004,"geo_loc":[-122.406676,37.766909],"latitude":37.766909,"longitude":-122.406676,"n_total_money":331500000,"name":"Trulia","number_of_employees":500,"total_money_raised":"$255M","around_companies":64,"money_density":13144304.671875,"sb_ratio":0.25}
{"category_code":"web","company_class":"Big","founded_year":2001,"geo_loc":[101.686855,3.139003],"latitude":3.139003,"longitude":101.686855,"n_total_money":63050000,"name":"Friendster","number_of_employees":70,"total_money_raised":"$48.5M","around_companies":1,"money_density":63050000.0,"sb_ratio":0.0}
{"category_code":"search","company_class":"Big","founded_year":2000,"geo_loc":[-71.207055,42.38532],"latitude":42.38532,"longitude":-71.207055,"n_total_money":9100000,"name":"ZoomInfo","number_of_employees":800,"total_money_raised":"$7M","around_companies":1,"money_density":9100000.0,"sb_ratio":0.0}
{"category_code":"games_video","company_class":"Big","founded_year":2005,"geo_loc":[-71.058768,42.350274],"latitude":42.350274,"longitude":-71.058768,"n_total_money":13650000,"name":"MocoSpace","number_of_employees":25,"total_money_raised":"$10.5M","around_companies":10,"money_density":13762376.0,"sb_ratio":0.3}
{"category_code":"games_video","company_class":"StartUp","founded_year":2008,"geo_loc":[-122.151158,47.597965],"latitude":47.597965,"longitude":-122.151158,"n_total_money":0,"name":"YouBeQB","number_of_employees":8,"total_money_raised":"$0","around_companies":1,"money_density":0.0,"sb_ratio":1.0}
{"category_code":"search","company_class":"Big","founded_year":2001,"geo_loc":[-78.815635,35.854483],"latitude":35.854483,"longitude":-78.815635,"n_total_money":97500000,"name":"ChannelAdvisor","number_of_employees":300,"total_money_raised":"$75M","around_companies":1,"money_density":97500000.0,"sb_ratio":0.0}
{"category_code":"search","company_class":"Big","founded_year":2000,"geo_loc":[-75.066111,3.046111],"latitude":3.046111,"longitude":-75.066111,"n_total_money":0,"name":"airG","number_of_employees":180,"total_money_raised":"$0","around_companies":1,"money_density":0.0,"sb_ratio":0.0}
{"category_code":"network_hosting","company_class":"Big","founded_year":2002,"geo_loc":[-73.985506,40.757929],"latitude":40.757929,"longitude":-73.985506,"n_total_money":5200000,"name":"Fotolog","number_of_employees":40,"total_money_raised":"$4M","around_companies":79,"money_density":6443394.936708861,"sb_ratio":0.2911392405}
{"category_code":"web","company_class":"Big","founded_year":2007,"geo_loc":[-118.495025,34.018275],"latitude":34.018275,"longitude":-118.495025,"n_total_money":5200000,"name":"Docstoc","number_of_employees":40,"total_money_raised":"$4M","around_companies":8,"money_density":6040000.0,"sb_ratio":0.625}
{"category_code":"games_video","company_class":"StartUp","founded_year":2008,"geo_loc":[-122.393229,37.781265],"latitude":37.781265,"longitude":-122.393229,"n_total_money":6240000,"name":"Crunchyroll","number_of_employees":50,"total_money_raised":"$4.8M","around_companies":92,"money_density":16217940.2173913047,"sb_ratio":0.2173913043}
{"category_code":"mobile","company_class":"Big","founded_year":2005,"geo_loc":[-122.143915,37.42746],"latitude":37.42746,"longitude":-122.143915,"n_total_money":9750000,"name":"SayNow","number_of_employees":20,"total_money_raised":"$7.5M","around_companies":13,"money_density":33915938.4615384638,"sb_ratio":0.3076923077}
{"category_code":"games_video","company_class":"Big","founded_year":2007,"geo_loc":[-79.348037,43.799511],"latitude":43.799511,"longitude":-79.348037,"n_total_money":0,"name":"Contrastream","number_of_employees":1,"total_money_raised":"$0","around_companies":1,"money_density":0.0,"sb_ratio":0.0}
{"category_code":"web","company_class":"Big","founded_year":2000,"geo_loc":[4.400604,50.796645],"latitude":50.796645,"longitude":4.400604,"n_total_money":0,"name":"ContactOffice","number_of_employees":10,"total_money_raised":"$0","around_companies":3,"money_density":0.0,"sb_ratio":0.3333333333}
{"category_code":"mobile","company_class":"Big","founded_year":2003,"geo_loc":[-121.973228,37.387114],"latitude":37.387114,"longitude":-121.973228,"n_total_money":9620000,"name":"PixSense","number_of_employees":35,"total_money_raised":"$7.4M","around_companies":15,"money_density":29541000.0,"sb_ratio":0.0}
{"category_code":"web","company_class":"Big","founded_year":2006,"geo_loc":[-74.004592,40.74406],"latitude":40.74406,"longitude":-74.004592,"n_total_money":8450000,"name":"Behance","number_of_employees":30,"total_money_raised":"$6.5M","around_companies":72,"money_density":6582030.555555556,"sb_ratio":0.2777777778}
{"category_code":"games_video","company_class":"Big","founded_year":2003,"geo_loc":[-93.4094629,44.865243],"latitude":44.865243,"longitude":-93.4094629,"n_total_money":0,"name":"Yugma","number_of_employees":38,"total_money_raised":"$0","around_companies":2,"money_density":0.0,"sb_ratio":0.0}
{"category_code":"web","company_class":"Big","founded_year":2007,"geo_loc":[-122.419204,37.775196],"latitude":37.775196,"longitude":-122.419204,"n_total_money":0,"name":"MicroPlace","number_of_employees":15,"total_money_raised":"$0","around_companies":57,"money_density":13767991.2105263155,"sb_ratio":0.2456140351}
{"category_code":"web","company_class":"Big","founded_year":2007,"geo_loc":[-122.3276962,47.5999337],"latitude":47.5999337,"longitude":-122.3276962,"n_total_money":1495000,"name":"EyeJot","number_of_employees":5,"total_money_raised":"$1.15M","around_companies":22,"money_density":7157977.2727272725,"sb_ratio":0.1818181818}
{"category_code":"games_video","company_class":"Big","founded_year":2007,"geo_loc":[-118.456806,34.031276],"latitude":34.031276,"longitude":-118.456806,"n_total_money":130000000,"name":"hulu","number_of_employees":153,"total_money_raised":"$100M","around_companies":4,"money_density":46416000.0,"sb_ratio":0.25}
{"category_code":"games_video","company_class":"Big","founded_year":2007,"geo_loc":[-122.333523,47.611012],"latitude":47.611012,"longitude":-122.333523,"n_total_money":0,"name":"MediaPops","number_of_employees":0,"total_money_raised":"$0","around_companies":35,"money_density":6164700.0,"sb_ratio":0.2}
{"category_code":"web","company_class":"Big","founded_year":2007,"geo_loc":[-73.986771,40.753202],"latitude":40.753202,"longitude":-73.986771,"n_total_money":0,"name":"LineUpNewYork","number_of_employees":0,"total_money_raised":"$0","around_companies":93,"money_density":7502907.5268817209,"sb_ratio":0.2688172043}
{"category_code":"search","company_class":"Big","founded_year":2007,"geo_loc":[-0.1065551,51.5195795],"latitude":51.5195795,"longitude":-0.1065551,"n_total_money":0,"name":"FAROO","number_of_employees":5,"total_money_raised":"$0","around_companies":29,"money_density":3930248.2758620689,"sb_ratio":0.2413793103}
{"category_code":"search","company_class":"StartUp","founded_year":2012,"geo_loc":[-73.985506,40.757929],"latitude":40.757929,"longitude":-73.985506,"n_total_money":2379000,"name":"PeekYou","number_of_employees":20,"total_money_raised":"$1.83M","around_companies":79,"money_density":6443394.936708861,"sb_ratio":0.2911392405}
{"category_code":"web","company_class":"Big","founded_year":2007,"geo_loc":[-79.420926,38.003376],"latitude":38.003376,"longitude":-79.420926,"n_total_money":4550000,"name":"Mixx","number_of_employees":11,"total_money_raised":"$3.5M","around_companies":3,"money_density":1703333.3333333333,"sb_ratio":0.0}
{"category_code":"software","company_class":"Big","founded_year":2005,"geo_loc":[-122.228595,37.453687],"latitude":37.453687,"longitude":-122.228595,"n_total_money":32760000,"name":"Attributor","number_of_employees":0,"total_money_raised":"$25.2M","around_companies":1,"money_density":32760000.0,"sb_ratio":0.0}
{"category_code":"web","company_class":"Big","founded_year":2006,"geo_loc":[-105.38018,40.048078],"latitude":40.048078,"longitude":-105.38018,"n_total_money":0,"name":"Kerpoof","number_of_employees":0,"total_money_raised":"$0","around_companies":1,"money_density":0.0,"sb_ratio":0.0}
{"category_code":"ecommerce","company_class":"Big","founded_year":2007,"geo_loc":[-117.572967,34.099253],"latitude":34.099253,"longitude":-117.572967,"n_total_money":0,"name":"ThemBid","number_of_employees":7,"total_money_raised":"$0","around_companies":1,"money_density":0.0,"sb_ratio":0.0}
{"category_code":"web","company_class":"Big","founded_year":2006,"geo_loc":[-122.421341,37.793742],"latitude":37.793742,"longitude":-122.421341,"n_total_money":325000,"name":"YourStreet","number_of_employees":6,"total_money_raised":"$250k","around_companies":60,"money_density":11575240.0,"sb_ratio":0.3}
{"category_code":"web","company_class":"Big","founded_year":2004,"geo_loc":[6.182658,49.1004],"latitude":49.1004,"longitude":6.182658,"n_total_money":65000,"name":"HylioSoft","number_of_employees":3,"total_money_raised":"$50k","around_companies":2,"money_density":32500.0,"sb_ratio":0.5}
{"category_code":"software","company_class":"Big","founded_year":2006,"geo_loc":[-122.675448,45.5241278],"latitude":45.5241278,"longitude":-122.675448,"n_total_money":0,"name":"Vidoop","number_of_employees":30,"total_money_raised":"$0","around_companies":6,"money_density":2473333.3333333335,"sb_ratio":0.3333333333}
{"category_code":"ecommerce","company_class":"Big","founded_year":2005,"geo_loc":[-73.566634,45.506643],"latitude":45.506643,"longitude":-73.566634,"n_total_money":0,"name":"SmartHippo","number_of_employees":10,"total_money_raised":"$0","around_companies":8,"money_density":0.0,"sb_ratio":0.625}
{"category_code":"mobile","company_class":"Big","founded_year":2005,"geo_loc":[-77.123153,39.052614],"latitude":39.052614,"longitude":-77.123153,"n_total_money":0,"name":"Snoozester","number_of_employees":0,"total_money_raised":"$0","around_companies":1,"money_density":0.0,"sb_ratio":0.0}
{"category_code":"web","company_class":"Big","founded_year":2006,"geo_loc":[-95.536,30.182107],"latitude":30.182107,"longitude":-95.536,"n_total_money":0,"name":"IMSafer","number_of_employees":5,"total_money_raised":"$0","around_companies":1,"money_density":0.0,"sb_ratio":0.0}
{"category_code":"games_video","company_class":"Big","founded_year":2006,"geo_loc":[-122.335943,47.6015315],"latitude":47.6015315,"longitude":-122.335943,"n_total_money":5161000,"name":"FlowPlay","number_of_employees":30,"total_money_raised":"$3.97M","around_companies":23,"money_density":7014760.8695652178,"sb_ratio":0.1739130435}
{"category_code":"mobile","company_class":"StartUp","founded_year":2010,"geo_loc":[-111.9035,33.8171],"latitude":33.8171,"longitude":-111.9035,"n_total_money":9230000,"name":"GENWI","number_of_employees":25,"total_money_raised":"$7.1M","around_companies":1,"money_density":9230000.0,"sb_ratio":1.0}
{"category_code":"web","company_class":"Big","founded_year":2006,"geo_loc":[-117.274609,32.847521],"latitude":32.847521,"longitude":-117.274609,"n_total_money":219700,"name":"app2you","number_of_employees":4,"total_money_raised":"$169k","around_companies":4,"money_density":1679925.0,"sb_ratio":0.0}
{"category_code":"web","company_class":"Big","founded_year":2006,"geo_loc":[-87.63406,41.890376],"latitude":41.890376,"longitude":-87.63406,"n_total_money":6500000,"name":"Viewpoints","number_of_employees":15,"total_money_raised":"$5M","around_companies":26,"money_density":2384030.769230769,"sb_ratio":0.1923076923}
{"category_code":"web","company_class":"Big","founded_year":2007,"geo_loc":[-122.084356,47.585114],"latitude":47.585114,"longitude":-122.084356,"n_total_money":585000,"name":"Feedjit","number_of_employees":2,"total_money_raised":"$450k","around_companies":1,"money_density":585000.0,"sb_ratio":0.0}
{"category_code":"web","company_class":"Big","founded_year":2007,"geo_loc":[-115.089514,36.076705],"latitude":36.076705,"longitude":-115.089514,"n_total_money":0,"name":"Swamble","number_of_employees":0,"total_money_raised":"$0","around_companies":2,"money_density":0.0,"sb_ratio":0.0}
{"category_code":"web","company_class":"Big","founded_year":2006,"geo_loc":[-122.306571,37.799549],"latitude":37.799549,"longitude":-122.306571,"n_total_money":0,"name":"Data360","number_of_employees":0,"total_money_raised":"$0","around_companies":1,"money_density":0.0,"sb_ratio":0.0}
{"category_code":"games_video","company_class":"Big","founded_year":2005,"geo_loc":[-122.343679,37.580304],"latitude":37.580304,"longitude":-122.343679,"n_total_money":42120000,"name":"mig33","number_of_employees":100,"total_money_raised":"$32.4M","around_companies":10,"money_density":7639200.0,"sb_ratio":0.1}
{"category_code":"web","company_class":"Big","founded_year":2007,"geo_loc":[-121.983814,37.222604],"latitude":37.222604,"longitude":-121.983814,"n_total_money":0,"name":"Houseglue","number_of_employees":5,"total_money_raised":"$0","around_companies":4,"money_density":3250000.0,"sb_ratio":0.5}
{"category_code":"web","company_class":"Big","founded_year":2007,"geo_loc":[-122.285714,37.557637],"latitude":37.557637,"longitude":-122.285714,"n_total_money":15080000,"name":"SpeedDate","number_of_employees":0,"total_money_raised":"$11.6M","around_companies":12,"money_density":44589083.3333333358,"sb_ratio":0.1666666667}
{"category_code":"web","company_class":"Big","founded_year":2006,"geo_loc":[-118.441219,33.945553],"latitude":33.945553,"longitude":-118.441219,"n_total_money":0,"name":"Pakt","number_of_employees":0,"total_money_raised":"$0","around_companies":1,"money_density":0.0,"sb_ratio":0.0}
{"category_code":"web","company_class":"Big","founded_year":2007,"geo_loc":[-71.118487,42.375392],"latitude":42.375392,"longitude":-71.118487,"n_total_money":2275000,"name":"UpDown","number_of_employees":5,"total_money_raised":"$1.75M","around_companies":9,"money_density":19608333.3333333321,"sb_ratio":0.1111111111}
{"category_code":"games_video","company_class":"Big","founded_year":2006,"geo_loc":[-122.26999,37.887864],"latitude":37.887864,"longitude":-122.26999,"n_total_money":650000,"name":"Realius","number_of_employees":3,"total_money_raised":"$500k","around_companies":5,"money_density":1946640.0,"sb_ratio":0.4}
{"category_code":"software","company_class":"Big","founded_year":2006,"geo_loc":[-122.404052,37.789634],"latitude":37.789634,"longitude":-122.404052,"n_total_money":54340000,"name":"Xobni","number_of_employees":0,"total_money_raised":"$41.8M","around_companies":106,"money_density":11124523.5849056598,"sb_ratio":0.2452830189}
{"category_code":"web","company_class":"StartUp","founded_year":2013,"geo_loc":[-122.323895,37.566879],"latitude":37.566879,"longitude":-122.323895,"n_total_money":10400000,"name":"Fixya","number_of_employees":30,"total_money_raised":"$8M","around_companies":4,"money_density":4437500.0,"sb_ratio":0.75}
{"category_code":"software","company_class":"Big","founded_year":2002,"geo_loc":[-122.302262,37.559287],"latitude":37.559287,"longitude":-122.302262,"n_total_money":32630000,"name":"Spoke","number_of_employees":8,"total_money_raised":"$25.1M","around_companies":13,"money_density":35521461.5384615362,"sb_ratio":0.1538461538}
{"category_code":"games_video","company_class":"Big","founded_year":2006,"geo_loc":[-117.077311,33.020832],"latitude":33.020832,"longitude":-117.077311,"n_total_money":12220000,"name":"Metaplace","number_of_employees":12,"total_money_raised":"$9.4M","around_companies":1,"money_density":12220000.0,"sb_ratio":0.0}
{"category_code":"web","company_class":"Big","founded_year":2006,"geo_loc":[-122.012475,37.384239],"latitude":37.384239,"longitude":-122.012475,"n_total_money":0,"name":"Tripwiser","number_of_employees":0,"total_money_raised":"$0","around_companies":10,"money_density":1189500.0,"sb_ratio":0.1}
{"category_code":"mobile","company_class":"Big","founded_year":2005,"geo_loc":[14.489674,50.055049],"latitude":50.055049,"longitude":14.489674,"n_total_money":0,"name":"Wirenode","number_of_employees":0,"total_money_raised":"$0","around_companies":1,"money_density":0.0,"sb_ratio":0.0}
{"category_code":"web","company_class":"Big","founded_year":2006,"geo_loc":[-96.9403,32.860831],"latitude":32.860831,"longitude":-96.9403,"n_total_money":0,"name":"Syntraxis","number_of_employees":6,"total_money_raised":"$0","around_companies":1,"money_density":0.0,"sb_ratio":0.0}
{"category_code":"mobile","company_class":"Big","founded_year":2003,"geo_loc":[-75.194657,39.956259],"latitude":39.956259,"longitude":-75.194657,"n_total_money":130000,"name":"Styky","number_of_employees":3,"total_money_raised":"$100k","around_companies":4,"money_density":2556700.0,"sb_ratio":0.0}
{"category_code":"web","company_class":"Big","founded_year":2006,"geo_loc":[-71.118487,42.375392],"latitude":42.375392,"longitude":-71.118487,"n_total_money":3900000,"name":"GamerDNA","number_of_employees":13,"total_money_raised":"$3M","around_companies":9,"money_density":19608333.3333333321,"sb_ratio":0.1111111111}
{"category_code":"software","company_class":"Big","founded_year":2005,"geo_loc":[-122.393041,37.779558],"latitude":37.779558,"longitude":-122.393041,"n_total_money":0,"name":"GroupSwim","number_of_employees":9,"total_money_raised":"$0","around_companies":88,"money_density":16568210.2272727266,"sb_ratio":0.2159090909}
{"category_code":"games_video","company_class":"Big","founded_year":2006,"geo_loc":[34.7595,32.0554],"latitude":32.0554,"longitude":34.7595,"n_total_money":0,"name":"SuTree","number_of_employees":5,"total_money_raised":"$0","around_companies":9,"money_density":5152444.444444444,"sb_ratio":0.2222222222}
{"category_code":"web","company_class":"Big","founded_year":2003,"geo_loc":[-80.632606,28.074742],"latitude":28.074742,"longitude":-80.632606,"n_total_money":0,"name":"itsmylife","number_of_employees":2,"total_money_raised":"$0","around_companies":1,"money_density":0.0,"sb_ratio":0.0}
{"category_code":"games_video","company_class":"Big","founded_year":2006,"geo_loc":[-122.036849,37.369195],"latitude":37.369195,"longitude":-122.036849,"n_total_money":0,"name":"EkkoTV","number_of_employees":0,"total_money_raised":"$0","around_companies":5,"money_density":0.0,"sb_ratio":0.2}
{"category_code":"web","company_class":"Big","founded_year":2006,"geo_loc":[175.2604,-37.797384],"latitude":-37.797384,"longitude":175.2604,"n_total_money":0,"name":"Type-Any-Circle-Of-Six","number_of_employees":0,"total_money_raised":"$0","around_companies":1,"money_density":0.0,"sb_ratio":0.0}
{"category_code":"mobile","company_class":"Big","founded_year":2006,"geo_loc":[-73.976348,40.756799],"latitude":40.756799,"longitude":-73.976348,"n_total_money":22880000,"name":"Worklight","number_of_employees":30,"total_money_raised":"$17.6M","around_companies":70,"money_density":6727511.4285714282,"sb_ratio":0.2571428571}
{"category_code":"web","company_class":"Big","founded_year":2007,"geo_loc":[-118.474261,34.210785],"latitude":34.210785,"longitude":-118.474261,"n_total_money":0,"name":"Dopetracks","number_of_employees":4,"total_money_raised":"$0","around_companies":2,"money_density":2925000.0,"sb_ratio":0.5}
{"category_code":"web","company_class":"Big","founded_year":2006,"geo_loc":[-122.542491,37.904468],"latitude":37.904468,"longitude":-122.542491,"n_total_money":0,"name":"Stixy","number_of_employees":0,"total_money_raised":"$0","around_companies":3,"money_density":0.0,"sb_ratio":0.0}
{"category_code":"web","company_class":"Big","founded_year":2007,"geo_loc":[-122.104099,37.401355],"latitude":37.401355,"longitude":-122.104099,"n_total_money":175500,"name":"SueEasy","number_of_employees":6,"total_money_raised":"$135k","around_companies":2,"money_density":3727750.0,"sb_ratio":0.0}
{"category_code":"search","company_class":"Big","founded_year":2002,"geo_loc":[-122.347533,47.620716],"latitude":47.620716,"longitude":-122.347533,"n_total_money":25090000,"name":"Moz","number_of_employees":130,"total_money_raised":"$19.3M","around_companies":27,"money_density":5437740.7407407407,"sb_ratio":0.1851851852}
{"category_code":"software","company_class":"Big","founded_year":2003,"geo_loc":[-0.149522,51.54236],"latitude":51.54236,"longitude":-0.149522,"n_total_money":1040000,"name":"Jiglu","number_of_employees":3,"total_money_raised":"$800k","around_companies":4,"money_density":13227500.0,"sb_ratio":0.25}
{"category_code":"mobile","company_class":"Big","founded_year":2006,"geo_loc":[-3.632687,40.530724],"latitude":40.530724,"longitude":-3.632687,"n_total_money":49280000,"name":"Fon","number_of_employees":100,"total_money_raised":"\u20ac44M","around_companies":1,"money_density":49280000.0,"sb_ratio":0.0}
{"category_code":"web","company_class":"Big","founded_year":2007,"geo_loc":[-117.20717,32.856744],"latitude":32.856744,"longitude":-117.20717,"n_total_money":0,"name":"RecipeMatcher","number_of_employees":2,"total_money_raised":"$0","around_companies":2,"money_density":0.0,"sb_ratio":0.5}
{"category_code":"web","company_class":"Big","founded_year":2007,"geo_loc":[-122.495222,37.856331],"latitude":37.856331,"longitude":-122.495222,"n_total_money":4480000,"name":"Whiskey Media","number_of_employees":12,"total_money_raised":"$4M","around_companies":6,"money_density":25349333.3333333321,"sb_ratio":0.3333333333}
{"category_code":"games_video","company_class":"StartUp","founded_year":2009,"geo_loc":[10.023246,53.707739],"latitude":53.707739,"longitude":10.023246,"n_total_money":0,"name":"alluc","number_of_employees":7,"total_money_raised":"$0","around_companies":1,"money_density":0.0,"sb_ratio":1.0}
{"category_code":"web","company_class":"Big","founded_year":2007,"geo_loc":[-122.083487,37.386175],"latitude":37.386175,"longitude":-122.083487,"n_total_money":24752000,"name":"Polyvore","number_of_employees":73,"total_money_raised":"$22.1M","around_companies":21,"money_density":11949857.1428571437,"sb_ratio":0.1428571429}
{"category_code":"web","company_class":"Big","founded_year":2005,"geo_loc":[4.5188631,51.9562996],"latitude":51.9562996,"longitude":4.5188631,"n_total_money":0,"name":"Woophy","number_of_employees":0,"total_money_raised":"$0","around_companies":1,"money_density":0.0,"sb_ratio":0.0}
{"category_code":"ecommerce","company_class":"Big","founded_year":2005,"geo_loc":[-122.40414,37.792968],"latitude":37.792968,"longitude":-122.40414,"n_total_money":24192000,"name":"Blurb","number_of_employees":150,"total_money_raised":"$21.6M","around_companies":102,"money_density":11549627.4509803914,"sb_ratio":0.2450980392}
{"category_code":"web","company_class":"Big","founded_year":1999,"geo_loc":[-118.468458,34.011335],"latitude":34.011335,"longitude":-118.468458,"n_total_money":20048000,"name":"JibJab","number_of_employees":37,"total_money_raised":"$17.9M","around_companies":8,"money_density":14392000.0,"sb_ratio":0.25}
{"category_code":"web","company_class":"Big","founded_year":2005,"geo_loc":[-122.421344,37.744274],"latitude":37.744274,"longitude":-122.421344,"n_total_money":34272000,"name":"Automattic","number_of_employees":200,"total_money_raised":"$30.6M","around_companies":9,"money_density":4599111.0,"sb_ratio":0.2222222222}
{"category_code":"web","company_class":"Big","founded_year":2007,"geo_loc":[-122.77941,45.3085],"latitude":45.3085,"longitude":-122.77941,"n_total_money":0,"name":"LocoGopher","number_of_employees":0,"total_money_raised":"$0","around_companies":1,"money_density":0.0,"sb_ratio":0.0}
{"category_code":"games_video","company_class":"Big","founded_year":2006,"geo_loc":[-122.300246,37.553743],"latitude":37.553743,"longitude":-122.300246,"n_total_money":9296000,"name":"Veodia","number_of_employees":15,"total_money_raised":"$8.3M","around_companies":13,"money_density":35521461.5384615362,"sb_ratio":0.1538461538}
{"category_code":"web","company_class":"Big","founded_year":2000,"geo_loc":[-123.115208,49.25403],"latitude":49.25403,"longitude":-123.115208,"n_total_money":0,"name":"Ubertor","number_of_employees":20,"total_money_raised":"$0","around_companies":3,"money_density":0.0,"sb_ratio":0.3333333333}
{"category_code":"web","company_class":"Big","founded_year":2006,"geo_loc":[-122.430127,37.772542],"latitude":37.772542,"longitude":-122.430127,"n_total_money":0,"name":"Crusher","number_of_employees":3,"total_money_raised":"$0","around_companies":39,"money_density":5483484.615384615,"sb_ratio":0.2820512821}
{"category_code":"web","company_class":"Big","founded_year":2005,"geo_loc":[-122.160671,37.445326],"latitude":37.445326,"longitude":-122.160671,"n_total_money":9520000,"name":"EchoSign","number_of_employees":100,"total_money_raised":"$8.5M","around_companies":38,"money_density":5219647.3684210526,"sb_ratio":0.4210526316}
{"category_code":"web","company_class":"Big","founded_year":2006,"geo_loc":[-75.298032,40.09665],"latitude":40.09665,"longitude":-75.298032,"n_total_money":0,"name":"XLNTads","number_of_employees":6,"total_money_raised":"$0","around_companies":1,"money_density":0.0,"sb_ratio":0.0}
{"category_code":"mobile","company_class":"Big","founded_year":2003,"geo_loc":[-121.932962,37.285133],"latitude":37.285133,"longitude":-121.932962,"n_total_money":44576000,"name":"Firetide","number_of_employees":100,"total_money_raised":"$39.8M","around_companies":6,"money_density":21927866.6666666679,"sb_ratio":0.0}
{"category_code":"software","company_class":"Big","founded_year":1999,"geo_loc":[0.239866,51.604922],"latitude":51.604922,"longitude":0.239866,"n_total_money":24080000,"name":"Skinkers","number_of_employees":12,"total_money_raised":"$21.5M","around_companies":1,"money_density":24080000.0,"sb_ratio":0.0}
{"category_code":"network_hosting","company_class":"Big","founded_year":2006,"geo_loc":[-122.347654,37.590056],"latitude":37.590056,"longitude":-122.347654,"n_total_money":2800000,"name":"BitGravity","number_of_employees":50,"total_money_raised":"$2.5M","around_companies":10,"money_density":7975200.0,"sb_ratio":0.0}
{"category_code":"software","company_class":"Big","founded_year":2004,"geo_loc":[-122.006539,37.332271],"latitude":37.332271,"longitude":-122.006539,"n_total_money":31136000,"name":"Baynote","number_of_employees":80,"total_money_raised":"$27.8M","around_companies":2,"money_density":40208000.0,"sb_ratio":0.0}
{"category_code":"web","company_class":"Big","founded_year":2004,"geo_loc":[-73.9800645,40.6632194],"latitude":40.6632194,"longitude":-73.9800645,"n_total_money":0,"name":"Simpy","number_of_employees":0,"total_money_raised":"$0","around_companies":4,"money_density":214500.0,"sb_ratio":0.5}
{"category_code":"games_video","company_class":"Big","founded_year":2007,"geo_loc":[-121.956295,37.279132],"latitude":37.279132,"longitude":-121.956295,"n_total_money":0,"name":"DraftMix","number_of_employees":3,"total_money_raised":"$0","around_companies":4,"money_density":4200000.0,"sb_ratio":0.25}
{"category_code":"web","company_class":"Big","founded_year":2007,"geo_loc":[-71.288568,42.402378],"latitude":42.402378,"longitude":-71.288568,"n_total_money":0,"name":"StylePath","number_of_employees":4,"total_money_raised":"$0","around_companies":3,"money_density":21168000.0,"sb_ratio":0.0}
{"category_code":"web","company_class":"Big","founded_year":2006,"geo_loc":[-122.085807,37.351894],"latitude":37.351894,"longitude":-122.085807,"n_total_money":1120000,"name":"SezWho","number_of_employees":9,"total_money_raised":"$1M","around_companies":1,"money_density":1120000.0,"sb_ratio":0.0}
{"category_code":"games_video","company_class":"Big","founded_year":2007,"geo_loc":[-94.370901,38.977092],"latitude":38.977092,"longitude":-94.370901,"n_total_money":0,"name":"FilmCrave","number_of_employees":3,"total_money_raised":"$0","around_companies":1,"money_density":0.0,"sb_ratio":0.0}
{"category_code":"web","company_class":"Big","founded_year":2006,"geo_loc":[13.398694,52.523402],"latitude":52.523402,"longitude":13.398694,"n_total_money":4144000,"name":"Plazes","number_of_employees":15,"total_money_raised":"\u20ac3.7M","around_companies":13,"money_density":1638153.8461538462,"sb_ratio":0.3076923077}
{"category_code":"web","company_class":"Big","founded_year":2005,"geo_loc":[-77.4582,38.84919],"latitude":38.84919,"longitude":-77.4582,"n_total_money":0,"name":"BrainKeeper","number_of_employees":10,"total_money_raised":"$0","around_companies":1,"money_density":0.0,"sb_ratio":0.0}
{"category_code":"search","company_class":"Big","founded_year":2005,"geo_loc":[0.130647,52.195668],"latitude":52.195668,"longitude":0.130647,"n_total_money":3380000,"name":"Evi","number_of_employees":25,"total_money_raised":"\u00a32.6M","around_companies":7,"money_density":1281428.5714285714,"sb_ratio":0.1428571429}
{"category_code":"games_video","company_class":"Big","founded_year":2007,"geo_loc":[-118.468672,34.064139],"latitude":34.064139,"longitude":-118.468672,"n_total_money":65000,"name":"GotCast","number_of_employees":5,"total_money_raised":"$50k","around_companies":2,"money_density":32500.0,"sb_ratio":0.5}
{"category_code":"web","company_class":"Big","founded_year":2006,"geo_loc":[34.7595,32.0554],"latitude":32.0554,"longitude":34.7595,"n_total_money":3250000,"name":"Yedda","number_of_employees":5,"total_money_raised":"$2.5M","around_companies":9,"money_density":5152444.444444444,"sb_ratio":0.2222222222}
{"category_code":"web","company_class":"Big","founded_year":2007,"geo_loc":[-122.397672,37.786906],"latitude":37.786906,"longitude":-122.397672,"n_total_money":11760000,"name":"Disqus","number_of_employees":43,"total_money_raised":"$10.5M","around_companies":98,"money_density":12397903.0612244904,"sb_ratio":0.2244897959}
{"category_code":"web","company_class":"Big","founded_year":2005,"geo_loc":[-74.67117,40.59865],"latitude":40.59865,"longitude":-74.67117,"n_total_money":0,"name":"Congoo","number_of_employees":5,"total_money_raised":"$0","around_companies":1,"money_density":0.0,"sb_ratio":0.0}
{"category_code":"web","company_class":"Big","founded_year":2005,"geo_loc":[-121.97895,37.399208],"latitude":37.399208,"longitude":-121.97895,"n_total_money":13000000,"name":"Vobile","number_of_employees":120,"total_money_raised":"$10M","around_companies":12,"money_density":33284250.0,"sb_ratio":0.0}
{"category_code":"web","company_class":"Big","founded_year":2007,"geo_loc":[-122.394958,37.781262],"latitude":37.781262,"longitude":-122.394958,"n_total_money":1170000,"name":"Dipity","number_of_employees":4,"total_money_raised":"$900k","around_companies":96,"money_density":16157026.041666666,"sb_ratio":0.21875}
{"category_code":"web","company_class":"Big","founded_year":2004,"geo_loc":[-118.426707,33.982431],"latitude":33.982431,"longitude":-118.426707,"n_total_money":10270000,"name":"StreetFire","number_of_employees":12,"total_money_raised":"$7.9M","around_companies":6,"money_density":1771400.0,"sb_ratio":0.0}
{"category_code":"web","company_class":"Big","founded_year":2007,"geo_loc":[-122.296411,37.838225],"latitude":37.838225,"longitude":-122.296411,"n_total_money":27690000,"name":"RepairPal","number_of_employees":25,"total_money_raised":"$21.3M","around_companies":5,"money_density":10090800.0,"sb_ratio":0.0}
{"category_code":"software","company_class":"Big","founded_year":2006,"geo_loc":[-122.3355636,47.6018824],"latitude":47.6018824,"longitude":-122.3355636,"n_total_money":0,"name":"Jackson Fish Market","number_of_employees":3,"total_money_raised":"$0","around_companies":23,"money_density":7014760.8695652178,"sb_ratio":0.1739130435}
{"category_code":"software","company_class":"Big","founded_year":1999,"geo_loc":[-117.175733,32.903248],"latitude":32.903248,"longitude":-117.175733,"n_total_money":60840000,"name":"Verimatrix","number_of_employees":100,"total_money_raised":"$46.8M","around_companies":1,"money_density":60840000.0,"sb_ratio":0.0}
{"category_code":"web","company_class":"Big","founded_year":2006,"geo_loc":[-122.347533,47.620716],"latitude":47.620716,"longitude":-122.347533,"n_total_money":2535000,"name":"RealSelf","number_of_employees":23,"total_money_raised":"$1.95M","around_companies":27,"money_density":5437740.7407407407,"sb_ratio":0.1851851852}
{"category_code":"web","company_class":"Big","founded_year":2004,"geo_loc":[-97.742682,30.269452],"latitude":30.269452,"longitude":-97.742682,"n_total_money":0,"name":"Springbox","number_of_employees":65,"total_money_raised":"$0","around_companies":10,"money_density":1164800.0,"sb_ratio":0.3}
{"category_code":"web","company_class":"Big","founded_year":2003,"geo_loc":[-121.941184,37.281651],"latitude":37.281651,"longitude":-121.941184,"n_total_money":0,"name":"Bloglines","number_of_employees":30,"total_money_raised":"$0","around_companies":7,"money_density":18423885.7142857127,"sb_ratio":0.1428571429}
{"category_code":"software","company_class":"Big","founded_year":2007,"geo_loc":[-118.455798,33.971132],"latitude":33.971132,"longitude":-118.455798,"n_total_money":0,"name":"littleye","number_of_employees":3,"total_money_raised":"$0","around_companies":2,"money_density":0.0,"sb_ratio":0.0}
{"category_code":"web","company_class":"Big","founded_year":2006,"geo_loc":[-79.386755,43.670233],"latitude":43.670233,"longitude":-79.386755,"n_total_money":0,"name":"Sneakerplay","number_of_employees":0,"total_money_raised":"$0","around_companies":7,"money_density":46428.5714285714,"sb_ratio":0.2857142857}
{"category_code":"web","company_class":"Big","founded_year":2007,"geo_loc":[-122.402468,37.803847],"latitude":37.803847,"longitude":-122.402468,"n_total_money":2600000,"name":"GameLayers","number_of_employees":5,"total_money_raised":"$2M","around_companies":66,"money_density":13090475.7575757578,"sb_ratio":0.2727272727}
{"category_code":"mobile","company_class":"Big","founded_year":2006,"geo_loc":[-118.472297,33.999004],"latitude":33.999004,"longitude":-118.472297,"n_total_money":18200000,"name":"Mogreet","number_of_employees":30,"total_money_raised":"$14M","around_companies":9,"money_density":6888000.0,"sb_ratio":0.5555555556}
{"category_code":"network_hosting","company_class":"Big","founded_year":2006,"geo_loc":[-122.244743,37.872228],"latitude":37.872228,"longitude":-122.244743,"n_total_money":0,"name":"ThriveSmart","number_of_employees":0,"total_money_raised":"$0","around_companies":1,"money_density":0.0,"sb_ratio":0.0}
{"category_code":"web","company_class":"Big","founded_year":2007,"geo_loc":[-77.095965,38.984172],"latitude":38.984172,"longitude":-77.095965,"n_total_money":6500000,"name":"WEbook","number_of_employees":10,"total_money_raised":"$5M","around_companies":4,"money_density":1625000.0,"sb_ratio":0.0}
{"category_code":"software","company_class":"Big","founded_year":2003,"geo_loc":[-122.390945,37.78274],"latitude":37.78274,"longitude":-122.390945,"n_total_money":52000000,"name":"Splunk","number_of_employees":500,"total_money_raised":"$40M","around_companies":88,"money_density":13767664.7727272734,"sb_ratio":0.2272727273}
{"category_code":"ecommerce","company_class":"Big","founded_year":2007,"geo_loc":[-72.930855,41.355252],"latitude":41.355252,"longitude":-72.930855,"n_total_money":91000,"name":"Entrecard","number_of_employees":1,"total_money_raised":"$70k","around_companies":1,"money_density":91000.0,"sb_ratio":0.0}
{"category_code":"search","company_class":"Big","founded_year":2001,"geo_loc":[-87.636706,41.878643],"latitude":41.878643,"longitude":-87.636706,"n_total_money":0,"name":"Localeze","number_of_employees":1,"total_money_raised":"$0","around_companies":27,"money_density":2297525.9259259258,"sb_ratio":0.2962962963}
{"category_code":"web","company_class":"Big","founded_year":2006,"geo_loc":[-79.435661,43.744031],"latitude":43.744031,"longitude":-79.435661,"n_total_money":0,"name":"AddLiveVoice","number_of_employees":5,"total_money_raised":"$0","around_companies":1,"money_density":0.0,"sb_ratio":0.0}
{"category_code":"search","company_class":"Big","founded_year":2005,"geo_loc":[-122.296342,37.8454819],"latitude":37.8454819,"longitude":-122.296342,"n_total_money":9100000,"name":"Seeqpod","number_of_employees":25,"total_money_raised":"$7M","around_companies":6,"money_density":8409000.0,"sb_ratio":0.0}
{"category_code":"search","company_class":"Big","founded_year":2007,"geo_loc":[-123.383426,48.450576],"latitude":48.450576,"longitude":-123.383426,"n_total_money":0,"name":"SkreemR Search","number_of_employees":3,"total_money_raised":"$0","around_companies":1,"money_density":0.0,"sb_ratio":0.0}
{"category_code":"web","company_class":"Big","founded_year":2004,"geo_loc":[-118.3923578,34.0065488],"latitude":34.0065488,"longitude":-118.3923578,"n_total_money":0,"name":"Springbox","number_of_employees":65,"total_money_raised":"$0","around_companies":2,"money_density":0.0,"sb_ratio":0.0}
{"category_code":"web","company_class":"Big","founded_year":2006,"geo_loc":[-94.4284985,38.9143473],"latitude":38.9143473,"longitude":-94.4284985,"n_total_money":0,"name":"Doodlekit","number_of_employees":2,"total_money_raised":"$0","around_companies":1,"money_density":0.0,"sb_ratio":0.0}
{"category_code":"web","company_class":"Big","founded_year":2007,"geo_loc":[9.993586,53.540804],"latitude":53.540804,"longitude":9.993586,"n_total_money":0,"name":"MyNeighborhood","number_of_employees":3,"total_money_raised":"$0","around_companies":3,"money_density":2128000.0,"sb_ratio":0.0}
{"category_code":"games_video","company_class":"Big","founded_year":2003,"geo_loc":[2.213749,46.227638],"latitude":46.227638,"longitude":2.213749,"n_total_money":25220000,"name":"Kewego","number_of_employees":65,"total_money_raised":"$19.4M","around_companies":1,"money_density":25220000.0,"sb_ratio":0.0}
{"category_code":"web","company_class":"Big","founded_year":2006,"geo_loc":[-121.898539,36.611645],"latitude":36.611645,"longitude":-121.898539,"n_total_money":13650000,"name":"CrossLoop","number_of_employees":8,"total_money_raised":"$10.5M","around_companies":1,"money_density":13650000.0,"sb_ratio":0.0}
{"category_code":"web","company_class":"Big","founded_year":2007,"geo_loc":[-74.453466,40.532457],"latitude":40.532457,"longitude":-74.453466,"n_total_money":0,"name":"eventsbot","number_of_employees":10,"total_money_raised":"$0","around_companies":3,"money_density":0.0,"sb_ratio":0.0}
{"category_code":"web","company_class":"Big","founded_year":2005,"geo_loc":[-94.833992,30.500307],"latitude":30.500307,"longitude":-94.833992,"n_total_money":0,"name":"Criticker","number_of_employees":0,"total_money_raised":"$0","around_companies":1,"money_density":0.0,"sb_ratio":0.0}
{"category_code":"software","company_class":"Big","founded_year":2006,"geo_loc":[-71.118487,42.375392],"latitude":42.375392,"longitude":-71.118487,"n_total_money":170300000,"name":"HubSpot","number_of_employees":650,"total_money_raised":"$131M","around_companies":9,"money_density":19608333.3333333321,"sb_ratio":0.1111111111}
{"category_code":"web","company_class":"Big","founded_year":2007,"geo_loc":[-95.712891,37.09024],"latitude":37.09024,"longitude":-95.712891,"n_total_money":0,"name":"eBurl","number_of_employees":1,"total_money_raised":"$0","around_companies":10,"money_density":6287000.0,"sb_ratio":0.2}
{"category_code":"software","company_class":"Big","founded_year":1999,"geo_loc":[-122.3975878,37.7799872],"latitude":37.7799872,"longitude":-122.3975878,"n_total_money":0,"name":"LiveJournal","number_of_employees":25,"total_money_raised":"$0","around_companies":108,"money_density":15338693.5185185187,"sb_ratio":0.25}
{"category_code":"web","company_class":"Big","founded_year":2005,"geo_loc":[-73.865287,41.035749],"latitude":41.035749,"longitude":-73.865287,"n_total_money":0,"name":"Squidoo","number_of_employees":14,"total_money_raised":"$0","around_companies":1,"money_density":0.0,"sb_ratio":0.0}
{"category_code":"web","company_class":"Big","founded_year":2007,"geo_loc":[-80.058401,26.820375],"latitude":26.820375,"longitude":-80.058401,"n_total_money":3250000,"name":"divorce360","number_of_employees":6,"total_money_raised":"$2.5M","around_companies":1,"money_density":3250000.0,"sb_ratio":0.0}
{"category_code":"web","company_class":"Big","founded_year":2007,"geo_loc":[-73.996122,40.7508],"latitude":40.7508,"longitude":-73.996122,"n_total_money":0,"name":"GoLark","number_of_employees":3,"total_money_raised":"$0","around_companies":89,"money_density":7854071.9101123596,"sb_ratio":0.2584269663}
{"category_code":"web","company_class":"Big","founded_year":2004,"geo_loc":[-122.265466,37.864221],"latitude":37.864221,"longitude":-122.265466,"n_total_money":0,"name":"Vyew","number_of_employees":10,"total_money_raised":"$0","around_companies":4,"money_density":2270800.0,"sb_ratio":0.5}
{"category_code":"games_video","company_class":"Big","founded_year":2007,"geo_loc":[-122.120938,47.680496],"latitude":47.680496,"longitude":-122.120938,"n_total_money":0,"name":"Picktastic","number_of_employees":2,"total_money_raised":"$0","around_companies":4,"money_density":756000.0,"sb_ratio":0.5}
{"category_code":"web","company_class":"Big","founded_year":2007,"geo_loc":[-95.49158,29.804863],"latitude":29.804863,"longitude":-95.49158,"n_total_money":780000,"name":"CareFlash","number_of_employees":0,"total_money_raised":"$600k","around_companies":1,"money_density":780000.0,"sb_ratio":0.0}
{"category_code":"mobile","company_class":"Big","founded_year":2005,"geo_loc":[-122.084171,37.386665],"latitude":37.386665,"longitude":-122.084171,"n_total_money":14300000,"name":"Ribbit","number_of_employees":28,"total_money_raised":"$11M","around_companies":21,"money_density":11949857.1428571437,"sb_ratio":0.1428571429}
{"category_code":"mobile","company_class":"Big","founded_year":2007,"geo_loc":[34.7595,32.0554],"latitude":32.0554,"longitude":34.7595,"n_total_money":3250000,"name":"Flixwagon","number_of_employees":10,"total_money_raised":"$2.5M","around_companies":9,"money_density":5152444.444444444,"sb_ratio":0.2222222222}
{"category_code":"mobile","company_class":"Big","founded_year":2006,"geo_loc":[-122.230116,37.486368],"latitude":37.486368,"longitude":-122.230116,"n_total_money":19240000,"name":"Qik","number_of_employees":60,"total_money_raised":"$14.8M","around_companies":12,"money_density":8513666.666666666,"sb_ratio":0.0833333333}
{"category_code":"search","company_class":"Big","founded_year":2003,"geo_loc":[-122.39897,37.78624],"latitude":37.78624,"longitude":-122.39897,"n_total_money":1300000,"name":"Mobissimo","number_of_employees":15,"total_money_raised":"$1M","around_companies":98,"money_density":12397903.0612244904,"sb_ratio":0.2244897959}
{"category_code":"network_hosting","company_class":"Big","founded_year":2000,"geo_loc":[-121.9477639,37.4050988],"latitude":37.4050988,"longitude":-121.9477639,"n_total_money":125450000,"name":"CDNetworks","number_of_employees":350,"total_money_raised":"$96.5M","around_companies":4,"money_density":64402500.0,"sb_ratio":0.25}
{"category_code":"software","company_class":"Big","founded_year":2005,"geo_loc":[-121.9479223,37.3208403],"latitude":37.3208403,"longitude":-121.9479223,"n_total_money":16250000,"name":"Bunchball","number_of_employees":60,"total_money_raised":"$12.5M","around_companies":6,"money_density":2776666.6666666665,"sb_ratio":0.5}
{"category_code":"games_video","company_class":"Big","founded_year":2007,"geo_loc":[-74.331811,40.565602],"latitude":40.565602,"longitude":-74.331811,"n_total_money":0,"name":"LiveHire","number_of_employees":5,"total_money_raised":"$0","around_companies":2,"money_density":0.0,"sb_ratio":0.0}
{"category_code":"web","company_class":"Big","founded_year":2007,"geo_loc":[-122.117418,37.402802],"latitude":37.402802,"longitude":-122.117418,"n_total_money":7280000,"name":"TravelMuse","number_of_employees":11,"total_money_raised":"$5.6M","around_companies":2,"money_density":3727750.0,"sb_ratio":0.0}
{"category_code":"web","company_class":"Big","founded_year":2007,"geo_loc":[-118.46371,33.994162],"latitude":33.994162,"longitude":-118.46371,"n_total_money":0,"name":"Driftr","number_of_employees":0,"total_money_raised":"$0","around_companies":5,"money_density":7649600.0,"sb_ratio":0.4}
{"category_code":"web","company_class":"Big","founded_year":1999,"geo_loc":[-73.992152,40.754698],"latitude":40.754698,"longitude":-73.992152,"n_total_money":0,"name":"Xanga","number_of_employees":22,"total_money_raised":"$0","around_companies":92,"money_density":8129591.3043478262,"sb_ratio":0.2826086957}
{"category_code":"ecommerce","company_class":"Big","founded_year":1999,"geo_loc":[-95.712891,37.09024],"latitude":37.09024,"longitude":-95.712891,"n_total_money":61100000,"name":"ice","number_of_employees":80,"total_money_raised":"$47M","around_companies":10,"money_density":6287000.0,"sb_ratio":0.2}
{"category_code":"ecommerce","company_class":"Big","founded_year":2005,"geo_loc":[-73.983268,40.694731],"latitude":40.694731,"longitude":-73.983268,"n_total_money":119210000,"name":"Etsy","number_of_employees":300,"total_money_raised":"$91.7M","around_companies":5,"money_density":24084000.0,"sb_ratio":0.2}
{"category_code":"network_hosting","company_class":"Big","founded_year":2007,"geo_loc":[-122.421778,37.763652],"latitude":37.763652,"longitude":-122.421778,"n_total_money":650000,"name":"Mogad","number_of_employees":2,"total_money_raised":"$500k","around_companies":41,"money_density":14838534.1219512187,"sb_ratio":0.243902439}
{"category_code":"web","company_class":"Big","founded_year":2004,"geo_loc":[-96.848836,33.020526],"latitude":33.020526,"longitude":-96.848836,"n_total_money":0,"name":"Woot","number_of_employees":200,"total_money_raised":"$0","around_companies":2,"money_density":0.0,"sb_ratio":0.0}
{"category_code":"software","company_class":"Big","founded_year":2006,"geo_loc":[-121.991912,37.385225],"latitude":37.385225,"longitude":-121.991912,"n_total_money":11895000,"name":"4Home","number_of_employees":36,"total_money_raised":"$9.15M","around_companies":21,"money_density":20018047.6190476194,"sb_ratio":0.0476190476}
{"category_code":"ecommerce","company_class":"Big","founded_year":2007,"geo_loc":[-87.636411,41.883551],"latitude":41.883551,"longitude":-87.636411,"n_total_money":0,"name":"Mpayy","number_of_employees":2,"total_money_raised":"$0","around_companies":27,"money_density":2295733.3333333335,"sb_ratio":0.2222222222}
{"category_code":"network_hosting","company_class":"Big","founded_year":2005,"geo_loc":[-122.300246,37.553743],"latitude":37.553743,"longitude":-122.300246,"n_total_money":66690000,"name":"fabrik","number_of_employees":175,"total_money_raised":"$51.3M","around_companies":13,"money_density":35521461.5384615362,"sb_ratio":0.1538461538}
{"category_code":"web","company_class":"Big","founded_year":2007,"geo_loc":[-74.275771,40.521502],"latitude":40.521502,"longitude":-74.275771,"n_total_money":0,"name":"CheerOutLoud","number_of_employees":0,"total_money_raised":"$0","around_companies":1,"money_density":0.0,"sb_ratio":0.0}
{"category_code":"web","company_class":"Big","founded_year":2000,"geo_loc":[-118.256305,34.051368],"latitude":34.051368,"longitude":-118.256305,"n_total_money":273000000,"name":"Oversee","number_of_employees":150,"total_money_raised":"$210M","around_companies":14,"money_density":22369200.0,"sb_ratio":0.1428571429}
{"category_code":"web","company_class":"Big","founded_year":2007,"geo_loc":[-117.163841,32.718834],"latitude":32.718834,"longitude":-117.163841,"n_total_money":0,"name":"CheerOutLoud","number_of_employees":0,"total_money_raised":"$0","around_companies":6,"money_density":1605333.3333333333,"sb_ratio":0.3333333333}
{"category_code":"web","company_class":"Big","founded_year":2007,"geo_loc":[-73.97785,40.797364],"latitude":40.797364,"longitude":-73.97785,"n_total_money":0,"name":"Orglex","number_of_employees":0,"total_money_raised":"$0","around_companies":4,"money_density":0.0,"sb_ratio":0.5}
{"category_code":"network_hosting","company_class":"Big","founded_year":2002,"geo_loc":[-0.126236,51.500152],"latitude":51.500152,"longitude":-0.126236,"n_total_money":14300000,"name":"WAYN","number_of_employees":42,"total_money_raised":"$11M","around_companies":27,"money_density":2754044.4444444445,"sb_ratio":0.3333333333}
{"category_code":"web","company_class":"Big","founded_year":2007,"geo_loc":[-95.712891,37.09024],"latitude":37.09024,"longitude":-95.712891,"n_total_money":0,"name":"Boobik","number_of_employees":3,"total_money_raised":"$0","around_companies":10,"money_density":6287000.0,"sb_ratio":0.2}
{"category_code":"network_hosting","company_class":"StartUp","founded_year":2008,"geo_loc":[16.5692822,49.2259017],"latitude":49.2259017,"longitude":16.5692822,"n_total_money":0,"name":"Webnode","number_of_employees":30,"total_money_raised":"$0","around_companies":1,"money_density":0.0,"sb_ratio":1.0}
{"category_code":"web","company_class":"Big","founded_year":2007,"geo_loc":[-95.712891,37.09024],"latitude":37.09024,"longitude":-95.712891,"n_total_money":650000,"name":"Frevvo","number_of_employees":10,"total_money_raised":"$500k","around_companies":10,"money_density":6287000.0,"sb_ratio":0.2}
{"category_code":"games_video","company_class":"Big","founded_year":2006,"geo_loc":[88.363895,22.572646],"latitude":22.572646,"longitude":88.363895,"n_total_money":0,"name":"Scrabulous","number_of_employees":30,"total_money_raised":"$0","around_companies":1,"money_density":0.0,"sb_ratio":0.0}
{"category_code":"web","company_class":"Big","founded_year":2007,"geo_loc":[-105.139804,39.851338],"latitude":39.851338,"longitude":-105.139804,"n_total_money":0,"name":"Blogonize","number_of_employees":1,"total_money_raised":"$0","around_companies":1,"money_density":0.0,"sb_ratio":0.0}
{"category_code":"search","company_class":"Big","founded_year":2006,"geo_loc":[15.625419,58.415755],"latitude":58.415755,"longitude":15.625419,"n_total_money":1120000,"name":"Twingly","number_of_employees":12,"total_money_raised":"\u20ac1M","around_companies":1,"money_density":1120000.0,"sb_ratio":0.0}
{"category_code":"web","company_class":"Big","founded_year":2005,"geo_loc":[-118.691285,34.280555],"latitude":34.280555,"longitude":-118.691285,"n_total_money":0,"name":"ReimagineMemories","number_of_employees":2,"total_money_raised":"$0","around_companies":1,"money_density":0.0,"sb_ratio":0.0}
{"category_code":"web","company_class":"Big","founded_year":2006,"geo_loc":[-105.01277,39.758126],"latitude":39.758126,"longitude":-105.01277,"n_total_money":0,"name":"HouseFront","number_of_employees":0,"total_money_raised":"$0","around_companies":2,"money_density":0.0,"sb_ratio":0.0}
{"category_code":"software","company_class":"Big","founded_year":2007,"geo_loc":[-122.4020276,37.7891288],"latitude":37.7891288,"longitude":-122.4020276,"n_total_money":15120000,"name":"Roost","number_of_employees":15,"total_money_raised":"$13.5M","around_companies":106,"money_density":11124523.5849056598,"sb_ratio":0.2452830189}
{"category_code":"software","company_class":"Big","founded_year":2003,"geo_loc":[-84.5615,39.3996],"latitude":39.3996,"longitude":-84.5615,"n_total_money":0,"name":"5pm","number_of_employees":6,"total_money_raised":"$0","around_companies":1,"money_density":0.0,"sb_ratio":0.0}
{"category_code":"web","company_class":"Big","founded_year":2006,"geo_loc":[-123.376129,48.416421],"latitude":48.416421,"longitude":-123.376129,"n_total_money":0,"name":"GeoDentist","number_of_employees":0,"total_money_raised":"$0","around_companies":3,"money_density":0.0,"sb_ratio":0.0}
{"category_code":"network_hosting","company_class":"Big","founded_year":2003,"geo_loc":[9.98793,53.555554],"latitude":53.555554,"longitude":9.98793,"n_total_money":6384000,"name":"XING","number_of_employees":500,"total_money_raised":"\u20ac5.7M","around_companies":7,"money_density":912000.0,"sb_ratio":0.2857142857}
{"category_code":"web","company_class":"Big","founded_year":2007,"geo_loc":[-121.9317853,37.2906027],"latitude":37.2906027,"longitude":-121.9317853,"n_total_money":1691200,"name":"clipsync","number_of_employees":28,"total_money_raised":"$1.51M","around_companies":6,"money_density":21927866.6666666679,"sb_ratio":0.0}
{"category_code":"games_video","company_class":"Big","founded_year":2006,"geo_loc":[-8.6267726,52.6638571],"latitude":52.6638571,"longitude":-8.6267726,"n_total_money":1120000,"name":"WorldTV","number_of_employees":5,"total_money_raised":"$1M","around_companies":1,"money_density":1120000.0,"sb_ratio":0.0}
{"category_code":"games_video","company_class":"Big","founded_year":2006,"geo_loc":[-0.1262362,51.5001524],"latitude":51.5001524,"longitude":-0.1262362,"n_total_money":1120000,"name":"WorldTV","number_of_employees":5,"total_money_raised":"$1M","around_companies":27,"money_density":2754044.4444444445,"sb_ratio":0.3333333333}
{"category_code":"games_video","company_class":"StartUp","founded_year":2008,"geo_loc":[-118.461884,34.031764],"latitude":34.031764,"longitude":-118.461884,"n_total_money":0,"name":"WonderHowTo","number_of_employees":12,"total_money_raised":"$0","around_companies":6,"money_density":31112000.0,"sb_ratio":0.5}
{"category_code":"web","company_class":"Big","founded_year":2007,"geo_loc":[-122.403865,37.788266],"latitude":37.788266,"longitude":-122.403865,"n_total_money":3528000,"name":"Lookery","number_of_employees":9,"total_money_raised":"$3.15M","around_companies":123,"money_density":11529690.2439024393,"sb_ratio":0.2682926829}
{"category_code":"web","company_class":"Big","founded_year":2006,"geo_loc":[-122.3991505,37.7876952],"latitude":37.7876952,"longitude":-122.3991505,"n_total_money":10400000,"name":"HubPages","number_of_employees":21,"total_money_raised":"$8M","around_companies":98,"money_density":12389331.6326530613,"sb_ratio":0.2346938776}
{"category_code":"web","company_class":"Big","founded_year":2006,"geo_loc":[-122.38944,37.788827],"latitude":37.788827,"longitude":-122.38944,"n_total_money":0,"name":"XLR8 Mobile","number_of_employees":21,"total_money_raised":"$0","around_companies":90,"money_density":12891566.666666666,"sb_ratio":0.2333333333}
{"category_code":"web","company_class":"Big","founded_year":2007,"geo_loc":[-122.079114,37.392962],"latitude":37.392962,"longitude":-122.079114,"n_total_money":1008000,"name":"Mill River Labs","number_of_employees":5,"total_money_raised":"$900k","around_companies":21,"money_density":11949857.1428571437,"sb_ratio":0.1428571429}
{"category_code":"web","company_class":"Big","founded_year":2007,"geo_loc":[-71.44698,42.710437],"latitude":42.710437,"longitude":-71.44698,"n_total_money":0,"name":"LimeAll","number_of_employees":2,"total_money_raised":"$0","around_companies":1,"money_density":0.0,"sb_ratio":0.0}
{"category_code":"web","company_class":"Big","founded_year":2007,"geo_loc":[1.434685,43.604071],"latitude":43.604071,"longitude":1.434685,"n_total_money":0,"name":"Web2Wave","number_of_employees":3,"total_money_raised":"$0","around_companies":1,"money_density":0.0,"sb_ratio":0.0}
{"category_code":"web","company_class":"Big","founded_year":2002,"geo_loc":[-83.324521,33.90886],"latitude":33.90886,"longitude":-83.324521,"n_total_money":0,"name":"Maugans Corp","number_of_employees":4,"total_money_raised":"$0","around_companies":1,"money_density":0.0,"sb_ratio":0.0}
{"category_code":"web","company_class":"StartUp","founded_year":2008,"geo_loc":[-85.717393,38.257035],"latitude":38.257035,"longitude":-85.717393,"n_total_money":5600000,"name":"First30Days","number_of_employees":17,"total_money_raised":"$5M","around_companies":1,"money_density":5600000.0,"sb_ratio":1.0}
{"category_code":"web","company_class":"Big","founded_year":2007,"geo_loc":[-71.130297,42.398424],"latitude":42.398424,"longitude":-71.130297,"n_total_money":3528000,"name":"Lookery","number_of_employees":9,"total_money_raised":"$3.15M","around_companies":5,"money_density":840000.0,"sb_ratio":0.2}
{"category_code":"web","company_class":"Big","founded_year":2000,"geo_loc":[-94.671644,38.89055],"latitude":38.89055,"longitude":-94.671644,"n_total_money":0,"name":"iModules Software","number_of_employees":67,"total_money_raised":"$0","around_companies":2,"money_density":0.0,"sb_ratio":0.0}
{"category_code":"web","company_class":"Big","founded_year":2006,"geo_loc":[-77.3479238,38.9530391],"latitude":38.9530391,"longitude":-77.3479238,"n_total_money":5600000,"name":"VisualCV","number_of_employees":5,"total_money_raised":"$5M","around_companies":7,"money_density":10785714.2857142854,"sb_ratio":0.0}
{"category_code":"web","company_class":"Big","founded_year":2004,"geo_loc":[-79.420926,38.003376],"latitude":38.003376,"longitude":-79.420926,"n_total_money":0,"name":"HonestMall","number_of_employees":30,"total_money_raised":"$0","around_companies":3,"money_density":1703333.3333333333,"sb_ratio":0.0}
{"category_code":"web","company_class":"Big","founded_year":2007,"geo_loc":[-122.96391,50.123306],"latitude":50.123306,"longitude":-122.96391,"n_total_money":0,"name":"ZiFiMusic","number_of_employees":1,"total_money_raised":"$0","around_companies":1,"money_density":0.0,"sb_ratio":0.0}
{"category_code":"web","company_class":"Big","founded_year":2002,"geo_loc":[-80.241433,36.09506],"latitude":36.09506,"longitude":-80.241433,"n_total_money":0,"name":"VerticalCurve","number_of_employees":5,"total_money_raised":"$0","around_companies":1,"money_density":0.0,"sb_ratio":0.0}
{"category_code":"web","company_class":"StartUp","founded_year":2008,"geo_loc":[-122.187925,47.704875],"latitude":47.704875,"longitude":-122.187925,"n_total_money":0,"name":"PokerPlayersSocialNetwork","number_of_employees":3,"total_money_raised":"$0","around_companies":1,"money_density":0.0,"sb_ratio":1.0}
{"category_code":"software","company_class":"Big","founded_year":2003,"geo_loc":[2.163697,41.383182],"latitude":41.383182,"longitude":2.163697,"n_total_money":0,"name":"]project-open[","number_of_employees":3,"total_money_raised":"$0","around_companies":7,"money_density":528000.0,"sb_ratio":0.1428571429}
{"category_code":"web","company_class":"Big","founded_year":2007,"geo_loc":[-75.162644,39.952229],"latitude":39.952229,"longitude":-75.162644,"n_total_money":0,"name":"myfirstpaycheck","number_of_employees":4,"total_money_raised":"$0","around_companies":10,"money_density":1421280.0,"sb_ratio":0.5}
{"category_code":"web","company_class":"Big","founded_year":2006,"geo_loc":[-123.095238,49.285173],"latitude":49.285173,"longitude":-123.095238,"n_total_money":0,"name":"memelabs","number_of_employees":10,"total_money_raised":"$0","around_companies":11,"money_density":5136727.2727272725,"sb_ratio":0.2727272727}
{"category_code":"web","company_class":"Big","founded_year":2006,"geo_loc":[-122.3308,47.6064],"latitude":47.6064,"longitude":-122.3308,"n_total_money":0,"name":"PopShops","number_of_employees":3,"total_money_raised":"$0","around_companies":23,"money_density":7014760.8695652178,"sb_ratio":0.1739130435}
{"category_code":"web","company_class":"Big","founded_year":2003,"geo_loc":[-119.855405,34.431454],"latitude":34.431454,"longitude":-119.855405,"n_total_money":0,"name":"Citrix Online","number_of_employees":700,"total_money_raised":"$0","around_companies":1,"money_density":0.0,"sb_ratio":0.0}
{"category_code":"web","company_class":"Big","founded_year":2007,"geo_loc":[-157.837351,21.338849],"latitude":21.338849,"longitude":-157.837351,"n_total_money":0,"name":"FutonMedia","number_of_employees":2,"total_money_raised":"$0","around_companies":1,"money_density":0.0,"sb_ratio":0.0}
{"category_code":"web","company_class":"Big","founded_year":2004,"geo_loc":[-122.323408,47.615313],"latitude":47.615313,"longitude":-122.323408,"n_total_money":0,"name":"eNotes","number_of_employees":11,"total_money_raised":"$0","around_companies":31,"money_density":6173693.5483870972,"sb_ratio":0.1935483871}
{"category_code":"web","company_class":"Big","founded_year":2004,"geo_loc":[-122.113773,37.377624],"latitude":37.377624,"longitude":-122.113773,"n_total_money":0,"name":"SimpleFeed","number_of_employees":22,"total_money_raised":"$0","around_companies":1,"money_density":0.0,"sb_ratio":0.0}
{"category_code":"web","company_class":"Big","founded_year":2007,"geo_loc":[-122.278487,37.773545],"latitude":37.773545,"longitude":-122.278487,"n_total_money":0,"name":"TripnTale","number_of_employees":3,"total_money_raised":"$0","around_companies":2,"money_density":0.0,"sb_ratio":0.5}
{"category_code":"web","company_class":"Big","founded_year":2007,"geo_loc":[-122.334393,47.599136],"latitude":47.599136,"longitude":-122.334393,"n_total_money":0,"name":"Mergelab","number_of_employees":3,"total_money_raised":"$0","around_companies":22,"money_density":7157977.2727272725,"sb_ratio":0.1818181818}
{"category_code":"web","company_class":"Big","founded_year":2003,"geo_loc":[-122.349863,47.650674],"latitude":47.650674,"longitude":-122.349863,"n_total_money":0,"name":"Survey Analytics","number_of_employees":100,"total_money_raised":"$0","around_companies":8,"money_density":6479500.0,"sb_ratio":0.125}
{"category_code":"web","company_class":"Big","founded_year":2003,"geo_loc":[-121.878844,37.349317],"latitude":37.349317,"longitude":-121.878844,"n_total_money":0,"name":"MerchantOS","number_of_employees":2,"total_money_raised":"$0","around_companies":3,"money_density":560000.0,"sb_ratio":0.0}
{"category_code":"web","company_class":"StartUp","founded_year":2008,"geo_loc":[151.039775,-34.054416],"latitude":-34.054416,"longitude":151.039775,"n_total_money":0,"name":"thatsmymouse","number_of_employees":3,"total_money_raised":"$0","around_companies":1,"money_density":0.0,"sb_ratio":1.0}
{"category_code":"software","company_class":"Big","founded_year":2003,"geo_loc":[77.628576,12.933644],"latitude":12.933644,"longitude":77.628576,"n_total_money":0,"name":"Vaakya Technologies","number_of_employees":40,"total_money_raised":"$0","around_companies":3,"money_density":10453333.333333334,"sb_ratio":0.0}
{"category_code":"web","company_class":"Big","founded_year":2006,"geo_loc":[-122.120938,47.680496],"latitude":47.680496,"longitude":-122.120938,"n_total_money":3024000,"name":"TalentSpring","number_of_employees":9,"total_money_raised":"$2.7M","around_companies":4,"money_density":756000.0,"sb_ratio":0.5}
{"category_code":"web","company_class":"Big","founded_year":2007,"geo_loc":[-74.007413,40.707253],"latitude":40.707253,"longitude":-74.007413,"n_total_money":0,"name":"Metromole","number_of_employees":3,"total_money_raised":"$0","around_companies":25,"money_density":1327952.0,"sb_ratio":0.24}
{"category_code":"web","company_class":"Big","founded_year":2001,"geo_loc":[-87.673059,41.955054],"latitude":41.955054,"longitude":-87.673059,"n_total_money":0,"name":"skinnyCorp","number_of_employees":45,"total_money_raised":"$0","around_companies":2,"money_density":0.0,"sb_ratio":0.0}
{"category_code":"games_video","company_class":"StartUp","founded_year":2008,"geo_loc":[51.5082,25.2948],"latitude":25.2948,"longitude":51.5082,"n_total_money":0,"name":"Triptuber","number_of_employees":2,"total_money_raised":"$0","around_companies":1,"money_density":0.0,"sb_ratio":1.0}
{"category_code":"web","company_class":"Big","founded_year":2003,"geo_loc":[18.467386,54.538851],"latitude":54.538851,"longitude":18.467386,"n_total_money":0,"name":"apivision","number_of_employees":2,"total_money_raised":"$0","around_companies":2,"money_density":0.0,"sb_ratio":0.0}
{"category_code":"web","company_class":"Big","founded_year":2006,"geo_loc":[-74.411658,40.407946],"latitude":40.407946,"longitude":-74.411658,"n_total_money":0,"name":"Jet Numbers","number_of_employees":5,"total_money_raised":"$0","around_companies":1,"money_density":0.0,"sb_ratio":0.0}
{"category_code":"web","company_class":"StartUp","founded_year":2008,"geo_loc":[-122.404488,37.790032],"latitude":37.790032,"longitude":-122.404488,"n_total_money":0,"name":"Unknown Vector","number_of_employees":7,"total_money_raised":"$0","around_companies":106,"money_density":11124523.5849056598,"sb_ratio":0.2452830189}
{"category_code":"web","company_class":"Big","founded_year":2004,"geo_loc":[-73.961981,40.684257],"latitude":40.684257,"longitude":-73.961981,"n_total_money":0,"name":"Brownstoner Media","number_of_employees":2,"total_money_raised":"$0","around_companies":2,"money_density":0.0,"sb_ratio":0.0}
{"category_code":"search","company_class":"Big","founded_year":2005,"geo_loc":[5.1230002,52.0799794],"latitude":52.0799794,"longitude":5.1230002,"n_total_money":0,"name":"Mininova","number_of_employees":5,"total_money_raised":"$0","around_companies":3,"money_density":0.0,"sb_ratio":0.3333333333}
{"category_code":"web","company_class":"Big","founded_year":2006,"geo_loc":[-118.425401,34.059721],"latitude":34.059721,"longitude":-118.425401,"n_total_money":0,"name":"PlanJam","number_of_employees":3,"total_money_raised":"$0","around_companies":8,"money_density":2042000.0,"sb_ratio":0.0}
{"category_code":"software","company_class":"Big","founded_year":2006,"geo_loc":[-75.1961715,39.9564403],"latitude":39.9564403,"longitude":-75.1961715,"n_total_money":397600,"name":"Vuzit","number_of_employees":6,"total_money_raised":"$355k","around_companies":4,"money_density":2556700.0,"sb_ratio":0.0}
{"category_code":"web","company_class":"Big","founded_year":2006,"geo_loc":[-121.918319,37.383844],"latitude":37.383844,"longitude":-121.918319,"n_total_money":12320000,"name":"Mixbook","number_of_employees":90,"total_money_raised":"$11M","around_companies":9,"money_density":26911333.3333333321,"sb_ratio":0.2222222222}
{"category_code":"web","company_class":"Big","founded_year":2007,"geo_loc":[-122.395792,37.776467],"latitude":37.776467,"longitude":-122.395792,"n_total_money":0,"name":"Kazowie","number_of_employees":6,"total_money_raised":"$0","around_companies":91,"money_density":16215510.9890109897,"sb_ratio":0.2087912088}
{"category_code":"web","company_class":"Big","founded_year":2007,"geo_loc":[-71.434135,42.445825],"latitude":42.445825,"longitude":-71.434135,"n_total_money":0,"name":"Otrib","number_of_employees":2,"total_money_raised":"$0","around_companies":1,"money_density":0.0,"sb_ratio":0.0}
{"category_code":"web","company_class":"Big","founded_year":2001,"geo_loc":[-105.07359,39.89674],"latitude":39.89674,"longitude":-105.07359,"n_total_money":0,"name":"Booyah Networks","number_of_employees":42,"total_money_raised":"$0","around_companies":1,"money_density":0.0,"sb_ratio":0.0}
{"category_code":"search","company_class":"Big","founded_year":2007,"geo_loc":[-122.117133,37.451255],"latitude":37.451255,"longitude":-122.117133,"n_total_money":0,"name":"Paglo","number_of_employees":9,"total_money_raised":"$0","around_companies":3,"money_density":28166666.6666666679,"sb_ratio":0.3333333333}
{"category_code":"web","company_class":"Big","founded_year":2007,"geo_loc":[14.285917,48.305996],"latitude":48.305996,"longitude":14.285917,"n_total_money":0,"name":"tomatic","number_of_employees":1,"total_money_raised":"$0","around_companies":1,"money_density":0.0,"sb_ratio":0.0}
{"category_code":"software","company_class":"Big","founded_year":2006,"geo_loc":[-73.968173,40.75033],"latitude":40.75033,"longitude":-73.968173,"n_total_money":0,"name":"HeadStrong Brain Gym","number_of_employees":5,"total_money_raised":"$0","around_companies":57,"money_density":8206838.5964912279,"sb_ratio":0.2631578947}
{"category_code":"web","company_class":"Big","founded_year":2007,"geo_loc":[-121.234636,38.744194],"latitude":38.744194,"longitude":-121.234636,"n_total_money":0,"name":"LittleEngine","number_of_employees":5,"total_money_raised":"$0","around_companies":1,"money_density":0.0,"sb_ratio":0.0}
{"category_code":"games_video","company_class":"Big","founded_year":2007,"geo_loc":[-121.9053,37.244187],"latitude":37.244187,"longitude":-121.9053,"n_total_money":0,"name":"JukeFly","number_of_employees":2,"total_money_raised":"$0","around_companies":1,"money_density":0.0,"sb_ratio":0.0}
{"category_code":"software","company_class":"Big","founded_year":2002,"geo_loc":[-111.679755,40.32462],"latitude":40.32462,"longitude":-111.679755,"n_total_money":26320000,"name":"Bungee Labs","number_of_employees":38,"total_money_raised":"$23.5M","around_companies":2,"money_density":13160000.0,"sb_ratio":0.0}
{"category_code":"web","company_class":"Big","founded_year":2005,"geo_loc":[-122.1997,47.6106],"latitude":47.6106,"longitude":-122.1997,"n_total_money":952000,"name":"Yodio","number_of_employees":4,"total_money_raised":"$850k","around_companies":4,"money_density":3498950.0,"sb_ratio":0.0}
{"category_code":"software","company_class":"Big","founded_year":2006,"geo_loc":[-122.300863,47.66274],"latitude":47.66274,"longitude":-122.300863,"n_total_money":560000,"name":"Movaya","number_of_employees":20,"total_money_raised":"$500k","around_companies":2,"money_density":455840.0,"sb_ratio":0.0}
{"category_code":"web","company_class":"Big","founded_year":2007,"geo_loc":[-80.064158,26.524058],"latitude":26.524058,"longitude":-80.064158,"n_total_money":0,"name":"Cellware","number_of_employees":25,"total_money_raised":"$0","around_companies":3,"money_density":0.0,"sb_ratio":0.3333333333}
{"category_code":"web","company_class":"Big","founded_year":2007,"geo_loc":[-122.3419,47.634444],"latitude":47.634444,"longitude":-122.3419,"n_total_money":0,"name":"LyfeSystems","number_of_employees":9,"total_money_raised":"$0","around_companies":20,"money_density":5007250.0,"sb_ratio":0.25}
{"category_code":"mobile","company_class":"StartUp","founded_year":2008,"geo_loc":[-118.469316,34.064629],"latitude":34.064629,"longitude":-118.469316,"n_total_money":0,"name":"Jirbo","number_of_employees":23,"total_money_raised":"$0","around_companies":2,"money_density":32500.0,"sb_ratio":0.5}
{"category_code":"web","company_class":"Big","founded_year":2007,"geo_loc":[-122.267654,37.494965],"latitude":37.494965,"longitude":-122.267654,"n_total_money":0,"name":"Kaddoz","number_of_employees":4,"total_money_raised":"$0","around_companies":4,"money_density":0.0,"sb_ratio":0.25}
{"category_code":"web","company_class":"Big","founded_year":2007,"geo_loc":[-0.0766034,51.5220072],"latitude":51.5220072,"longitude":-0.0766034,"n_total_money":3920000,"name":"Bragster","number_of_employees":10,"total_money_raised":"$3.5M","around_companies":17,"money_density":1496011.7647058824,"sb_ratio":0.2941176471}
{"category_code":"web","company_class":"Big","founded_year":1999,"geo_loc":[-73.988477,40.752325],"latitude":40.752325,"longitude":-73.988477,"n_total_money":4480000,"name":"Oddcast","number_of_employees":65,"total_money_raised":"$4M","around_companies":92,"money_density":7842286.9565217393,"sb_ratio":0.2608695652}
{"category_code":"software","company_class":"Big","founded_year":2000,"geo_loc":[-84.092596,33.984004],"latitude":33.984004,"longitude":-84.092596,"n_total_money":0,"name":"uVuMobile","number_of_employees":26,"total_money_raised":"$0","around_companies":1,"money_density":0.0,"sb_ratio":0.0}
{"category_code":"web","company_class":"Big","founded_year":2002,"geo_loc":[4.892903,52.365001],"latitude":52.365001,"longitude":4.892903,"n_total_money":0,"name":"RankOne Media Group","number_of_employees":10,"total_money_raised":"$0","around_companies":12,"money_density":1487333.3333333333,"sb_ratio":0.5}
