{"index":0,"city":"New York","country_code":"USA","latitude":40.757929,"longitude":-73.985506,"name":"PeekYou","category_code":"search","founded_year":2012,"number_of_employees":20,"med_employees":20.0,"coordenadas":[-73.985506,40.757929]}
{"index":1,"city":"Berlin","country_code":"DEU","latitude":52.5013449,"longitude":13.4109071,"name":"headr","category_code":"web","founded_year":2012,"number_of_employees":8,"med_employees":4.0,"coordenadas":[13.4109071,52.5013449]}
{"index":3,"city":"San Mateo","country_code":"USA","latitude":37.566879,"longitude":-122.323895,"name":"Fixya","category_code":"web","founded_year":2013,"number_of_employees":30,"med_employees":30.0,"coordenadas":[-122.323895,37.566879]}
{"index":4,"city":"Norderstedt","country_code":"DEU","latitude":53.707739,"longitude":10.023246,"name":"alluc","category_code":"games_video","founded_year":2009,"number_of_employees":7,"med_employees":7.0,"coordenadas":[10.023246,53.707739]}
{"index":5,"city":"West Dundee","country_code":"USA","latitude":42.091078,"longitude":-88.288749,"name":"Crootpad","category_code":"games_video","founded_year":2009,"number_of_employees":2,"med_employees":2.0,"coordenadas":[-88.288749,42.091078]}
{"index":7,"city":"San Francisco","country_code":"USA","latitude":37.7896292,"longitude":-122.3998782,"name":"Macroaxis","category_code":"software","founded_year":2009,"number_of_employees":8,"med_employees":8.0,"coordenadas":[-122.3998782,37.7896292]}
{"index":8,"city":"Santa Clara","country_code":"USA","latitude":37.760524,"longitude":-122.387799,"name":"Fuzz","category_code":"games_video","founded_year":2011,"number_of_employees":6,"med_employees":6.0,"coordenadas":[-122.387799,37.760524]}
{"index":9,"city":"New York","country_code":"USA","latitude":42.275263,"longitude":-71.24762,"name":"BrandYourself","category_code":"web","founded_year":2009,"number_of_employees":22,"med_employees":22.0,"coordenadas":[-71.24762,42.275263]}
{"index":10,"city":"Van Nuys","country_code":"USA","latitude":40.650291,"longitude":-74.294395,"name":"CollegeConvo","category_code":"web","founded_year":2010,"number_of_employees":2,"med_employees":2.0,"coordenadas":[-74.294395,40.650291]}
{"index":11,"city":"Bethesda","country_code":"USA","latitude":38.989124,"longitude":-77.026676,"name":"Carfeine","category_code":"software","founded_year":2012,"number_of_employees":5,"med_employees":5.0,"coordenadas":[-77.026676,38.989124]}
{"index":12,"city":"Palo Alto","country_code":"USA","latitude":37.4440981,"longitude":-122.1612868,"name":"Ziippi","category_code":"web","founded_year":2011,"number_of_employees":6,"med_employees":6.0,"coordenadas":[-122.1612868,37.4440981]}
{"index":13,"city":"Santa Monica","country_code":"USA","latitude":53.544711,"longitude":-113.515769,"name":"Titan Gaming","category_code":"games_video","founded_year":2010,"number_of_employees":18,"med_employees":18.0,"coordenadas":[-113.515769,53.544711]}
{"index":14,"city":"Alameda","country_code":"USA","latitude":37.78424,"longitude":-122.274771,"name":"BitRock","category_code":"software","founded_year":2009,"number_of_employees":20,"med_employees":20.0,"coordenadas":[-122.274771,37.78424]}
{"index":15,"city":"Vancouver","country_code":"CAN","latitude":49.263588,"longitude":-123.138565,"name":"Pixelmatic","category_code":"games_video","founded_year":2011,"number_of_employees":10,"med_employees":5.0,"coordenadas":[-123.138565,49.263588]}
{"index":17,"city":"Chicago","country_code":"USA","latitude":41.857204,"longitude":-87.623923,"name":"JumpForward","category_code":"software","founded_year":2010,"number_of_employees":30,"med_employees":30.0,"coordenadas":[-87.623923,41.857204]}
{"index":18,"city":"Jacksonville","country_code":"USA","latitude":30.26955,"longitude":-81.564709,"name":"N-Play","category_code":"social","founded_year":2011,"number_of_employees":25,"med_employees":25.0,"coordenadas":[-81.564709,30.26955]}
{"index":24,"city":"Durham","country_code":"GBR","latitude":54.703145,"longitude":-1.574948,"name":"CompareAway","category_code":"web","founded_year":2009,"number_of_employees":5,"med_employees":5.0,"coordenadas":[-1.574948,54.703145]}
{"index":27,"city":"Berkeley","country_code":"USA","latitude":37.871087,"longitude":-122.270913,"name":"Magoosh","category_code":"web","founded_year":2009,"number_of_employees":13,"med_employees":13.0,"coordenadas":[-122.270913,37.871087]}
{"index":30,"city":"San Francisco","country_code":"USA","latitude":39.9052263,"longitude":-86.0547016,"name":"Formspring","category_code":"web","founded_year":2009,"number_of_employees":19,"med_employees":19.0,"coordenadas":[-86.0547016,39.9052263]}
{"index":31,"city":"Paris","country_code":"FRA","latitude":48.8785618,"longitude":2.3603689,"name":"Stupeflix","category_code":"web","founded_year":2009,"number_of_employees":15,"med_employees":7.5,"coordenadas":[2.3603689,48.8785618]}
{"index":34,"city":"New York","country_code":"USA","latitude":40.744618,"longitude":-73.987764,"name":"Yipit","category_code":"web","founded_year":2010,"number_of_employees":23,"med_employees":23.0,"coordenadas":[-73.987764,40.744618]}
{"index":35,"city":"Manchester","country_code":"GBR","latitude":53.4837067,"longitude":-2.2439492,"name":"Clowdy","category_code":"web","founded_year":2013,"number_of_employees":11,"med_employees":11.0,"coordenadas":[-2.2439492,53.4837067]}
{"index":36,"city":"Berkeley","country_code":"USA","latitude":37.870457,"longitude":-122.268354,"name":"Carsala","category_code":"web","founded_year":2009,"number_of_employees":8,"med_employees":8.0,"coordenadas":[-122.268354,37.870457]}
{"index":37,"city":"Geneva","country_code":"CHE","latitude":46.2121463,"longitude":6.1503245,"name":"HyperWeek","category_code":"social","founded_year":2009,"number_of_employees":5,"med_employees":5.0,"coordenadas":[6.1503245,46.2121463]}
{"index":39,"city":"New York","country_code":"USA","latitude":40.7645772,"longitude":-73.9799007,"name":"Unison Technologies","category_code":"software","founded_year":2011,"number_of_employees":30,"med_employees":30.0,"coordenadas":[-73.9799007,40.7645772]}
{"index":40,"city":"Barcelona","country_code":"ESP","latitude":41.4241228,"longitude":2.1634249,"name":"Tengaged","category_code":"games_video","founded_year":2010,"number_of_employees":1,"med_employees":1.0,"coordenadas":[2.1634249,41.4241228]}
{"index":41,"city":"Pompano Beach","country_code":"USA","latitude":26.2480738,"longitude":-80.135487,"name":"Reachoo","category_code":"software","founded_year":2010,"number_of_employees":3,"med_employees":3.0,"coordenadas":[-80.135487,26.2480738]}
{"index":42,"city":"San Francisco","country_code":"USA","latitude":37.8053241,"longitude":-122.4052761,"name":"Indee","category_code":"games_video","founded_year":2010,"number_of_employees":3,"med_employees":3.0,"coordenadas":[-122.4052761,37.8053241]}
{"index":45,"city":"New York","country_code":"USA","latitude":40.5889016,"longitude":-73.9447994,"name":"Do You Wanna Hook Up?","category_code":"web","founded_year":2009,"number_of_employees":3,"med_employees":3.0,"coordenadas":[-73.9447994,40.5889016]}
{"index":46,"city":"Ringwood, Hampshire","country_code":"GBR","latitude":50.841938,"longitude":-1.7884785,"name":"GymFu","category_code":"web","founded_year":2009,"number_of_employees":3,"med_employees":3.0,"coordenadas":[-1.7884785,50.841938]}
{"index":48,"city":"Torreon, Coahuila","country_code":"MEX","latitude":25.5230058,"longitude":-103.4174464,"name":"facelovefinder","category_code":"web","founded_year":2009,"number_of_employees":1,"med_employees":1.0,"coordenadas":[-103.4174464,25.5230058]}
{"index":49,"city":"Van Nuys","country_code":"USA","latitude":40.650291,"longitude":-74.294395,"name":"eCampusCash","category_code":"web","founded_year":2010,"number_of_employees":3,"med_employees":3.0,"coordenadas":[-74.294395,40.650291]}
{"index":50,"city":"Amherst","country_code":"USA","latitude":42.3756007,"longitude":-72.4436464,"name":"Otalo","category_code":"web","founded_year":2009,"number_of_employees":2,"med_employees":2.0,"coordenadas":[-72.4436464,42.3756007]}
{"index":52,"city":"Houston","country_code":"USA","latitude":29.714229,"longitude":-95.527479,"name":"Digital Meld","category_code":"web","founded_year":2009,"number_of_employees":5,"med_employees":5.0,"coordenadas":[-95.527479,29.714229]}
{"index":53,"city":"Montreal","country_code":"CAN","latitude":45.4928591,"longitude":-73.5825418,"name":"Twtapps","category_code":"web","founded_year":2009,"number_of_employees":1,"med_employees":1.0,"coordenadas":[-73.5825418,45.4928591]}
{"index":54,"city":"Washington","country_code":"USA","latitude":38.9169394,"longitude":-77.0852258,"name":"GrouperEye","category_code":"web","founded_year":2009,"number_of_employees":3,"med_employees":3.0,"coordenadas":[-77.0852258,38.9169394]}
{"index":55,"city":"Heeze","country_code":"NLD","latitude":51.3673409,"longitude":5.5858466,"name":"Interacto","category_code":"web","founded_year":2009,"number_of_employees":2,"med_employees":2.0,"coordenadas":[5.5858466,51.3673409]}
{"index":56,"city":"Marietta","country_code":"USA","latitude":34.013247,"longitude":-84.495636,"name":"Asurrent","category_code":"web","founded_year":2009,"number_of_employees":3,"med_employees":3.0,"coordenadas":[-84.495636,34.013247]}
{"index":57,"city":"Brooktondale","country_code":"USA","latitude":42.362886,"longitude":-76.356869,"name":"Ontology2","category_code":"web","founded_year":2009,"number_of_employees":2,"med_employees":2.0,"coordenadas":[-76.356869,42.362886]}
{"index":58,"city":"New York City","country_code":"USA","latitude":40.727763,"longitude":-73.976169,"name":"Music For Busy People","category_code":"games_video","founded_year":2009,"number_of_employees":3,"med_employees":3.0,"coordenadas":[-73.976169,40.727763]}
{"index":59,"city":"Figueres, Girona","country_code":"ESP","latitude":42.2674977,"longitude":2.9608395,"name":"alteregoweb","category_code":"web","founded_year":2009,"number_of_employees":1,"med_employees":1.0,"coordenadas":[2.9608395,42.2674977]}
{"index":61,"city":"Sarasota","country_code":"USA","latitude":27.4081935,"longitude":-82.5294065,"name":"kinDragon","category_code":"software","founded_year":2010,"number_of_employees":1,"med_employees":1.0,"coordenadas":[-82.5294065,27.4081935]}
{"index":63,"city":"St. Louis","country_code":"USA","latitude":38.675833,"longitude":-90.482766,"name":"CanvasGrafix","category_code":"web","founded_year":2009,"number_of_employees":2,"med_employees":2.0,"coordenadas":[-90.482766,38.675833]}
{"index":66,"city":"Glen Cove","country_code":"USA","latitude":42.3756409,"longitude":-72.5196907,"name":"Tinychat","category_code":"web","founded_year":2009,"number_of_employees":5,"med_employees":5.0,"coordenadas":[-72.5196907,42.3756409]}
{"index":67,"city":"Menlo Park","country_code":"USA","latitude":37.4513629,"longitude":-122.1842112,"name":"Transifex","category_code":"software","founded_year":2009,"number_of_employees":12,"med_employees":12.0,"coordenadas":[-122.1842112,37.4513629]}
{"index":68,"city":"Fremont","country_code":"USA","latitude":37.5561712,"longitude":-122.0780632,"name":"BASH Gaming","category_code":"games_video","founded_year":2010,"number_of_employees":25,"med_employees":12.5,"coordenadas":[-122.0780632,37.5561712]}
{"index":69,"city":"Bangalore","country_code":"IND","latitude":12.971606,"longitude":77.594376,"name":"BASH Gaming","category_code":"games_video","founded_year":2010,"number_of_employees":25,"med_employees":12.5,"coordenadas":[77.594376,12.971606]}
{"index":70,"city":"KOCHI, KERALA","country_code":"IND","latitude":9.9396253,"longitude":76.2594981,"name":"PebbleForge","category_code":"software","founded_year":2009,"number_of_employees":4,"med_employees":4.0,"coordenadas":[76.2594981,9.9396253]}
{"index":71,"city":"College Place","country_code":"USA","latitude":46.0439,"longitude":-118.378229,"name":"TwitterCorp","category_code":"web","founded_year":2009,"number_of_employees":1,"med_employees":1.0,"coordenadas":[-118.378229,46.0439]}
{"index":72,"city":"San Francisco","country_code":"USA","latitude":37.7983181,"longitude":-122.4000032,"name":"The Vertical Action Group","category_code":"consulting","founded_year":2009,"number_of_employees":10,"med_employees":10.0,"coordenadas":[-122.4000032,37.7983181]}
{"index":74,"city":"London","country_code":"GBR","latitude":51.5001524,"longitude":-0.1262362,"name":"rent2friend","category_code":"web","founded_year":2009,"number_of_employees":1,"med_employees":1.0,"coordenadas":[-0.1262362,51.5001524]}
{"index":75,"city":"Cambridge","country_code":"USA","latitude":42.362856,"longitude":-71.083762,"name":"VitalLock","category_code":"web","founded_year":2009,"number_of_employees":4,"med_employees":4.0,"coordenadas":[-71.083762,42.362856]}
{"index":77,"city":"Indian Harbour Beach","country_code":"USA","latitude":28.1524632,"longitude":-80.5883964,"name":"OBE Pro","category_code":"software","founded_year":2009,"number_of_employees":4,"med_employees":4.0,"coordenadas":[-80.5883964,28.1524632]}
{"index":78,"city":"Venice","country_code":"USA","latitude":33.989029,"longitude":-118.462421,"name":"Cuteness Pet Community","category_code":"web","founded_year":2009,"number_of_employees":2,"med_employees":2.0,"coordenadas":[-118.462421,33.989029]}
{"index":79,"city":"Weinheim","country_code":"DEU","latitude":49.5507557,"longitude":8.6759098,"name":"yiid","category_code":"web","founded_year":2009,"number_of_employees":9,"med_employees":9.0,"coordenadas":[8.6759098,49.5507557]}
{"index":80,"city":"Longwood","country_code":"USA","latitude":28.7029,"longitude":-81.3387,"name":"Guias Local","category_code":"search","founded_year":2009,"number_of_employees":5,"med_employees":5.0,"coordenadas":[-81.3387,28.7029]}
{"index":82,"city":"Kirkkonummi","country_code":"FIN","latitude":60.123399,"longitude":24.4280745,"name":"Fotomina","category_code":"web","founded_year":2009,"number_of_employees":4,"med_employees":4.0,"coordenadas":[24.4280745,60.123399]}
{"index":83,"city":"Hollywood","country_code":"USA","latitude":34.0909811,"longitude":-118.325739,"name":"Setster","category_code":"software","founded_year":2009,"number_of_employees":3,"med_employees":3.0,"coordenadas":[-118.325739,34.0909811]}
{"index":84,"city":"New York","country_code":"USA","latitude":40.7078343,"longitude":-74.0136605,"name":"GameChanger Media","category_code":"software","founded_year":2009,"number_of_employees":20,"med_employees":20.0,"coordenadas":[-74.0136605,40.7078343]}
{"index":85,"city":"Hamburg","country_code":"DEU","latitude":53.5736401,"longitude":10.0184565,"name":"Gate 53|10 Technologies","category_code":"web","founded_year":2009,"number_of_employees":4,"med_employees":4.0,"coordenadas":[10.0184565,53.5736401]}
{"index":86,"city":"Omaha","country_code":"USA","latitude":41.259751,"longitude":-95.942336,"name":"RockDex","category_code":"web","founded_year":2009,"number_of_employees":4,"med_employees":2.0,"coordenadas":[-95.942336,41.259751]}
{"index":88,"city":"Santa Monica","country_code":"USA","latitude":34.007112,"longitude":-118.489748,"name":"Tongal","category_code":"web","founded_year":2009,"number_of_employees":8,"med_employees":8.0,"coordenadas":[-118.489748,34.007112]}
{"index":89,"city":"Menlo Park","country_code":"USA","latitude":37.4484914,"longitude":-122.1802812,"name":"Blog Traffic Exchange","category_code":"web","founded_year":2009,"number_of_employees":1,"med_employees":1.0,"coordenadas":[-122.1802812,37.4484914]}
{"index":90,"city":"dallas","country_code":"USA","latitude":32.920073,"longitude":-96.740444,"name":"crush tweet","category_code":"software","founded_year":2009,"number_of_employees":1,"med_employees":1.0,"coordenadas":[-96.740444,32.920073]}
{"index":92,"city":"Rosanna","country_code":"AUS","latitude":-37.742893,"longitude":145.065044,"name":"Trigora","category_code":"web","founded_year":2009,"number_of_employees":7,"med_employees":7.0,"coordenadas":[145.065044,-37.742893]}
{"index":94,"city":"Moscow","country_code":"RUS","latitude":55.7794043,"longitude":37.6899674,"name":"CineSoft","category_code":"software","founded_year":2009,"number_of_employees":5,"med_employees":5.0,"coordenadas":[37.6899674,55.7794043]}
{"index":95,"city":"Paris 10\u00c3\u00a8me","country_code":"FRA","latitude":48.8524775,"longitude":2.3660117,"name":"Antelink","category_code":"software","founded_year":2009,"number_of_employees":10,"med_employees":10.0,"coordenadas":[2.3660117,48.8524775]}
{"index":97,"city":"Palo Alto","country_code":"USA","latitude":37.448598,"longitude":-122.158497,"name":"Wowd","category_code":"search","founded_year":2009,"number_of_employees":28,"med_employees":28.0,"coordenadas":[-122.158497,37.448598]}
{"index":98,"city":"Ann Arbor","country_code":"USA","latitude":42.281569,"longitude":-83.813914,"name":"Compel Interaction","category_code":"consulting","founded_year":2009,"number_of_employees":10,"med_employees":3.3333333333,"coordenadas":[-83.813914,42.281569]}
{"index":99,"city":"Chicago","country_code":"USA","latitude":41.875026,"longitude":-87.628933,"name":"Compel Interaction","category_code":"consulting","founded_year":2009,"number_of_employees":10,"med_employees":3.3333333333,"coordenadas":[-87.628933,41.875026]}
{"index":100,"city":"Traverse City","country_code":"USA","latitude":44.7871116,"longitude":-85.6378062,"name":"Compel Interaction","category_code":"consulting","founded_year":2009,"number_of_employees":10,"med_employees":3.3333333333,"coordenadas":[-85.6378062,44.7871116]}
{"index":101,"city":"London","country_code":"GBR","latitude":51.5137747,"longitude":-0.1459893,"name":"Tweenjo","category_code":"web","founded_year":2009,"number_of_employees":2,"med_employees":2.0,"coordenadas":[-0.1459893,51.5137747]}
{"index":102,"city":"Mountain View","country_code":"USA","latitude":37.400465,"longitude":-122.073003,"name":"psychiatryRounds","category_code":"web","founded_year":2009,"number_of_employees":10,"med_employees":10.0,"coordenadas":[-122.073003,37.400465]}
{"index":104,"city":"London","country_code":"GBR","latitude":51.5603951,"longitude":-0.1365725,"name":"Space Spare","category_code":"web","founded_year":2009,"number_of_employees":2,"med_employees":2.0,"coordenadas":[-0.1365725,51.5603951]}
{"index":105,"city":"Berlin","country_code":"DEU","latitude":52.5296736,"longitude":13.6281888,"name":"Webteilchen","category_code":"web","founded_year":2009,"number_of_employees":2,"med_employees":2.0,"coordenadas":[13.6281888,52.5296736]}
{"index":106,"city":"Dallas","country_code":"USA","latitude":32.8270045,"longitude":-96.8432224,"name":"Gameleaper","category_code":"games_video","founded_year":2009,"number_of_employees":1,"med_employees":1.0,"coordenadas":[-96.8432224,32.8270045]}
{"index":107,"city":"Berlin","country_code":"DEU","latitude":52.5189904,"longitude":13.4663753,"name":"quoobs","category_code":"web","founded_year":2009,"number_of_employees":3,"med_employees":3.0,"coordenadas":[13.4663753,52.5189904]}
{"index":108,"city":"Columbia","country_code":"USA","latitude":34.019114,"longitude":-81.004871,"name":"Hayen Company","category_code":"games_video","founded_year":2011,"number_of_employees":1,"med_employees":1.0,"coordenadas":[-81.004871,34.019114]}
{"index":109,"city":"Copenhagen","country_code":"DNK","latitude":55.6770321,"longitude":12.5751278,"name":"1calendar","category_code":"software","founded_year":2009,"number_of_employees":8,"med_employees":4.0,"coordenadas":[12.5751278,55.6770321]}
{"index":110,"city":"Copenhagen","country_code":"DNK","latitude":55.6802318,"longitude":12.524884,"name":"1calendar","category_code":"software","founded_year":2009,"number_of_employees":8,"med_employees":4.0,"coordenadas":[12.524884,55.6802318]}
{"index":111,"city":"Portland","country_code":"USA","latitude":45.488419,"longitude":-122.642156,"name":"BIT TV","category_code":"games_video","founded_year":2009,"number_of_employees":10,"med_employees":10.0,"coordenadas":[-122.642156,45.488419]}
{"index":112,"city":"Vienna","country_code":"AUT","latitude":48.2114213,"longitude":16.3736319,"name":"all140","category_code":"web","founded_year":2009,"number_of_employees":4,"med_employees":4.0,"coordenadas":[16.3736319,48.2114213]}
{"index":113,"city":"Sarasota","country_code":"USA","latitude":27.3858,"longitude":-82.423,"name":"AlphaPoint Technology","category_code":"software","founded_year":2009,"number_of_employees":10,"med_employees":10.0,"coordenadas":[-82.423,27.3858]}
{"index":116,"city":"Ellensburg","country_code":"USA","latitude":45.7968414,"longitude":-122.6931439,"name":"Graticle","category_code":"design","founded_year":2009,"number_of_employees":1,"med_employees":1.0,"coordenadas":[-122.6931439,45.7968414]}
{"index":119,"city":"Levallois-Perret","country_code":"FRA","latitude":48.8964115,"longitude":2.2863338,"name":"OCTALINE","category_code":"web","founded_year":2009,"number_of_employees":2,"med_employees":2.0,"coordenadas":[2.2863338,48.8964115]}
{"index":120,"city":"Columbia","country_code":"USA","latitude":38.9569894,"longitude":-92.3227556,"name":"Book'd","category_code":"software","founded_year":2009,"number_of_employees":1,"med_employees":1.0,"coordenadas":[-92.3227556,38.9569894]}
{"index":121,"city":"Augsburg","country_code":"DEU","latitude":48.3400291,"longitude":10.9059804,"name":"makandra","category_code":"software","founded_year":2009,"number_of_employees":8,"med_employees":8.0,"coordenadas":[10.9059804,48.3400291]}
{"index":123,"city":"Chicago","country_code":"USA","latitude":41.9205483,"longitude":-87.6531805,"name":"Statugle","category_code":"web","founded_year":2009,"number_of_employees":1,"med_employees":1.0,"coordenadas":[-87.6531805,41.9205483]}
{"index":124,"city":"Sao Paulo","country_code":"BRA","latitude":-23.5815208,"longitude":-46.6773686,"name":"DP7 Digital","category_code":"software","founded_year":2009,"number_of_employees":6,"med_employees":3.0,"coordenadas":[-46.6773686,-23.5815208]}
{"index":125,"city":"Florianopolis","country_code":"BRA","latitude":-27.5995476,"longitude":-48.5483418,"name":"DP7 Digital","category_code":"software","founded_year":2009,"number_of_employees":6,"med_employees":3.0,"coordenadas":[-48.5483418,-27.5995476]}
{"index":126,"city":"Gdynia","country_code":"POL","latitude":54.520135,"longitude":18.5416342,"name":"JustProto","category_code":"software","founded_year":2009,"number_of_employees":11,"med_employees":11.0,"coordenadas":[18.5416342,54.520135]}
{"index":127,"city":"Mar del Plata","country_code":"ARG","latitude":-37.9924155,"longitude":-57.5538238,"name":"Fan","category_code":"consulting","founded_year":2009,"number_of_employees":10,"med_employees":10.0,"coordenadas":[-57.5538238,-37.9924155]}
{"index":128,"city":"Coconut Creek","country_code":"USA","latitude":26.280346,"longitude":-80.186473,"name":"ToolzDO","category_code":"web","founded_year":2009,"number_of_employees":1,"med_employees":1.0,"coordenadas":[-80.186473,26.280346]}
{"index":130,"city":"Woobridge","country_code":"USA","latitude":40.555566,"longitude":-74.283346,"name":"jamWee","category_code":"web","founded_year":2009,"number_of_employees":5,"med_employees":5.0,"coordenadas":[-74.283346,40.555566]}
{"index":131,"city":"Toledo","country_code":"ESP","latitude":39.8725119,"longitude":-4.0210296,"name":"Hostarting","category_code":"web","founded_year":2009,"number_of_employees":2,"med_employees":2.0,"coordenadas":[-4.0210296,39.8725119]}
{"index":132,"city":"Hamburg","country_code":"DEU","latitude":53.5688101,"longitude":9.9819779,"name":"expertnews","category_code":"web","founded_year":2009,"number_of_employees":1,"med_employees":1.0,"coordenadas":[9.9819779,53.5688101]}
{"index":133,"city":"Seattle","country_code":"USA","latitude":47.620973,"longitude":-122.347276,"name":"Flaggpole","category_code":"web","founded_year":2009,"number_of_employees":4,"med_employees":4.0,"coordenadas":[-122.347276,47.620973]}
{"index":134,"city":"West Palm Beach","country_code":"USA","latitude":26.706239,"longitude":-80.0520862,"name":"ReferenceBot","category_code":"web","founded_year":2009,"number_of_employees":1,"med_employees":1.0,"coordenadas":[-80.0520862,26.706239]}
{"index":136,"city":"Pittsburgh","country_code":"USA","latitude":40.438423,"longitude":-80.001933,"name":"The Resumator","category_code":"software","founded_year":2009,"number_of_employees":40,"med_employees":40.0,"coordenadas":[-80.001933,40.438423]}
{"index":137,"city":"San Mateo","country_code":"USA","latitude":37.5646055,"longitude":-122.3229235,"name":"Sofa Labs","category_code":"social","founded_year":2009,"number_of_employees":5,"med_employees":5.0,"coordenadas":[-122.3229235,37.5646055]}
{"index":139,"city":"Austin","country_code":"USA","latitude":30.2961708,"longitude":-97.7389543,"name":"AppUseful","category_code":"web","founded_year":2009,"number_of_employees":7,"med_employees":7.0,"coordenadas":[-97.7389543,30.2961708]}
{"index":141,"city":"Madrid","country_code":"ESP","latitude":40.6367104,"longitude":-3.9980485,"name":"Undead Code Studios","category_code":"games_video","founded_year":2009,"number_of_employees":5,"med_employees":5.0,"coordenadas":[-3.9980485,40.6367104]}
{"index":144,"city":"Bangalore","country_code":"IND","latitude":12.9164537,"longitude":77.6101165,"name":"IndiaOnAPage","category_code":"software","founded_year":2009,"number_of_employees":8,"med_employees":8.0,"coordenadas":[77.6101165,12.9164537]}
{"index":145,"city":"Doylestown","country_code":"USA","latitude":40.3113504,"longitude":-75.1135236,"name":"Nalts Consulting","category_code":"consulting","founded_year":2009,"number_of_employees":1,"med_employees":1.0,"coordenadas":[-75.1135236,40.3113504]}
{"index":147,"city":"New York City","country_code":"USA","latitude":40.7489381,"longitude":-73.9918181,"name":"ArtNeighbor","category_code":"web","founded_year":2009,"number_of_employees":5,"med_employees":5.0,"coordenadas":[-73.9918181,40.7489381]}
{"index":148,"city":"Lisbon","country_code":"PRT","latitude":38.7071631,"longitude":-9.135517,"name":"Movip","category_code":"web","founded_year":2009,"number_of_employees":2,"med_employees":2.0,"coordenadas":[-9.135517,38.7071631]}
{"index":149,"city":"Queensland","country_code":"AUS","latitude":-27.4574861,"longitude":153.033686,"name":"ekidnaworld","category_code":"games_video","founded_year":2010,"number_of_employees":10,"med_employees":10.0,"coordenadas":[153.033686,-27.4574861]}
{"index":151,"city":"Hamburg","country_code":"DEU","latitude":53.5622698,"longitude":9.9490139,"name":"scoyo","category_code":"games_video","founded_year":2009,"number_of_employees":13,"med_employees":13.0,"coordenadas":[9.9490139,53.5622698]}
{"index":152,"city":"Birmingham","country_code":"GBR","latitude":53.3706564,"longitude":-1.5613493,"name":"OnePage","category_code":"web","founded_year":2009,"number_of_employees":2,"med_employees":2.0,"coordenadas":[-1.5613493,53.3706564]}
{"index":153,"city":"Miami","country_code":"USA","latitude":25.774252,"longitude":-80.190262,"name":"Status Search","category_code":"search","founded_year":2009,"number_of_employees":2,"med_employees":1.0,"coordenadas":[-80.190262,25.774252]}
{"index":154,"city":"Tel Aviv","country_code":"ISR","latitude":32.0554,"longitude":34.7595,"name":"Status Search","category_code":"search","founded_year":2009,"number_of_employees":2,"med_employees":1.0,"coordenadas":[34.7595,32.0554]}
{"index":156,"city":"Karlsruhe","country_code":"DEU","latitude":48.9974246,"longitude":8.4649954,"name":"FindandSmile","category_code":"web","founded_year":2009,"number_of_employees":2,"med_employees":2.0,"coordenadas":[8.4649954,48.9974246]}
{"index":157,"city":"New York","country_code":"USA","latitude":40.756054,"longitude":-73.986951,"name":"Udorse","category_code":"web","founded_year":2009,"number_of_employees":3,"med_employees":3.0,"coordenadas":[-73.986951,40.756054]}
{"index":158,"city":"San Jose","country_code":"USA","latitude":37.320052,"longitude":-121.877636,"name":"Meuzer","category_code":"games_video","founded_year":2009,"number_of_employees":3,"med_employees":3.0,"coordenadas":[-121.877636,37.320052]}
{"index":159,"city":"Paris","country_code":"FRA","latitude":48.882769,"longitude":2.336453,"name":"YesOrNow","category_code":"web","founded_year":2009,"number_of_employees":3,"med_employees":3.0,"coordenadas":[2.336453,48.882769]}
{"index":160,"city":"Paris","country_code":"FRA","latitude":48.8566667,"longitude":2.3509871,"name":"HURRYCAM","category_code":"web","founded_year":2009,"number_of_employees":5,"med_employees":5.0,"coordenadas":[2.3509871,48.8566667]}
{"index":162,"city":"London","country_code":"GBR","latitude":51.5395914,"longitude":-0.1525048,"name":"Bar Exchange","category_code":"web","founded_year":2009,"number_of_employees":10,"med_employees":10.0,"coordenadas":[-0.1525048,51.5395914]}
{"index":164,"city":"Montreal","country_code":"CAN","latitude":45.5058782,"longitude":-73.5673333,"name":"Nirvana","category_code":"software","founded_year":2009,"number_of_employees":3,"med_employees":3.0,"coordenadas":[-73.5673333,45.5058782]}
{"index":165,"city":"San Francisco","country_code":"USA","latitude":37.775196,"longitude":-122.419204,"name":"Finest Expert","category_code":"web","founded_year":2009,"number_of_employees":3,"med_employees":3.0,"coordenadas":[-122.419204,37.775196]}
{"index":166,"city":"Waterloo","country_code":"CAN","latitude":43.477552,"longitude":-80.534491,"name":"Buddingup","category_code":"web","founded_year":2009,"number_of_employees":2,"med_employees":2.0,"coordenadas":[-80.534491,43.477552]}
{"index":167,"city":"Chicago","country_code":"USA","latitude":41.9174637,"longitude":-87.6664837,"name":"Eventric","category_code":"software","founded_year":2009,"number_of_employees":10,"med_employees":10.0,"coordenadas":[-87.6664837,41.9174637]}
{"index":168,"city":"Philadelphia","country_code":"USA","latitude":39.951639,"longitude":-75.163808,"name":"ZIPQODE","category_code":"web","founded_year":2009,"number_of_employees":1,"med_employees":1.0,"coordenadas":[-75.163808,39.951639]}
{"index":169,"city":"New York","country_code":"USA","latitude":40.7489381,"longitude":-73.9918181,"name":"Strategist News","category_code":"web","founded_year":2009,"number_of_employees":4,"med_employees":4.0,"coordenadas":[-73.9918181,40.7489381]}
{"index":174,"city":"Paris","country_code":"FRA","latitude":48.8566667,"longitude":2.3509871,"name":"Ykone","category_code":"web","founded_year":2009,"number_of_employees":10,"med_employees":10.0,"coordenadas":[2.3509871,48.8566667]}
{"index":175,"city":"Laguna Beach","country_code":"USA","latitude":33.5341548,"longitude":-117.7769669,"name":"ResuWe","category_code":"software","founded_year":2009,"number_of_employees":5,"med_employees":5.0,"coordenadas":[-117.7769669,33.5341548]}
{"index":176,"city":"Columbia","country_code":"USA","latitude":34.002737,"longitude":-81.018312,"name":"Startlike","category_code":"web","founded_year":2009,"number_of_employees":8,"med_employees":8.0,"coordenadas":[-81.018312,34.002737]}
{"index":179,"city":"London","country_code":"GBR","latitude":51.5215279,"longitude":-0.1038219,"name":"Enternships","category_code":"web","founded_year":2009,"number_of_employees":15,"med_employees":15.0,"coordenadas":[-0.1038219,51.5215279]}
{"index":181,"city":"Malm\u00f6","country_code":"SWE","latitude":55.6057989,"longitude":12.9950742,"name":"Kvittar","category_code":"web","founded_year":2009,"number_of_employees":4,"med_employees":4.0,"coordenadas":[12.9950742,55.6057989]}
{"index":182,"city":"London","country_code":"GBR","latitude":51.4770982,"longitude":-0.2867703,"name":"PicFog","category_code":"search","founded_year":2009,"number_of_employees":1,"med_employees":1.0,"coordenadas":[-0.2867703,51.4770982]}
{"index":183,"city":"Madrid","country_code":"ESP","latitude":40.4244585,"longitude":-3.6990948,"name":"Taxi Fares app","category_code":"software","founded_year":2009,"number_of_employees":5,"med_employees":5.0,"coordenadas":[-3.6990948,40.4244585]}
{"index":185,"city":"Amsterdam","country_code":"NLD","latitude":52.3655578,"longitude":4.9345824,"name":"Lipperhey","category_code":"software","founded_year":2009,"number_of_employees":6,"med_employees":6.0,"coordenadas":[4.9345824,52.3655578]}
{"index":186,"city":"Washington","country_code":"USA","latitude":38.905504,"longitude":-77.05681,"name":"Vortimer","category_code":"web","founded_year":2009,"number_of_employees":2,"med_employees":2.0,"coordenadas":[-77.05681,38.905504]}
{"index":189,"city":"Mayaguez","country_code":"PRI","latitude":18.2066344,"longitude":-67.1517568,"name":"140Ware","category_code":"web","founded_year":2009,"number_of_employees":3,"med_employees":3.0,"coordenadas":[-67.1517568,18.2066344]}
{"index":190,"city":"Monte Sereno","country_code":"USA","latitude":37.241813,"longitude":-121.986779,"name":"Asyus","category_code":"web","founded_year":2009,"number_of_employees":7,"med_employees":7.0,"coordenadas":[-121.986779,37.241813]}
{"index":191,"city":"New York","country_code":"USA","latitude":40.7408042,"longitude":-74.00717,"name":"ChallengePost","category_code":"web","founded_year":2009,"number_of_employees":17,"med_employees":17.0,"coordenadas":[-74.00717,40.7408042]}
{"index":192,"city":"Troy","country_code":"USA","latitude":28.490886,"longitude":-82.540512,"name":"Outspoken Media","category_code":"consulting","founded_year":2009,"number_of_employees":8,"med_employees":8.0,"coordenadas":[-82.540512,28.490886]}
{"index":193,"city":"Barcelona","country_code":"ESP","latitude":41.4063346,"longitude":2.1920231,"name":"Teambox","category_code":"web","founded_year":2009,"number_of_employees":35,"med_employees":17.5,"coordenadas":[2.1920231,41.4063346]}
{"index":196,"city":"Paris","country_code":"FRA","latitude":53.3328144,"longitude":-6.2493777,"name":"ftopia","category_code":"software","founded_year":2009,"number_of_employees":7,"med_employees":7.0,"coordenadas":[-6.2493777,53.3328144]}
{"index":197,"city":"Cambridge","country_code":"USA","latitude":42.3672873,"longitude":-71.0814466,"name":"Tiverias Apps","category_code":"software","founded_year":2009,"number_of_employees":20,"med_employees":20.0,"coordenadas":[-71.0814466,42.3672873]}
{"index":198,"city":"Beverly Hills","country_code":"USA","latitude":34.0698912,"longitude":-118.405325,"name":"HOTForms123","category_code":"web","founded_year":2009,"number_of_employees":2,"med_employees":2.0,"coordenadas":[-118.405325,34.0698912]}
{"index":205,"city":"Vancouver","country_code":"CAN","latitude":49.2824551,"longitude":-123.109217,"name":"Tiny Speck","category_code":"games_video","founded_year":2009,"number_of_employees":45,"med_employees":45.0,"coordenadas":[-123.109217,49.2824551]}
{"index":207,"city":"Reno","country_code":"USA","latitude":39.394564,"longitude":-119.8120795,"name":"MyChances","category_code":"consulting","founded_year":2009,"number_of_employees":2,"med_employees":1.0,"coordenadas":[-119.8120795,39.394564]}
{"index":208,"city":"Menlo Park","country_code":"USA","latitude":37.4484914,"longitude":-122.1802812,"name":"MyChances","category_code":"consulting","founded_year":2009,"number_of_employees":2,"med_employees":1.0,"coordenadas":[-122.1802812,37.4484914]}
{"index":0,"city":"Menlo Park","country_code":"USA","latitude":37.41605,"longitude":-122.151801,"name":"Facebook","category_code":"social","founded_year":2004,"number_of_employees":5299,"med_employees":1766.3333333333,"coordenadas":[-122.151801,37.41605]}
{"index":1,"city":"Dublin","country_code":"IRL","latitude":53.344104,"longitude":-6.267494,"name":"Facebook","category_code":"social","founded_year":2004,"number_of_employees":5299,"med_employees":1766.3333333333,"coordenadas":[-6.267494,53.344104]}
{"index":2,"city":"New York","country_code":"USA","latitude":40.7557162,"longitude":-73.9792469,"name":"Facebook","category_code":"social","founded_year":2004,"number_of_employees":5299,"med_employees":1766.3333333333,"coordenadas":[-73.9792469,40.7557162]}
{"index":3,"city":"San Francisco","country_code":"USA","latitude":37.7768052,"longitude":-122.4169244,"name":"Twitter","category_code":"social","founded_year":2006,"number_of_employees":1300,"med_employees":1300.0,"coordenadas":[-122.4169244,37.7768052]}
{"index":4,"city":"San Francisco","country_code":"USA","latitude":37.778613,"longitude":-122.395289,"name":"Powerset","category_code":"search","founded_year":2006,"number_of_employees":60,"med_employees":60.0,"coordenadas":[-122.395289,37.778613]}
{"index":5,"city":"New York","country_code":"USA","latitude":40.72604,"longitude":-73.995722,"name":"Meetup","category_code":"web","founded_year":2002,"number_of_employees":75,"med_employees":75.0,"coordenadas":[-73.995722,40.72604]}
{"index":6,"city":"New York","country_code":"USA","latitude":40.726155,"longitude":-73.995625,"name":"Livestream","category_code":"games_video","founded_year":2007,"number_of_employees":120,"med_employees":120.0,"coordenadas":[-73.995625,40.726155]}
{"index":7,"city":"San Francisco","country_code":"USA","latitude":37.392936,"longitude":-122.07948,"name":"Ustream","category_code":"games_video","founded_year":2007,"number_of_employees":250,"med_employees":83.3333333333,"coordenadas":[-122.07948,37.392936]}
{"index":10,"city":"San Francisco","country_code":"USA","latitude":37.786183,"longitude":-122.402195,"name":"Yelp","category_code":"search","founded_year":2004,"number_of_employees":800,"med_employees":800.0,"coordenadas":[-122.402195,37.786183]}
{"index":11,"city":"Redwood City","country_code":"USA","latitude":37.484619,"longitude":-122.206893,"name":"RockYou","category_code":"games_video","founded_year":2005,"number_of_employees":106,"med_employees":106.0,"coordenadas":[-122.206893,37.484619]}
{"index":12,"city":"Mountain View","country_code":"USA","latitude":37.393679,"longitude":-122.079017,"name":"Meebo","category_code":"web","founded_year":2005,"number_of_employees":200,"med_employees":40.0,"coordenadas":[-122.079017,37.393679]}
{"index":17,"city":"San Francisco","country_code":"USA","latitude":37.779507,"longitude":-122.39071,"name":"Eventbrite","category_code":"web","founded_year":2006,"number_of_employees":200,"med_employees":200.0,"coordenadas":[-122.39071,37.779507]}
{"index":18,"city":"Mountain View","country_code":"USA","latitude":37.423258,"longitude":-122.073635,"name":"LinkedIn","category_code":"social","founded_year":2003,"number_of_employees":4800,"med_employees":4800.0,"coordenadas":[-122.073635,37.423258]}
{"index":19,"city":"San Diego","country_code":"USA","latitude":32.872081,"longitude":-117.206292,"name":"Eventful","category_code":"web","founded_year":2004,"number_of_employees":60,"med_employees":30.0,"coordenadas":[-117.206292,32.872081]}
{"index":21,"city":"San Mateo","country_code":"USA","latitude":37.553121,"longitude":-122.301534,"name":"Zvents","category_code":"web","founded_year":2005,"number_of_employees":55,"med_employees":55.0,"coordenadas":[-122.301534,37.553121]}
{"index":22,"city":"Redwood City","country_code":"USA","latitude":37.479952,"longitude":-122.178557,"name":"oDesk","category_code":"web","founded_year":2005,"number_of_employees":120,"med_employees":120.0,"coordenadas":[-122.178557,37.479952]}
{"index":23,"city":"Sunnyvale","country_code":"USA","latitude":37.4219165,"longitude":-122.0780632,"name":"Simply Hired","category_code":"search","founded_year":2004,"number_of_employees":100,"med_employees":100.0,"coordenadas":[-122.0780632,37.4219165]}
{"index":24,"city":"San Francisco","country_code":"USA","latitude":37.766909,"longitude":-122.406676,"name":"Flixster","category_code":"web","founded_year":2006,"number_of_employees":75,"med_employees":75.0,"coordenadas":[-122.406676,37.766909]}
{"index":25,"city":"Pleasanton","country_code":"USA","latitude":37.6637279,"longitude":-121.8731805,"name":"spigit","category_code":"software","founded_year":2006,"number_of_employees":120,"med_employees":40.0,"coordenadas":[-121.8731805,37.6637279]}
{"index":26,"city":"Reston","country_code":"USA","latitude":38.9590083,"longitude":-77.3592746,"name":"spigit","category_code":"software","founded_year":2006,"number_of_employees":120,"med_employees":40.0,"coordenadas":[-77.3592746,38.9590083]}
{"index":27,"city":"London","country_code":"GBR","latitude":51.5170385,"longitude":-0.1394759,"name":"spigit","category_code":"software","founded_year":2006,"number_of_employees":120,"med_employees":40.0,"coordenadas":[-0.1394759,51.5170385]}
{"index":28,"city":"Austin","country_code":"USA","latitude":30.407545,"longitude":-97.717667,"name":"Bazaarvoice","category_code":"software","founded_year":2005,"number_of_employees":600,"med_employees":600.0,"coordenadas":[-97.717667,30.407545]}
{"index":29,"city":"San Francisco","country_code":"USA","latitude":37.7753,"longitude":-122.4186,"name":"Tagged","category_code":"social","founded_year":2004,"number_of_employees":162,"med_employees":162.0,"coordenadas":[-122.4186,37.7753]}
{"index":30,"city":"San Francisco","country_code":"USA","latitude":37.788668,"longitude":-122.400558,"name":"hi5","category_code":"games_video","founded_year":2003,"number_of_employees":100,"med_employees":100.0,"coordenadas":[-122.400558,37.788668]}
{"index":31,"city":"San Francisco","country_code":"USA","latitude":37.787092,"longitude":-122.399972,"name":"Curse","category_code":"games_video","founded_year":2006,"number_of_employees":58,"med_employees":29.0,"coordenadas":[-122.399972,37.787092]}
{"index":33,"city":"Mountain View","country_code":"USA","latitude":37.3927975,"longitude":-122.0727749,"name":"IMVU","category_code":"web","founded_year":2004,"number_of_employees":150,"med_employees":150.0,"coordenadas":[-122.0727749,37.3927975]}
{"index":34,"city":"Woodbridge","country_code":"CAN","latitude":43.76969,"longitude":-79.549577,"name":"Webkinz","category_code":"web","founded_year":2005,"number_of_employees":8657,"med_employees":8657.0,"coordenadas":[-79.549577,43.76969]}
{"index":35,"city":"San Francisco","country_code":"USA","latitude":37.7909427,"longitude":-122.4084994,"name":"Dropbox","category_code":"software","founded_year":2007,"number_of_employees":350,"med_employees":175.0,"coordenadas":[-122.4084994,37.7909427]}
{"index":41,"city":"San Francisco","country_code":"USA","latitude":37.795555,"longitude":-122.400729,"name":"Weebly","category_code":"web","founded_year":2006,"number_of_employees":70,"med_employees":70.0,"coordenadas":[-122.400729,37.795555]}
{"index":42,"city":"San Francisco","country_code":"USA","latitude":37.7911148,"longitude":-122.3954751,"name":"Yola","category_code":"web","founded_year":2007,"number_of_employees":70,"med_employees":35.0,"coordenadas":[-122.3954751,37.7911148]}
{"index":44,"city":"San Francisco","country_code":"USA","latitude":37.790998,"longitude":-122.394668,"name":"BitTorrent","category_code":"web","founded_year":2004,"number_of_employees":80,"med_employees":80.0,"coordenadas":[-122.394668,37.790998]}
{"index":46,"city":"Waltham","country_code":"USA","latitude":42.38532,"longitude":-71.207055,"name":"ZoomInfo","category_code":"search","founded_year":2000,"number_of_employees":800,"med_employees":800.0,"coordenadas":[-71.207055,42.38532]}
{"index":47,"city":"Kuala Lumpur","country_code":"MYS","latitude":3.139003,"longitude":101.686855,"name":"Friendster","category_code":"web","founded_year":2001,"number_of_employees":70,"med_employees":70.0,"coordenadas":[101.686855,3.139003]}
{"index":48,"city":"San Francisco","country_code":"USA","latitude":37.766909,"longitude":-122.406676,"name":"Trulia","category_code":"search","founded_year":2004,"number_of_employees":500,"med_employees":500.0,"coordenadas":[-122.406676,37.766909]}
{"index":49,"city":"Vancouver","country_code":"CAN","latitude":3.046111,"longitude":-75.066111,"name":"airG","category_code":"search","founded_year":2000,"number_of_employees":180,"med_employees":180.0,"coordenadas":[-75.066111,3.046111]}
{"index":50,"city":"Morrisville","country_code":"USA","latitude":35.854483,"longitude":-78.815635,"name":"ChannelAdvisor","category_code":"search","founded_year":2001,"number_of_employees":300,"med_employees":300.0,"coordenadas":[-78.815635,35.854483]}
{"index":51,"city":"Los Angeles","country_code":"USA","latitude":34.031276,"longitude":-118.456806,"name":"hulu","category_code":"games_video","founded_year":2007,"number_of_employees":153,"med_employees":153.0,"coordenadas":[-118.456806,34.031276]}
{"index":53,"city":"Singapore","country_code":"SGP","latitude":37.580304,"longitude":-122.343679,"name":"mig33","category_code":"games_video","founded_year":2005,"number_of_employees":100,"med_employees":100.0,"coordenadas":[-122.343679,37.580304]}
{"index":55,"city":"Seattle","country_code":"USA","latitude":47.620716,"longitude":-122.347533,"name":"Moz","category_code":"search","founded_year":2002,"number_of_employees":130,"med_employees":130.0,"coordenadas":[-122.347533,47.620716]}
{"index":56,"city":"Mountain View","country_code":"USA","latitude":37.386175,"longitude":-122.083487,"name":"Polyvore","category_code":"web","founded_year":2007,"number_of_employees":73,"med_employees":73.0,"coordenadas":[-122.083487,37.386175]}
{"index":58,"city":"San Francisco","country_code":"USA","latitude":37.744274,"longitude":-122.421344,"name":"Automattic","category_code":"web","founded_year":2005,"number_of_employees":200,"med_employees":200.0,"coordenadas":[-122.421344,37.744274]}
{"index":59,"city":"Framingham","country_code":"USA","latitude":42.288291,"longitude":-71.52679,"name":"uTest","category_code":"software","founded_year":2007,"number_of_employees":120,"med_employees":60.0,"coordenadas":[-71.52679,42.288291]}
{"index":63,"city":"Chevy Chase","country_code":"USA","latitude":38.963492,"longitude":-77.091025,"name":"JackBe","category_code":"software","founded_year":2002,"number_of_employees":65,"med_employees":32.5,"coordenadas":[-77.091025,38.963492]}
{"index":65,"city":"Palo Alto","country_code":"USA","latitude":37.445326,"longitude":-122.160671,"name":"EchoSign","category_code":"web","founded_year":2005,"number_of_employees":100,"med_employees":100.0,"coordenadas":[-122.160671,37.445326]}
{"index":66,"city":"San Jose","country_code":"USA","latitude":37.332271,"longitude":-122.006539,"name":"Baynote","category_code":"software","founded_year":2004,"number_of_employees":80,"med_employees":80.0,"coordenadas":[-122.006539,37.332271]}
{"index":67,"city":"Copenhagen","country_code":"DNK","latitude":55.6839208,"longitude":12.571492,"name":"Zmags","category_code":"software","founded_year":2006,"number_of_employees":95,"med_employees":31.6666666667,"coordenadas":[12.571492,55.6839208]}
{"index":69,"city":"London","country_code":"GBR","latitude":51.5111369,"longitude":-0.1247662,"name":"Zmags","category_code":"software","founded_year":2006,"number_of_employees":95,"med_employees":31.6666666667,"coordenadas":[-0.1247662,51.5111369]}
{"index":70,"city":"Austin","country_code":"USA","latitude":30.269452,"longitude":-97.742682,"name":"Springbox","category_code":"web","founded_year":2004,"number_of_employees":65,"med_employees":32.5,"coordenadas":[-97.742682,30.269452]}
{"index":71,"city":"Los Angeles","country_code":"USA","latitude":34.0065488,"longitude":-118.3923578,"name":"Springbox","category_code":"web","founded_year":2004,"number_of_employees":65,"med_employees":32.5,"coordenadas":[-118.3923578,34.0065488]}
{"index":72,"city":"Santa Clara","country_code":"USA","latitude":37.399208,"longitude":-121.97895,"name":"Vobile","category_code":"web","founded_year":2005,"number_of_employees":120,"med_employees":120.0,"coordenadas":[-121.97895,37.399208]}
{"index":73,"city":"San Francisco","country_code":"USA","latitude":37.78274,"longitude":-122.390945,"name":"Splunk","category_code":"software","founded_year":2003,"number_of_employees":500,"med_employees":500.0,"coordenadas":[-122.390945,37.78274]}
{"index":74,"city":"Paris","country_code":"FRA","latitude":46.227638,"longitude":2.213749,"name":"Kewego","category_code":"games_video","founded_year":2003,"number_of_employees":65,"med_employees":65.0,"coordenadas":[2.213749,46.227638]}
{"index":75,"city":"Cambridge","country_code":"USA","latitude":42.375392,"longitude":-71.118487,"name":"HubSpot","category_code":"software","founded_year":2006,"number_of_employees":650,"med_employees":650.0,"coordenadas":[-71.118487,42.375392]}
{"index":76,"city":"Paris","country_code":"FRA","latitude":48.8747064,"longitude":2.3304161,"name":"Viadeo","category_code":"social","founded_year":2004,"number_of_employees":400,"med_employees":400.0,"coordenadas":[2.3304161,48.8747064]}
{"index":81,"city":"Santa Monica","country_code":"USA","latitude":34.01052,"longitude":-118.495981,"name":"Goodreads","category_code":"web","founded_year":2007,"number_of_employees":70,"med_employees":35.0,"coordenadas":[-118.495981,34.01052]}
{"index":83,"city":"Durham","country_code":"USA","latitude":35.996157,"longitude":-78.902115,"name":"Shoeboxed","category_code":"web","founded_year":2007,"number_of_employees":70,"med_employees":23.3333333333,"coordenadas":[-78.902115,35.996157]}
{"index":84,"city":"Durham","country_code":"USA","latitude":35.9939,"longitude":-78.8986,"name":"Shoeboxed","category_code":"web","founded_year":2007,"number_of_employees":70,"med_employees":23.3333333333,"coordenadas":[-78.8986,35.9939]}
{"index":86,"city":"Norwalk","country_code":"USA","latitude":41.1010914,"longitude":-73.4168779,"name":"KAYAK","category_code":"search","founded_year":2004,"number_of_employees":101,"med_employees":50.5,"coordenadas":[-73.4168779,41.1010914]}
{"index":88,"city":"Redwood City","country_code":"USA","latitude":37.3208403,"longitude":-121.9479223,"name":"Bunchball","category_code":"software","founded_year":2005,"number_of_employees":60,"med_employees":60.0,"coordenadas":[-121.9479223,37.3208403]}
{"index":89,"city":"Carrollton","country_code":"USA","latitude":33.020526,"longitude":-96.848836,"name":"Woot","category_code":"web","founded_year":2004,"number_of_employees":200,"med_employees":200.0,"coordenadas":[-96.848836,33.020526]}
{"index":90,"city":"PARIS","country_code":"FRA","latitude":48.862063,"longitude":2.35022,"name":"AF83","category_code":"web","founded_year":2006,"number_of_employees":55,"med_employees":27.5,"coordenadas":[2.35022,48.862063]}
{"index":92,"city":"Los Angeles","country_code":"USA","latitude":34.051368,"longitude":-118.256305,"name":"Oversee","category_code":"web","founded_year":2000,"number_of_employees":150,"med_employees":150.0,"coordenadas":[-118.256305,34.051368]}
{"index":96,"city":"San Francisco","country_code":"USA","latitude":37.765158,"longitude":-122.404234,"name":"Zynga","category_code":"games_video","founded_year":2007,"number_of_employees":115,"med_employees":28.75,"coordenadas":[-122.404234,37.765158]}
{"index":100,"city":"Overland Park","country_code":"USA","latitude":38.89055,"longitude":-94.671644,"name":"iModules Software","category_code":"web","founded_year":2000,"number_of_employees":67,"med_employees":67.0,"coordenadas":[-94.671644,38.89055]}
{"index":101,"city":"Goleta","country_code":"USA","latitude":34.431454,"longitude":-119.855405,"name":"Citrix Online","category_code":"web","founded_year":2003,"number_of_employees":700,"med_employees":700.0,"coordenadas":[-119.855405,34.431454]}
{"index":102,"city":"Seattle","country_code":"USA","latitude":47.650674,"longitude":-122.349863,"name":"Survey Analytics","category_code":"web","founded_year":2003,"number_of_employees":100,"med_employees":100.0,"coordenadas":[-122.349863,47.650674]}
{"index":104,"city":"Palo Alto","country_code":"USA","latitude":37.383844,"longitude":-121.918319,"name":"Mixbook","category_code":"web","founded_year":2006,"number_of_employees":90,"med_employees":90.0,"coordenadas":[-121.918319,37.383844]}
{"index":106,"city":"Berlin","country_code":"DEU","latitude":52.5131826,"longitude":13.3941489,"name":"GameDuell","category_code":"games_video","founded_year":2003,"number_of_employees":200,"med_employees":100.0,"coordenadas":[13.3941489,52.5131826]}
{"index":109,"city":"Munich","country_code":"DEU","latitude":48.124827,"longitude":11.556452,"name":"amiando","category_code":"web","founded_year":2006,"number_of_employees":76,"med_employees":19.0,"coordenadas":[11.556452,48.124827]}
{"index":110,"city":"London","country_code":"GBR","latitude":51.5248598,"longitude":-0.0836311,"name":"amiando","category_code":"web","founded_year":2006,"number_of_employees":76,"med_employees":19.0,"coordenadas":[-0.0836311,51.5248598]}
{"index":111,"city":"Hong Kong","country_code":"HKG","latitude":22.2799907,"longitude":114.1587983,"name":"amiando","category_code":"web","founded_year":2006,"number_of_employees":76,"med_employees":19.0,"coordenadas":[114.1587983,22.2799907]}
{"index":112,"city":"Paris","country_code":"FRA","latitude":48.857993,"longitude":2.381153,"name":"amiando","category_code":"web","founded_year":2006,"number_of_employees":76,"med_employees":19.0,"coordenadas":[2.381153,48.857993]}
{"index":114,"city":"New York","country_code":"USA","latitude":40.725883,"longitude":-74.006196,"name":"TheLadders","category_code":"web","founded_year":2003,"number_of_employees":110,"med_employees":110.0,"coordenadas":[-74.006196,40.725883]}
{"index":115,"city":"Los Angeles","country_code":"USA","latitude":33.988735,"longitude":-118.368871,"name":"Gorilla Nation Media","category_code":"web","founded_year":2001,"number_of_employees":163,"med_employees":20.375,"coordenadas":[-118.368871,33.988735]}
{"index":123,"city":"Los Angeles","country_code":"USA","latitude":37.446823,"longitude":-122.161523,"name":"Social Gaming Network","category_code":"games_video","founded_year":2011,"number_of_employees":100,"med_employees":50.0,"coordenadas":[-122.161523,37.446823]}
{"index":124,"city":"Beverly Hills","country_code":"USA","latitude":34.0698494,"longitude":-118.4054182,"name":"Social Gaming Network","category_code":"games_video","founded_year":2011,"number_of_employees":100,"med_employees":50.0,"coordenadas":[-118.4054182,34.0698494]}
{"index":125,"city":"Paris","country_code":"FRA","latitude":48.86931,"longitude":2.324782,"name":"Exalead","category_code":"search","founded_year":2000,"number_of_employees":150,"med_employees":150.0,"coordenadas":[2.324782,48.86931]}
{"index":126,"city":"Gainesville","country_code":"USA","latitude":29.6502461,"longitude":-82.3230981,"name":"Grooveshark","category_code":"web","founded_year":2006,"number_of_employees":113,"med_employees":113.0,"coordenadas":[-82.3230981,29.6502461]}
{"index":127,"city":"Redwood City","country_code":"USA","latitude":37.386774,"longitude":-121.987661,"name":"Evernote","category_code":"software","founded_year":2004,"number_of_employees":280,"med_employees":280.0,"coordenadas":[-121.987661,37.386774]}
{"index":128,"city":"Van Nuys","country_code":"USA","latitude":34.19099,"longitude":-118.486428,"name":"Animax Entertainment","category_code":"games_video","founded_year":2001,"number_of_employees":55,"med_employees":55.0,"coordenadas":[-118.486428,34.19099]}
{"index":130,"city":"San Mateo","country_code":"USA","latitude":37.54763,"longitude":-122.307887,"name":"SugarSync","category_code":"web","founded_year":2004,"number_of_employees":60,"med_employees":60.0,"coordenadas":[-122.307887,37.54763]}
{"index":131,"city":"New York","country_code":"USA","latitude":40.8587524,"longitude":-73.7258199,"name":"OLX","category_code":"web","founded_year":2006,"number_of_employees":85,"med_employees":85.0,"coordenadas":[-73.7258199,40.8587524]}
{"index":133,"city":"Toronto","country_code":"CAN","latitude":43.70391,"longitude":-79.452609,"name":"FreshBooks","category_code":"web","founded_year":2003,"number_of_employees":110,"med_employees":110.0,"coordenadas":[-79.452609,43.70391]}
{"index":134,"city":"Los Angeles","country_code":"USA","latitude":33.988735,"longitude":-118.368871,"name":"AtomicOnline","category_code":"web","founded_year":2004,"number_of_employees":110,"med_employees":22.0,"coordenadas":[-118.368871,33.988735]}
{"index":139,"city":"New York","country_code":"USA","latitude":40.717248,"longitude":-74.002662,"name":"Boonty","category_code":"games_video","founded_year":2001,"number_of_employees":150,"med_employees":150.0,"coordenadas":[-74.002662,40.717248]}
{"index":140,"city":"New York","country_code":"USA","latitude":40.739794,"longitude":-73.985878,"name":"Phreesia","category_code":"software","founded_year":2005,"number_of_employees":70,"med_employees":70.0,"coordenadas":[-73.985878,40.739794]}
{"index":141,"city":"San Francisco","country_code":"USA","latitude":37.7955307,"longitude":-122.4005983,"name":"99designs","category_code":"design","founded_year":2008,"number_of_employees":100,"med_employees":33.3333333333,"coordenadas":[-122.4005983,37.7955307]}
{"index":142,"city":"Collingwood","country_code":"AUS","latitude":-37.8026587,"longitude":144.9868546,"name":"99designs","category_code":"design","founded_year":2008,"number_of_employees":100,"med_employees":33.3333333333,"coordenadas":[144.9868546,-37.8026587]}
{"index":143,"city":"Berlin","country_code":"DEU","latitude":52.4986199,"longitude":13.4469031,"name":"99designs","category_code":"design","founded_year":2008,"number_of_employees":100,"med_employees":33.3333333333,"coordenadas":[13.4469031,52.4986199]}
{"index":144,"city":"Chicago","country_code":"USA","latitude":42.040851,"longitude":-87.750643,"name":"Ifbyphone","category_code":"software","founded_year":2005,"number_of_employees":90,"med_employees":90.0,"coordenadas":[-87.750643,42.040851]}
{"index":145,"city":"Irvine","country_code":"USA","latitude":33.676444,"longitude":-117.8587,"name":"Kareo","category_code":"software","founded_year":2004,"number_of_employees":250,"med_employees":250.0,"coordenadas":[-117.8587,33.676444]}
{"index":146,"city":"Berlin","country_code":"DEU","latitude":52.5290751,"longitude":13.4161514,"name":"VZnet Netzwerke","category_code":"web","founded_year":2005,"number_of_employees":300,"med_employees":300.0,"coordenadas":[13.4161514,52.5290751]}
{"index":147,"city":"Moscow","country_code":"RUS","latitude":52.78945,"longitude":36.42735,"name":"Rutube","category_code":"web","founded_year":2006,"number_of_employees":80,"med_employees":80.0,"coordenadas":[36.42735,52.78945]}
{"index":148,"city":"Lindon","country_code":"USA","latitude":40.3310529,"longitude":-111.7276347,"name":"Footnote","category_code":"web","founded_year":2006,"number_of_employees":66,"med_employees":66.0,"coordenadas":[-111.7276347,40.3310529]}
{"index":149,"city":"Stockholm","country_code":"SWE","latitude":59.332788,"longitude":18.064488,"name":"PacketFront","category_code":"software","founded_year":2001,"number_of_employees":170,"med_employees":170.0,"coordenadas":[18.064488,59.332788]}
{"index":150,"city":"San Francisco","country_code":"USA","latitude":37.775196,"longitude":-122.419204,"name":"Clickpass","category_code":"web","founded_year":2007,"number_of_employees":90,"med_employees":90.0,"coordenadas":[-122.419204,37.775196]}
{"index":152,"city":"San Mateo","country_code":"USA","latitude":37.536044,"longitude":-122.328401,"name":"Clarizen","category_code":"software","founded_year":2005,"number_of_employees":110,"med_employees":55.0,"coordenadas":[-122.328401,37.536044]}
{"index":154,"city":"New York","country_code":"USA","latitude":40.743808,"longitude":-73.983626,"name":"Next New Networks","category_code":"web","founded_year":2007,"number_of_employees":121,"med_employees":121.0,"coordenadas":[-73.983626,40.743808]}
{"index":155,"city":"Foster City","country_code":"USA","latitude":37.5596277,"longitude":-122.2709868,"name":"Zuora","category_code":"software","founded_year":2007,"number_of_employees":250,"med_employees":250.0,"coordenadas":[-122.2709868,37.5596277]}
{"index":156,"city":"Palo Alto","country_code":"USA","latitude":37.4203945,"longitude":-122.0872274,"name":"ShareThis","category_code":"social","founded_year":2007,"number_of_employees":80,"med_employees":80.0,"coordenadas":[-122.0872274,37.4203945]}
{"index":157,"city":"Cambridge","country_code":"USA","latitude":42.365592,"longitude":-71.078506,"name":"Sedo","category_code":"web","founded_year":2001,"number_of_employees":160,"med_employees":80.0,"coordenadas":[-71.078506,42.365592]}
{"index":159,"city":"San Jose","country_code":"USA","latitude":37.381034,"longitude":-121.971487,"name":"InMage Systems","category_code":"software","founded_year":2001,"number_of_employees":150,"med_employees":150.0,"coordenadas":[-121.971487,37.381034]}
{"index":160,"city":"Burlingame","country_code":"USA","latitude":37.592584,"longitude":-122.369676,"name":"ScanCafe","category_code":"web","founded_year":2006,"number_of_employees":350,"med_employees":350.0,"coordenadas":[-122.369676,37.592584]}
{"index":162,"city":"Herndon","country_code":"USA","latitude":38.912791,"longitude":-77.220048,"name":"Parature","category_code":"software","founded_year":2000,"number_of_employees":100,"med_employees":100.0,"coordenadas":[-77.220048,38.912791]}
{"index":163,"city":"Pasadena","country_code":"USA","latitude":34.146436,"longitude":-118.153136,"name":"Perfect Market","category_code":"software","founded_year":2007,"number_of_employees":60,"med_employees":30.0,"coordenadas":[-118.153136,34.146436]}
{"index":165,"city":"Sausalito","country_code":"USA","latitude":37.868002,"longitude":-122.500111,"name":"Glassdoor","category_code":"web","founded_year":2007,"number_of_employees":180,"med_employees":180.0,"coordenadas":[-122.500111,37.868002]}
{"index":166,"city":"Dundee","country_code":"GBR","latitude":56.461428,"longitude":-2.968111,"name":"Realtime Worlds","category_code":"games_video","founded_year":2002,"number_of_employees":225,"med_employees":112.5,"coordenadas":[-2.968111,56.461428]}
{"index":167,"city":"Boulder","country_code":"USA","latitude":40.010492,"longitude":-105.276843,"name":"Realtime Worlds","category_code":"games_video","founded_year":2002,"number_of_employees":225,"med_employees":112.5,"coordenadas":[-105.276843,40.010492]}
{"index":168,"city":"San Mateo","country_code":"USA","latitude":37.5583,"longitude":-122.301385,"name":"Marketo","category_code":"software","founded_year":2006,"number_of_employees":260,"med_employees":260.0,"coordenadas":[-122.301385,37.5583]}
{"index":170,"city":"Austin","country_code":"USA","latitude":30.316226,"longitude":-97.71813,"name":"Adlucent","category_code":"software","founded_year":2005,"number_of_employees":85,"med_employees":85.0,"coordenadas":[-97.71813,30.316226]}
{"index":171,"city":"Miami","country_code":"USA","latitude":25.782058,"longitude":-80.296794,"name":"Avisena","category_code":"software","founded_year":2001,"number_of_employees":220,"med_employees":220.0,"coordenadas":[-80.296794,25.782058]}
{"index":172,"city":"San Mateo","country_code":"USA","latitude":37.778613,"longitude":-122.395289,"name":"GuardianEdge Technologies","category_code":"software","founded_year":2002,"number_of_employees":85,"med_employees":85.0,"coordenadas":[-122.395289,37.778613]}
{"index":173,"city":"New York","country_code":"USA","latitude":40.753918,"longitude":-73.981237,"name":"Odeo","category_code":"web","founded_year":2005,"number_of_employees":60,"med_employees":60.0,"coordenadas":[-73.981237,40.753918]}
{"index":174,"city":"New York","country_code":"USA","latitude":40.761855,"longitude":-73.983754,"name":"Cellfish","category_code":"web","founded_year":2004,"number_of_employees":220,"med_employees":220.0,"coordenadas":[-73.983754,40.761855]}
{"index":175,"city":"Dayton","country_code":"USA","latitude":39.631175,"longitude":-84.181175,"name":"Sogeti USA","category_code":"software","founded_year":2001,"number_of_employees":2500,"med_employees":2500.0,"coordenadas":[-84.181175,39.631175]}
{"index":176,"city":"New York","country_code":"USA","latitude":28.682042,"longitude":77.087502,"name":"PixelCrayons","category_code":"web","founded_year":2004,"number_of_employees":200,"med_employees":200.0,"coordenadas":[77.087502,28.682042]}
{"index":178,"city":"Alpharetta","country_code":"USA","latitude":17.415429,"longitude":78.434422,"name":"YUPPTV","category_code":"games_video","founded_year":2008,"number_of_employees":70,"med_employees":70.0,"coordenadas":[78.434422,17.415429]}
{"index":179,"city":"San Francisco","country_code":"USA","latitude":37.775196,"longitude":-122.419204,"name":"GitHub","category_code":"software","founded_year":2008,"number_of_employees":106,"med_employees":106.0,"coordenadas":[-122.419204,37.775196]}
{"index":181,"city":"Buenos Aires","country_code":"ARG","latitude":-34.5967236,"longitude":-58.3708904,"name":"Globant","category_code":"software","founded_year":2003,"number_of_employees":2800,"med_employees":200.0,"coordenadas":[-58.3708904,-34.5967236]}
{"index":182,"city":"Hopkinton","country_code":"USA","latitude":42.2261823,"longitude":-71.5174869,"name":"Globant","category_code":"software","founded_year":2003,"number_of_employees":2800,"med_employees":200.0,"coordenadas":[-71.5174869,42.2261823]}
{"index":183,"city":"London","country_code":"GBR","latitude":51.5205095,"longitude":-0.0952197,"name":"Globant","category_code":"software","founded_year":2003,"number_of_employees":2800,"med_employees":200.0,"coordenadas":[-0.0952197,51.5205095]}
{"index":184,"city":"San Francisco","country_code":"USA","latitude":37.7819286,"longitude":-122.4041764,"name":"Globant","category_code":"software","founded_year":2003,"number_of_employees":2800,"med_employees":200.0,"coordenadas":[-122.4041764,37.7819286]}
{"index":186,"city":"Sao Paulo","country_code":"BRA","latitude":-23.5606195,"longitude":-46.6816579,"name":"Globant","category_code":"software","founded_year":2003,"number_of_employees":2800,"med_employees":200.0,"coordenadas":[-46.6816579,-23.5606195]}
{"index":187,"city":"Bogota","country_code":"COL","latitude":4.7595921,"longitude":-74.0632101,"name":"Globant","category_code":"software","founded_year":2003,"number_of_employees":2800,"med_employees":200.0,"coordenadas":[-74.0632101,4.7595921]}
{"index":188,"city":"Montevideo","country_code":"URY","latitude":-34.8836111,"longitude":-56.1819444,"name":"Globant","category_code":"software","founded_year":2003,"number_of_employees":2800,"med_employees":200.0,"coordenadas":[-56.1819444,-34.8836111]}
{"index":190,"city":"La Plata","country_code":"ARG","latitude":-34.6776448,"longitude":-58.3840599,"name":"Globant","category_code":"software","founded_year":2003,"number_of_employees":2800,"med_employees":200.0,"coordenadas":[-58.3840599,-34.6776448]}
{"index":191,"city":"Tandil","country_code":"ARG","latitude":-37.3281072,"longitude":-59.1340915,"name":"Globant","category_code":"software","founded_year":2003,"number_of_employees":2800,"med_employees":200.0,"coordenadas":[-59.1340915,-37.3281072]}
{"index":192,"city":"Resistencia","country_code":"ARG","latitude":-27.4533887,"longitude":-58.9871056,"name":"Globant","category_code":"software","founded_year":2003,"number_of_employees":2800,"med_employees":200.0,"coordenadas":[-58.9871056,-27.4533887]}
{"index":193,"city":"Tucuman","country_code":"ARG","latitude":-26.8007888,"longitude":-65.3024825,"name":"Globant","category_code":"software","founded_year":2003,"number_of_employees":2800,"med_employees":200.0,"coordenadas":[-65.3024825,-26.8007888]}
{"index":194,"city":"Bah\u00eda Blanca","country_code":"ARG","latitude":-38.7211371,"longitude":-62.2690974,"name":"Globant","category_code":"software","founded_year":2003,"number_of_employees":2800,"med_employees":200.0,"coordenadas":[-62.2690974,-38.7211371]}
{"index":196,"city":"Irvine,","country_code":"USA","latitude":33.651624,"longitude":-117.739227,"name":"TigerLogic","category_code":"social","founded_year":2008,"number_of_employees":120,"med_employees":120.0,"coordenadas":[-117.739227,33.651624]}
{"index":197,"city":"Los Angeles","country_code":"USA","latitude":34.085749,"longitude":-118.343791,"name":"Modern Feed","category_code":"games_video","founded_year":2007,"number_of_employees":123,"med_employees":123.0,"coordenadas":[-118.343791,34.085749]}
{"index":199,"city":"San Francisco","country_code":"USA","latitude":37.3944561,"longitude":-122.0785314,"name":"Kabam","category_code":"games_video","founded_year":2006,"number_of_employees":650,"med_employees":325.0,"coordenadas":[-122.0785314,37.3944561]}
{"index":202,"city":"Shanghai","country_code":"CHN","latitude":31.251516,"longitude":121.459147,"name":"ImportGenius","category_code":"search","founded_year":2008,"number_of_employees":75,"med_employees":37.5,"coordenadas":[121.459147,31.251516]}
{"index":203,"city":"San Francisco","country_code":"USA","latitude":37.269175,"longitude":-119.306607,"name":"New Relic","category_code":"software","founded_year":2008,"number_of_employees":63,"med_employees":63.0,"coordenadas":[-119.306607,37.269175]}
{"index":204,"city":"El Segundo","country_code":"USA","latitude":33.9192583,"longitude":-118.3952969,"name":"Velocify","category_code":"software","founded_year":2004,"number_of_employees":125,"med_employees":125.0,"coordenadas":[-118.3952969,33.9192583]}
{"index":205,"city":"San Francisco","country_code":"USA","latitude":40.234451,"longitude":-111.658656,"name":"Zinch","category_code":"web","founded_year":2007,"number_of_employees":80,"med_employees":26.6666666667,"coordenadas":[-111.658656,40.234451]}
{"index":208,"city":"Midvale","country_code":"USA","latitude":40.622919,"longitude":-111.900917,"name":"Cartedge","category_code":"software","founded_year":2006,"number_of_employees":100,"med_employees":100.0,"coordenadas":[-111.900917,40.622919]}
{"index":209,"city":"Cologne","country_code":"DEU","latitude":50.945289,"longitude":6.921546,"name":"sevenload","category_code":"games_video","founded_year":2006,"number_of_employees":67,"med_employees":67.0,"coordenadas":[6.921546,50.945289]}
{"index":210,"city":"Palo Alto","country_code":"USA","latitude":37.431941,"longitude":-122.103076,"name":"Boardwalktech","category_code":"software","founded_year":2004,"number_of_employees":75,"med_employees":75.0,"coordenadas":[-122.103076,37.431941]}
{"index":213,"city":"Hollywood","country_code":"USA","latitude":34.101578,"longitude":-118.33334,"name":"deviantART","category_code":"web","founded_year":2000,"number_of_employees":120,"med_employees":120.0,"coordenadas":[-118.33334,34.101578]}
{"index":215,"city":"Buenos Aires","country_code":"ARG","latitude":-34.611781,"longitude":-58.417309,"name":"Sonico","category_code":"social","founded_year":2007,"number_of_employees":84,"med_employees":28.0,"coordenadas":[-58.417309,-34.611781]}
{"index":218,"city":"Vancouver","country_code":"CAN","latitude":49.284971,"longitude":-123.115356,"name":"Stockhouse","category_code":"web","founded_year":2000,"number_of_employees":80,"med_employees":80.0,"coordenadas":[-123.115356,49.284971]}
{"index":219,"city":"San Francisco","country_code":"USA","latitude":37.781689,"longitude":-122.391061,"name":"iWin","category_code":"games_video","founded_year":2001,"number_of_employees":103,"med_employees":103.0,"coordenadas":[-122.391061,37.781689]}
{"index":224,"city":"Mather","country_code":"USA","latitude":37.492685,"longitude":-122.227765,"name":"GreenNote","category_code":"web","founded_year":2007,"number_of_employees":65,"med_employees":65.0,"coordenadas":[-122.227765,37.492685]}
{"index":225,"city":"Bellevue","country_code":"USA","latitude":47.614723,"longitude":-122.196262,"name":"Intelius","category_code":"web","founded_year":2003,"number_of_employees":131,"med_employees":65.5,"coordenadas":[-122.196262,47.614723]}
{"index":228,"city":"Palo Alto","country_code":"USA","latitude":37.4520239,"longitude":-122.1797053,"name":"Medallia","category_code":"software","founded_year":2002,"number_of_employees":140,"med_employees":140.0,"coordenadas":[-122.1797053,37.4520239]}
{"index":229,"city":"Santa Clara","country_code":"USA","latitude":37.398076,"longitude":-121.977333,"name":"Avaya","category_code":"software","founded_year":2000,"number_of_employees":18000,"med_employees":9000.0,"coordenadas":[-121.977333,37.398076]}
{"index":230,"city":"Basking Ridge","country_code":"USA","latitude":40.694956,"longitude":-74.577599,"name":"Avaya","category_code":"software","founded_year":2000,"number_of_employees":18000,"med_employees":9000.0,"coordenadas":[-74.577599,40.694956]}
{"index":231,"city":"Palo Alto","country_code":"USA","latitude":37.390918,"longitude":-122.080843,"name":"WSO2","category_code":"software","founded_year":2005,"number_of_employees":228,"med_employees":76.0,"coordenadas":[-122.080843,37.390918]}
{"index":232,"city":"","country_code":"GBR","latitude":50.8472228,"longitude":-0.919424,"name":"WSO2","category_code":"software","founded_year":2005,"number_of_employees":228,"med_employees":76.0,"coordenadas":[-0.919424,50.8472228]}
{"index":235,"city":"Cologne","country_code":"DEU","latitude":50.947699,"longitude":6.94205,"name":"ClickandBuy","category_code":"web","founded_year":2000,"number_of_employees":240,"med_employees":120.0,"coordenadas":[6.94205,50.947699]}
{"index":237,"city":"Ashburn","country_code":"USA","latitude":39.0601,"longitude":-77.464018,"name":"Brainware","category_code":"software","founded_year":2006,"number_of_employees":65,"med_employees":65.0,"coordenadas":[-77.464018,39.0601]}
{"index":238,"city":"Chandler","country_code":"USA","latitude":33.2871748,"longitude":-111.8871813,"name":"Infusionsoft","category_code":"software","founded_year":2001,"number_of_employees":350,"med_employees":350.0,"coordenadas":[-111.8871813,33.2871748]}
{"index":239,"city":"Berlin","country_code":"DEU","latitude":52.502642,"longitude":13.446834,"name":"zanox","category_code":"web","founded_year":2000,"number_of_employees":600,"med_employees":600.0,"coordenadas":[13.446834,52.502642]}
{"index":244,"city":"Boston","country_code":"USA","latitude":42.356812,"longitude":-71.058185,"name":"Optaros","category_code":"consulting","founded_year":2004,"number_of_employees":200,"med_employees":200.0,"coordenadas":[-71.058185,42.356812]}
{"index":245,"city":"San Antonio","country_code":"USA","latitude":29.516352,"longitude":-98.43676,"name":"Making Sense","category_code":"software","founded_year":2006,"number_of_employees":100,"med_employees":33.3333333333,"coordenadas":[-98.43676,29.516352]}
{"index":246,"city":"Buenos Aires","country_code":"ARG","latitude":-34.5892808,"longitude":-58.43297,"name":"Making Sense","category_code":"software","founded_year":2006,"number_of_employees":100,"med_employees":33.3333333333,"coordenadas":[-58.43297,-34.5892808]}
{"index":247,"city":"Mar del Plata","country_code":"ARG","latitude":-38.0060917,"longitude":-57.5582444,"name":"Making Sense","category_code":"software","founded_year":2006,"number_of_employees":100,"med_employees":33.3333333333,"coordenadas":[-57.5582444,-38.0060917]}
{"index":248,"city":"Troy","country_code":"USA","latitude":42.585951,"longitude":-83.126814,"name":"GARA Web Hosting","category_code":"web","founded_year":2006,"number_of_employees":480,"med_employees":480.0,"coordenadas":[-83.126814,42.585951]}
{"index":250,"city":"New York","country_code":"USA","latitude":40.7550708,"longitude":-73.9869523,"name":"CPXi","category_code":"web","founded_year":2000,"number_of_employees":130,"med_employees":65.0,"coordenadas":[-73.9869523,40.7550708]}
{"index":252,"city":"Brooklyn","country_code":"USA","latitude":40.720764,"longitude":-73.957968,"name":"VBS TV","category_code":"games_video","founded_year":2006,"number_of_employees":100,"med_employees":100.0,"coordenadas":[-73.957968,40.720764]}
{"index":253,"city":"Frieburg","country_code":"DEU","latitude":47.997186,"longitude":7.853767,"name":"Jedox","category_code":"software","founded_year":2002,"number_of_employees":101,"med_employees":33.6666666667,"coordenadas":[7.853767,47.997186]}
{"index":256,"city":"Denver","country_code":"USA","latitude":47.601803,"longitude":-122.332085,"name":"Photobucket","category_code":"web","founded_year":2003,"number_of_employees":100,"med_employees":100.0,"coordenadas":[-122.332085,47.601803]}
{"index":257,"city":"Waltham","country_code":"USA","latitude":42.393662,"longitude":-71.255855,"name":"Ounce Labs","category_code":"software","founded_year":2002,"number_of_employees":60,"med_employees":60.0,"coordenadas":[-71.255855,42.393662]}
{"index":258,"city":"New York","country_code":"USA","latitude":40.706271,"longitude":-74.009242,"name":"Avature","category_code":"software","founded_year":2004,"number_of_employees":120,"med_employees":120.0,"coordenadas":[-74.009242,40.706271]}
{"index":259,"city":"Seattle","country_code":"USA","latitude":47.617838,"longitude":-122.356027,"name":"thePlatform","category_code":"web","founded_year":2000,"number_of_employees":130,"med_employees":130.0,"coordenadas":[-122.356027,47.617838]}
{"index":260,"city":"Shanghai","country_code":"CHN","latitude":22.313675,"longitude":114.169241,"name":"Easypano","category_code":"software","founded_year":2001,"number_of_employees":100,"med_employees":100.0,"coordenadas":[114.169241,22.313675]}
{"index":261,"city":"New York","country_code":"USA","latitude":40.746368,"longitude":-73.983972,"name":"Xandros","category_code":"software","founded_year":2001,"number_of_employees":89,"med_employees":12.7142857143,"coordenadas":[-73.983972,40.746368]}
{"index":262,"city":"Frankfurt","country_code":"DEU","latitude":50.980474,"longitude":7.345009,"name":"Xandros","category_code":"software","founded_year":2001,"number_of_employees":89,"med_employees":12.7142857143,"coordenadas":[7.345009,50.980474]}
{"index":263,"city":"Ottawa","country_code":"CAN","latitude":45.32653,"longitude":-75.835706,"name":"Xandros","category_code":"software","founded_year":2001,"number_of_employees":89,"med_employees":12.7142857143,"coordenadas":[-75.835706,45.32653]}
{"index":264,"city":"Poznan","country_code":"POL","latitude":52.413065,"longitude":16.827764,"name":"Xandros","category_code":"software","founded_year":2001,"number_of_employees":89,"med_employees":12.7142857143,"coordenadas":[16.827764,52.413065]}
{"index":266,"city":"Sao Paulo","country_code":"BRA","latitude":-23.527594,"longitude":-46.677049,"name":"Xandros","category_code":"software","founded_year":2001,"number_of_employees":89,"med_employees":12.7142857143,"coordenadas":[-46.677049,-23.527594]}
{"index":268,"city":"Santiago","country_code":"CHL","latitude":-33.42536,"longitude":-70.566466,"name":"Willard John Thomas Associates","category_code":"consulting","founded_year":2008,"number_of_employees":60,"med_employees":15.0,"coordenadas":[-70.566466,-33.42536]}
{"index":269,"city":"Calcutta","country_code":"IND","latitude":22.572646,"longitude":88.363895,"name":"Willard John Thomas Associates","category_code":"consulting","founded_year":2008,"number_of_employees":60,"med_employees":15.0,"coordenadas":[88.363895,22.572646]}
{"index":270,"city":"New Delhi","country_code":"IND","latitude":28.635308,"longitude":77.22496,"name":"Willard John Thomas Associates","category_code":"consulting","founded_year":2008,"number_of_employees":60,"med_employees":15.0,"coordenadas":[77.22496,28.635308]}
{"index":271,"city":"New York","country_code":"USA","latitude":40.74727,"longitude":-73.980064,"name":"Willard John Thomas Associates","category_code":"consulting","founded_year":2008,"number_of_employees":60,"med_employees":15.0,"coordenadas":[-73.980064,40.74727]}
{"index":273,"city":"Redmond","country_code":"USA","latitude":47.634824,"longitude":-122.13771,"name":"Synology","category_code":"software","founded_year":2000,"number_of_employees":70,"med_employees":35.0,"coordenadas":[-122.13771,47.634824]}
{"index":274,"city":"San Francisco","country_code":"USA","latitude":55.676294,"longitude":12.568116,"name":"Zendesk","category_code":"software","founded_year":2007,"number_of_employees":400,"med_employees":400.0,"coordenadas":[12.568116,55.676294]}
{"index":277,"city":"San Diego","country_code":"USA","latitude":32.902266,"longitude":-117.20834,"name":"MapVersa","category_code":"software","founded_year":2008,"number_of_employees":110,"med_employees":110.0,"coordenadas":[-117.20834,32.902266]}
{"index":278,"city":"San Bruno","country_code":"USA","latitude":37.630551,"longitude":-122.422113,"name":"Qumu","category_code":"software","founded_year":2003,"number_of_employees":150,"med_employees":150.0,"coordenadas":[-122.422113,37.630551]}
{"index":279,"city":"Waltham","country_code":"USA","latitude":42.398916,"longitude":-71.253998,"name":"Black Duck Software","category_code":"software","founded_year":2002,"number_of_employees":100,"med_employees":25.0,"coordenadas":[-71.253998,42.398916]}
{"index":280,"city":"San Mateo","country_code":"USA","latitude":37.556152,"longitude":-122.281484,"name":"Black Duck Software","category_code":"software","founded_year":2002,"number_of_employees":100,"med_employees":25.0,"coordenadas":[-122.281484,37.556152]}
{"index":281,"city":"Manchester","country_code":"GBR","latitude":53.524419,"longitude":-2.258714,"name":"Black Duck Software","category_code":"software","founded_year":2002,"number_of_employees":100,"med_employees":25.0,"coordenadas":[-2.258714,53.524419]}
{"index":282,"city":"Amsterdam","country_code":"NLD","latitude":52.340609,"longitude":4.870312,"name":"Black Duck Software","category_code":"software","founded_year":2002,"number_of_employees":100,"med_employees":25.0,"coordenadas":[4.870312,52.340609]}
{"index":283,"city":"Denver","country_code":"USA","latitude":39.755152,"longitude":-104.990968,"name":"EffectiveUI","category_code":"software","founded_year":2005,"number_of_employees":97,"med_employees":48.5,"coordenadas":[-104.990968,39.755152]}
{"index":284,"city":"Rochester","country_code":"USA","latitude":43.158821,"longitude":-77.585297,"name":"EffectiveUI","category_code":"software","founded_year":2005,"number_of_employees":97,"med_employees":48.5,"coordenadas":[-77.585297,43.158821]}
{"index":286,"city":"San Francisco","country_code":"USA","latitude":37.7893215,"longitude":-122.4013624,"name":"Huddler","category_code":"web","founded_year":2007,"number_of_employees":52,"med_employees":52.0,"coordenadas":[-122.4013624,37.7893215]}
{"index":287,"city":"Budapest","country_code":"HUN","latitude":47.490346,"longitude":19.059078,"name":"Prezi","category_code":"software","founded_year":2009,"number_of_employees":110,"med_employees":55.0,"coordenadas":[19.059078,47.490346]}
{"index":289,"city":"Santa Clara","country_code":"USA","latitude":37.3858901,"longitude":-121.9708095,"name":"Halosys","category_code":"software","founded_year":2005,"number_of_employees":62,"med_employees":62.0,"coordenadas":[-121.9708095,37.3858901]}
{"index":290,"city":"London","country_code":"GBR","latitude":51.500152,"longitude":-0.126236,"name":"Industria","category_code":"software","founded_year":2003,"number_of_employees":100,"med_employees":33.3333333333,"coordenadas":[-0.126236,51.500152]}
{"index":295,"city":"Ottawa","country_code":"CAN","latitude":45.342845,"longitude":-75.917118,"name":"Halogen Software","category_code":"software","founded_year":2001,"number_of_employees":140,"med_employees":140.0,"coordenadas":[-75.917118,45.342845]}
{"index":296,"city":"San Francisco","country_code":"USA","latitude":37.7705096,"longitude":-122.4015807,"name":"ngmoco","category_code":"games_video","founded_year":2008,"number_of_employees":150,"med_employees":150.0,"coordenadas":[-122.4015807,37.7705096]}
{"index":297,"city":"New York","country_code":"USA","latitude":40.746332,"longitude":-73.982596,"name":"Conductor","category_code":"search","founded_year":2007,"number_of_employees":55,"med_employees":55.0,"coordenadas":[-73.982596,40.746332]}
{"index":307,"city":"Beijing","country_code":"CHN","latitude":39.905556,"longitude":116.395833,"name":"Koolanoo Group","category_code":"web","founded_year":2005,"number_of_employees":280,"med_employees":140.0,"coordenadas":[116.395833,39.905556]}
{"index":308,"city":"Scottsdale","country_code":"USA","latitude":40.7481039,"longitude":-74.0353787,"name":"Integrate","category_code":"software","founded_year":2010,"number_of_employees":120,"med_employees":15.0,"coordenadas":[-74.0353787,40.7481039]}
{"index":315,"city":"Montevideo","country_code":"URY","latitude":-34.917733,"longitude":-56.151308,"name":"Hexacta","category_code":"software","founded_year":2000,"number_of_employees":200,"med_employees":25.0,"coordenadas":[-56.151308,-34.917733]}
{"index":316,"city":"Resto","country_code":"USA","latitude":38.971687,"longitude":-77.362728,"name":"Hexacta","category_code":"software","founded_year":2000,"number_of_employees":200,"med_employees":25.0,"coordenadas":[-77.362728,38.971687]}
{"index":317,"city":"Burlington","country_code":"CAN","latitude":43.3590652,"longitude":-79.7955702,"name":"Adlib Software","category_code":"software","founded_year":2000,"number_of_employees":75,"med_employees":37.5,"coordenadas":[-79.7955702,43.3590652]}
{"index":319,"city":"San Francisco","country_code":"USA","latitude":37.7899027,"longitude":-122.4007846,"name":"Lyft","category_code":"software","founded_year":2007,"number_of_employees":180,"med_employees":90.0,"coordenadas":[-122.4007846,37.7899027]}
{"index":320,"city":"Fremont","country_code":"USA","latitude":37.501065,"longitude":-121.933191,"name":"AMAX Global Services","category_code":"software","founded_year":2000,"number_of_employees":200,"med_employees":100.0,"coordenadas":[-121.933191,37.501065]}
{"index":321,"city":"Humble","country_code":"USA","latitude":29.985528,"longitude":-95.3082988,"name":"Spotmau Corporation","category_code":"software","founded_year":2006,"number_of_employees":70,"med_employees":35.0,"coordenadas":[-95.3082988,29.985528]}
{"index":322,"city":"Seattle","country_code":"USA","latitude":47.6495905,"longitude":-122.3497956,"name":"Swype","category_code":"software","founded_year":2002,"number_of_employees":80,"med_employees":40.0,"coordenadas":[-122.3497956,47.6495905]}
{"index":323,"city":"Somerset","country_code":"USA","latitude":40.554887,"longitude":-74.464286,"name":"HexaCorp","category_code":"software","founded_year":2001,"number_of_employees":100,"med_employees":25.0,"coordenadas":[-74.464286,40.554887]}
{"index":324,"city":"Chennai","country_code":"IND","latitude":13.060416,"longitude":80.249634,"name":"HexaCorp","category_code":"software","founded_year":2001,"number_of_employees":100,"med_employees":25.0,"coordenadas":[80.249634,13.060416]}
{"index":325,"city":"San Francisco","country_code":"USA","latitude":37.7870923,"longitude":-122.3999719,"name":"Lolapps","category_code":"web","founded_year":2008,"number_of_employees":65,"med_employees":32.5,"coordenadas":[-122.3999719,37.7870923]}
{"index":326,"city":"New York","country_code":"USA","latitude":40.7075492,"longitude":-74.0055997,"name":"Vichara Technologies","category_code":"software","founded_year":2001,"number_of_employees":100,"med_employees":50.0,"coordenadas":[-74.0055997,40.7075492]}
{"index":328,"city":"Beijing","country_code":"CHN","latitude":39.905556,"longitude":116.395833,"name":"Koolanoo Group","category_code":"web","founded_year":2005,"number_of_employees":280,"med_employees":140.0,"coordenadas":[116.395833,39.905556]}
{"index":329,"city":"Scottsdale","country_code":"USA","latitude":40.7481039,"longitude":-74.0353787,"name":"Integrate","category_code":"software","founded_year":2010,"number_of_employees":120,"med_employees":15.0,"coordenadas":[-74.0353787,40.7481039]}
{"index":336,"city":"Montevideo","country_code":"URY","latitude":-34.917733,"longitude":-56.151308,"name":"Hexacta","category_code":"software","founded_year":2000,"number_of_employees":200,"med_employees":25.0,"coordenadas":[-56.151308,-34.917733]}
{"index":337,"city":"Resto","country_code":"USA","latitude":38.971687,"longitude":-77.362728,"name":"Hexacta","category_code":"software","founded_year":2000,"number_of_employees":200,"med_employees":25.0,"coordenadas":[-77.362728,38.971687]}
{"index":338,"city":"Burlington","country_code":"CAN","latitude":43.3590652,"longitude":-79.7955702,"name":"Adlib Software","category_code":"software","founded_year":2000,"number_of_employees":75,"med_employees":37.5,"coordenadas":[-79.7955702,43.3590652]}
{"index":340,"city":"San Francisco","country_code":"USA","latitude":37.7899027,"longitude":-122.4007846,"name":"Lyft","category_code":"software","founded_year":2007,"number_of_employees":180,"med_employees":90.0,"coordenadas":[-122.4007846,37.7899027]}
{"index":341,"city":"Fremont","country_code":"USA","latitude":37.501065,"longitude":-121.933191,"name":"AMAX Global Services","category_code":"software","founded_year":2000,"number_of_employees":200,"med_employees":100.0,"coordenadas":[-121.933191,37.501065]}
{"index":342,"city":"Humble","country_code":"USA","latitude":29.985528,"longitude":-95.3082988,"name":"Spotmau Corporation","category_code":"software","founded_year":2006,"number_of_employees":70,"med_employees":35.0,"coordenadas":[-95.3082988,29.985528]}
{"index":343,"city":"Seattle","country_code":"USA","latitude":47.6495905,"longitude":-122.3497956,"name":"Swype","category_code":"software","founded_year":2002,"number_of_employees":80,"med_employees":40.0,"coordenadas":[-122.3497956,47.6495905]}
{"index":344,"city":"Somerset","country_code":"USA","latitude":40.554887,"longitude":-74.464286,"name":"HexaCorp","category_code":"software","founded_year":2001,"number_of_employees":100,"med_employees":25.0,"coordenadas":[-74.464286,40.554887]}
{"index":345,"city":"Chennai","country_code":"IND","latitude":13.060416,"longitude":80.249634,"name":"HexaCorp","category_code":"software","founded_year":2001,"number_of_employees":100,"med_employees":25.0,"coordenadas":[80.249634,13.060416]}
{"index":346,"city":"San Francisco","country_code":"USA","latitude":37.7870923,"longitude":-122.3999719,"name":"Lolapps","category_code":"web","founded_year":2008,"number_of_employees":65,"med_employees":32.5,"coordenadas":[-122.3999719,37.7870923]}
{"index":347,"city":"New York","country_code":"USA","latitude":40.7075492,"longitude":-74.0055997,"name":"Vichara Technologies","category_code":"software","founded_year":2001,"number_of_employees":100,"med_employees":50.0,"coordenadas":[-74.0055997,40.7075492]}
{"index":350,"city":"Hyderabad","country_code":"IND","latitude":17.498081,"longitude":78.389911,"name":"Jobmixi","category_code":"search","founded_year":2004,"number_of_employees":55,"med_employees":55.0,"coordenadas":[78.389911,17.498081]}
{"index":351,"city":"Chicago","country_code":"USA","latitude":41.8965162,"longitude":-87.643622,"name":"Groupon","category_code":"web","founded_year":2008,"number_of_employees":10000,"med_employees":2500.0,"coordenadas":[-87.643622,41.8965162]}
{"index":355,"city":"San Ramon","country_code":"USA","latitude":37.7705702,"longitude":-121.9642503,"name":"TESCRA","category_code":"software","founded_year":2002,"number_of_employees":580,"med_employees":580.0,"coordenadas":[-121.9642503,37.7705702]}
{"index":356,"city":"Munich","country_code":"DEU","latitude":48.160718,"longitude":11.553725,"name":"metaio","category_code":"software","founded_year":2003,"number_of_employees":65,"med_employees":32.5,"coordenadas":[11.553725,48.160718]}
{"index":357,"city":"San Francisco","country_code":"USA","latitude":37.590339,"longitude":-122.341715,"name":"metaio","category_code":"software","founded_year":2003,"number_of_employees":65,"med_employees":32.5,"coordenadas":[-122.341715,37.590339]}
{"index":358,"city":"Maarssen","country_code":"NLD","latitude":52.126616,"longitude":5.038078,"name":"Navara","category_code":"software","founded_year":2012,"number_of_employees":80,"med_employees":80.0,"coordenadas":[5.038078,52.126616]}
{"index":360,"city":"Provo","country_code":"USA","latitude":40.250096,"longitude":-111.643179,"name":"FamilyLink","category_code":"web","founded_year":2006,"number_of_employees":60,"med_employees":60.0,"coordenadas":[-111.643179,40.250096]}
{"index":361,"city":"Copenhagen V","country_code":"DNK","latitude":55.6749167,"longitude":12.5618602,"name":"Sitecore","category_code":"software","founded_year":2001,"number_of_employees":600,"med_employees":300.0,"coordenadas":[12.5618602,55.6749167]}
{"index":364,"city":"Fremont","country_code":"USA","latitude":37.4942858,"longitude":-121.9814354,"name":"eriQoo","category_code":"search","founded_year":2006,"number_of_employees":96,"med_employees":32.0,"coordenadas":[-121.9814354,37.4942858]}
{"index":366,"city":"Beverly Hills","country_code":"USA","latitude":34.09316,"longitude":-118.378335,"name":"Meteor Games","category_code":"games_video","founded_year":2007,"number_of_employees":70,"med_employees":70.0,"coordenadas":[-118.378335,34.09316]}
{"index":367,"city":"Santa Clara","country_code":"USA","latitude":37.444098,"longitude":-122.161287,"name":"Nexenta Systems","category_code":"software","founded_year":2005,"number_of_employees":200,"med_employees":200.0,"coordenadas":[-122.161287,37.444098]}
{"index":368,"city":"Los Angeles","country_code":"USA","latitude":33.988687,"longitude":-118.439532,"name":"TVGla","category_code":"web","founded_year":2007,"number_of_employees":55,"med_employees":55.0,"coordenadas":[-118.439532,33.988687]}
{"index":369,"city":"Cambridge","country_code":"USA","latitude":41.815805,"longitude":-72.171057,"name":"mBLAST","category_code":"software","founded_year":2000,"number_of_employees":70,"med_employees":70.0,"coordenadas":[-72.171057,41.815805]}
{"index":370,"city":"Berlin","country_code":"DEU","latitude":52.5308516,"longitude":13.3842605,"name":"ResearchGate","category_code":"social","founded_year":2008,"number_of_employees":74,"med_employees":74.0,"coordenadas":[13.3842605,52.5308516]}
{"index":373,"city":"Beaverton","country_code":"USA","latitude":45.494668,"longitude":-122.827044,"name":"Railsware","category_code":"software","founded_year":2006,"number_of_employees":60,"med_employees":30.0,"coordenadas":[-122.827044,45.494668]}
{"index":375,"city":"Durham","country_code":"USA","latitude":36.002893,"longitude":-78.904075,"name":"ReverbNation","category_code":"software","founded_year":2006,"number_of_employees":85,"med_employees":42.5,"coordenadas":[-78.904075,36.002893]}
{"index":376,"city":"New York","country_code":"USA","latitude":40.718888,"longitude":-74.001169,"name":"ReverbNation","category_code":"software","founded_year":2006,"number_of_employees":85,"med_employees":42.5,"coordenadas":[-74.001169,40.718888]}
{"index":378,"city":"Herndon","country_code":"USA","latitude":38.953356,"longitude":-77.424865,"name":"McRaaN Systems","category_code":"software","founded_year":2000,"number_of_employees":60,"med_employees":30.0,"coordenadas":[-77.424865,38.953356]}
{"index":379,"city":"Bellevue","country_code":"USA","latitude":47.579884,"longitude":-122.168877,"name":"Pharmacy OneSource","category_code":"web","founded_year":2001,"number_of_employees":60,"med_employees":30.0,"coordenadas":[-122.168877,47.579884]}
{"index":380,"city":"Middleton","country_code":"USA","latitude":43.095845,"longitude":-89.515874,"name":"Pharmacy OneSource","category_code":"web","founded_year":2001,"number_of_employees":60,"med_employees":30.0,"coordenadas":[-89.515874,43.095845]}
{"index":382,"city":"Gurgaon","country_code":"IND","latitude":28.435018,"longitude":77.003186,"name":"Tekriti Software","category_code":"software","founded_year":2005,"number_of_employees":200,"med_employees":66.6666666667,"coordenadas":[77.003186,28.435018]}
{"index":385,"city":"Atlanta","country_code":"USA","latitude":33.76073,"longitude":-84.322038,"name":"Big Nerd Ranch","category_code":"consulting","founded_year":2001,"number_of_employees":90,"med_employees":45.0,"coordenadas":[-84.322038,33.76073]}
{"index":388,"city":"New York","country_code":"USA","latitude":40.74931,"longitude":-73.821321,"name":"WJT Global Solutions","category_code":"consulting","founded_year":2008,"number_of_employees":2000,"med_employees":400.0,"coordenadas":[-73.821321,40.74931]}
{"index":389,"city":"Santiago","country_code":"CHL","latitude":-33.42536,"longitude":-70.566466,"name":"WJT Global Solutions","category_code":"consulting","founded_year":2008,"number_of_employees":2000,"med_employees":400.0,"coordenadas":[-70.566466,-33.42536]}
{"index":390,"city":"Calcutta","country_code":"IND","latitude":22.572646,"longitude":88.363895,"name":"WJT Global Solutions","category_code":"consulting","founded_year":2008,"number_of_employees":2000,"med_employees":400.0,"coordenadas":[88.363895,22.572646]}
{"index":391,"city":"Shanghai","country_code":"CHN","latitude":31.224353,"longitude":121.475916,"name":"WJT Global Solutions","category_code":"consulting","founded_year":2008,"number_of_employees":2000,"med_employees":400.0,"coordenadas":[121.475916,31.224353]}
{"index":392,"city":"New Delhi","country_code":"IND","latitude":28.635308,"longitude":77.22496,"name":"WJT Global Solutions","category_code":"consulting","founded_year":2008,"number_of_employees":2000,"med_employees":400.0,"coordenadas":[77.22496,28.635308]}
{"index":393,"city":"Tarrytown","country_code":"USA","latitude":41.0662835,"longitude":-73.8625452,"name":"Open-Xchange","category_code":"software","founded_year":2005,"number_of_employees":100,"med_employees":33.3333333333,"coordenadas":[-73.8625452,41.0662835]}
{"index":394,"city":"Olpe","country_code":"DEU","latitude":51.029415,"longitude":7.850863,"name":"Open-Xchange","category_code":"software","founded_year":2005,"number_of_employees":100,"med_employees":33.3333333333,"coordenadas":[7.850863,51.029415]}
{"index":395,"city":"Nuremberg","country_code":"DEU","latitude":49.4605351,"longitude":11.0823953,"name":"Open-Xchange","category_code":"software","founded_year":2005,"number_of_employees":100,"med_employees":33.3333333333,"coordenadas":[11.0823953,49.4605351]}
{"index":396,"city":"Hilversum","country_code":"NLD","latitude":52.220726,"longitude":5.198824,"name":"SPIL GAMES","category_code":"games_video","founded_year":2004,"number_of_employees":300,"med_employees":150.0,"coordenadas":[5.198824,52.220726]}
{"index":399,"city":"Nantes","country_code":"FRA","latitude":47.2045191,"longitude":-1.5752629,"name":"LINKBYNET","category_code":"web","founded_year":2000,"number_of_employees":120,"med_employees":40.0,"coordenadas":[-1.5752629,47.2045191]}
{"index":403,"city":"Rome","country_code":"ITA","latitude":41.8663418,"longitude":12.4972454,"name":"Populis","category_code":"web","founded_year":2004,"number_of_employees":140,"med_employees":70.0,"coordenadas":[12.4972454,41.8663418]}
{"index":404,"city":"Copenhagen V","country_code":"DNK","latitude":55.6739617,"longitude":12.5605372,"name":"Trustpilot","category_code":"web","founded_year":2007,"number_of_employees":100,"med_employees":100.0,"coordenadas":[12.5605372,55.6739617]}
{"index":405,"city":"Marlborough","country_code":"USA","latitude":42.3389044,"longitude":-71.590103,"name":"Collabor","category_code":"software","founded_year":2005,"number_of_employees":60,"med_employees":60.0,"coordenadas":[-71.590103,42.3389044]}
{"index":406,"city":"Seattle","country_code":"USA","latitude":47.6024156,"longitude":-122.3326145,"name":"Decho","category_code":"web","founded_year":2008,"number_of_employees":150,"med_employees":150.0,"coordenadas":[-122.3326145,47.6024156]}
{"index":407,"city":"Duluth","country_code":"USA","latitude":34.070164,"longitude":-84.058708,"name":"Clearleap","category_code":"software","founded_year":2007,"number_of_employees":75,"med_employees":75.0,"coordenadas":[-84.058708,34.070164]}
{"index":408,"city":"Warsaw","country_code":"POL","latitude":52.1332973,"longitude":21.0709375,"name":"Activeweb","category_code":"software","founded_year":2002,"number_of_employees":500,"med_employees":500.0,"coordenadas":[21.0709375,52.1332973]}
{"index":412,"city":"Menlo Park","country_code":"USA","latitude":37.477652,"longitude":-122.223384,"name":"Cataphora","category_code":"software","founded_year":2002,"number_of_employees":100,"med_employees":50.0,"coordenadas":[-122.223384,37.477652]}
{"index":413,"city":"Frankfurt","country_code":"DEU","latitude":50.1115118,"longitude":8.6805059,"name":"Cataphora","category_code":"software","founded_year":2002,"number_of_employees":100,"med_employees":50.0,"coordenadas":[8.6805059,50.1115118]}
{"index":415,"city":"Rome","country_code":"ITA","latitude":41.8924033,"longitude":12.4764711,"name":"IsayBlog!","category_code":"web","founded_year":2008,"number_of_employees":154,"med_employees":154.0,"coordenadas":[12.4764711,41.8924033]}
{"index":416,"city":"Tartu","country_code":"USA","latitude":58.3820542,"longitude":26.731054,"name":"ZeroTurnaround","category_code":"software","founded_year":2007,"number_of_employees":70,"med_employees":17.5,"coordenadas":[26.731054,58.3820542]}
{"index":421,"city":"New York","country_code":"USA","latitude":40.7431836,"longitude":-73.9935011,"name":"Synthesio","category_code":"software","founded_year":2006,"number_of_employees":75,"med_employees":18.75,"coordenadas":[-73.9935011,40.7431836]}
{"index":426,"city":"Delhi","country_code":"IND","latitude":28.4404308,"longitude":77.0789194,"name":"Deal4Loans","category_code":"web","founded_year":2007,"number_of_employees":60,"med_employees":60.0,"coordenadas":[77.0789194,28.4404308]}
{"index":427,"city":"British Columbia","country_code":"CAN","latitude":49.2599284,"longitude":-122.9153695,"name":"Canpages","category_code":"search","founded_year":2006,"number_of_employees":400,"med_employees":400.0,"coordenadas":[-122.9153695,49.2599284]}
{"index":428,"city":"New York","country_code":"USA","latitude":40.7418877,"longitude":-74.0047466,"name":"MLB Advanced Media","category_code":"web","founded_year":2000,"number_of_employees":600,"med_employees":600.0,"coordenadas":[-74.0047466,40.7418877]}
{"index":430,"city":"Bellevue","country_code":"USA","latitude":47.61251,"longitude":-122.1962236,"name":"Ramp Technology Group","category_code":"consulting","founded_year":2000,"number_of_employees":75,"med_employees":75.0,"coordenadas":[-122.1962236,47.61251]}
{"index":431,"city":"Chicago","country_code":"USA","latitude":41.889183,"longitude":-87.632519,"name":"MarketForward","category_code":"consulting","founded_year":2001,"number_of_employees":65,"med_employees":32.5,"coordenadas":[-87.632519,41.889183]}
{"index":432,"city":"St Denis","country_code":"FRA","latitude":48.852218,"longitude":2.3868831,"name":"MarketForward","category_code":"consulting","founded_year":2001,"number_of_employees":65,"med_employees":32.5,"coordenadas":[2.3868831,48.852218]}
{"index":433,"city":"Hyderabad","country_code":"IND","latitude":44.6672372,"longitude":4.7694829,"name":"AppLabs","category_code":"software","founded_year":2001,"number_of_employees":2000,"med_employees":2000.0,"coordenadas":[4.7694829,44.6672372]}
{"index":434,"city":"pleasanton","country_code":"USA","latitude":37.700863,"longitude":-121.8794206,"name":"LeapFish","category_code":"web","founded_year":2008,"number_of_employees":110,"med_employees":110.0,"coordenadas":[-121.8794206,37.700863]}
{"index":435,"city":"Seattle","country_code":"USA","latitude":47.6504518,"longitude":-122.3545086,"name":"Tableau Software","category_code":"software","founded_year":2003,"number_of_employees":92,"med_employees":92.0,"coordenadas":[-122.3545086,47.6504518]}
{"index":436,"city":"Omaha","country_code":"USA","latitude":41.268735,"longitude":-96.086241,"name":"Proxibid","category_code":"software","founded_year":2001,"number_of_employees":100,"med_employees":100.0,"coordenadas":[-96.086241,41.268735]}
{"index":437,"city":"Karlsruhe","country_code":"DEU","latitude":49.0138035,"longitude":8.3828698,"name":"Consileon Business Consultancy GmbH","category_code":"software","founded_year":2001,"number_of_employees":130,"med_employees":130.0,"coordenadas":[8.3828698,49.0138035]}
{"index":438,"city":"New York City","country_code":"USA","latitude":40.8129335,"longitude":-73.9586329,"name":"Dot Com Infoway","category_code":"software","founded_year":2000,"number_of_employees":500,"med_employees":166.6666666667,"coordenadas":[-73.9586329,40.8129335]}
{"index":441,"city":"Levallois-Perret","country_code":"FRA","latitude":48.8687217,"longitude":2.3593849,"name":"PrestaShop","category_code":"software","founded_year":2007,"number_of_employees":80,"med_employees":40.0,"coordenadas":[2.3593849,48.8687217]}
{"index":443,"city":"Reston","country_code":"USA","latitude":38.952289,"longitude":-77.351006,"name":"Bitam","category_code":"software","founded_year":2000,"number_of_employees":130,"med_employees":130.0,"coordenadas":[-77.351006,38.952289]}
{"index":444,"city":"Columbus","country_code":"USA","latitude":40.088052,"longitude":-83.088566,"name":"Veeam Software","category_code":"software","founded_year":2006,"number_of_employees":1500,"med_employees":83.3333333333,"coordenadas":[-83.088566,40.088052]}
{"index":464,"city":"Montreal","country_code":"CAN","latitude":45.4973922,"longitude":-73.5548242,"name":"Nstein Technologies","category_code":"software","founded_year":2000,"number_of_employees":200,"med_employees":100.0,"coordenadas":[-73.5548242,45.4973922]}
{"index":466,"city":"Durham","country_code":"USA","latitude":35.8772527,"longitude":-78.8392427,"name":"Smart Online","category_code":"software","founded_year":2005,"number_of_employees":52,"med_employees":52.0,"coordenadas":[-78.8392427,35.8772527]}
{"index":467,"city":"Woodmere","country_code":"USA","latitude":40.632734,"longitude":-73.720916,"name":"QualSoft Services","category_code":"software","founded_year":2004,"number_of_employees":100,"med_employees":100.0,"coordenadas":[-73.720916,40.632734]}
{"index":469,"city":"Sunnyvale","country_code":"USA","latitude":37.4123706,"longitude":-122.0216271,"name":"RGB Networks","category_code":"games_video","founded_year":2003,"number_of_employees":125,"med_employees":125.0,"coordenadas":[-122.0216271,37.4123706]}
{"index":470,"city":"Pasadena","country_code":"USA","latitude":34.1428388,"longitude":-118.1323783,"name":"LawCrossing","category_code":"web","founded_year":2003,"number_of_employees":100,"med_employees":100.0,"coordenadas":[-118.1323783,34.1428388]}
{"index":471,"city":"San Francisco","country_code":"USA","latitude":34.0497638,"longitude":-118.2474287,"name":"Klout","category_code":"social","founded_year":2008,"number_of_employees":79,"med_employees":79.0,"coordenadas":[-118.2474287,34.0497638]}
{"index":472,"city":"Santa Clara","country_code":"USA","latitude":37.3821368,"longitude":-121.970505,"name":"Packet Design","category_code":"software","founded_year":2003,"number_of_employees":60,"med_employees":60.0,"coordenadas":[-121.970505,37.3821368]}
{"index":474,"city":"Dun Laoghaire","country_code":"IRL","latitude":53.342689,"longitude":-6.2644783,"name":"Central Reservations","category_code":"web","founded_year":2008,"number_of_employees":510,"med_employees":255.0,"coordenadas":[-6.2644783,53.342689]}
{"index":476,"city":"Boston","country_code":"USA","latitude":42.356161,"longitude":-71.061649,"name":"thoughtbot","category_code":"consulting","founded_year":2003,"number_of_employees":62,"med_employees":12.4,"coordenadas":[-71.061649,42.356161]}
{"index":478,"city":"Stockholm","country_code":"SWE","latitude":59.3335122,"longitude":18.0816712,"name":"thoughtbot","category_code":"consulting","founded_year":2003,"number_of_employees":62,"med_employees":12.4,"coordenadas":[18.0816712,59.3335122]}
{"index":479,"city":"Boulder","country_code":"USA","latitude":40.014498,"longitude":-105.278502,"name":"thoughtbot","category_code":"consulting","founded_year":2003,"number_of_employees":62,"med_employees":12.4,"coordenadas":[-105.278502,40.014498]}
{"index":480,"city":"Philadelphia","country_code":"USA","latitude":39.952335,"longitude":-75.163789,"name":"thoughtbot","category_code":"consulting","founded_year":2003,"number_of_employees":62,"med_employees":12.4,"coordenadas":[-75.163789,39.952335]}
{"index":481,"city":"#132 Woodland Hills","country_code":"USA","latitude":34.1580778,"longitude":-118.6356318,"name":"2AdPro","category_code":"web","founded_year":2006,"number_of_employees":350,"med_employees":350.0,"coordenadas":[-118.6356318,34.1580778]}
{"index":483,"city":"Buenos Aires","country_code":"ARG","latitude":-34.4942649,"longitude":-58.5511077,"name":"Iken Solutions","category_code":"software","founded_year":2005,"number_of_employees":70,"med_employees":35.0,"coordenadas":[-58.5511077,-34.4942649]}
{"index":484,"city":"Bangalore","country_code":"IND","latitude":35.2675117,"longitude":139.1870746,"name":"Nalini Networks","category_code":"software","founded_year":2007,"number_of_employees":110,"med_employees":110.0,"coordenadas":[139.1870746,35.2675117]}
{"index":486,"city":"San Francisco","country_code":"USA","latitude":37.7887135,"longitude":-122.3927145,"name":"Double Fusion","category_code":"web","founded_year":2004,"number_of_employees":80,"med_employees":80.0,"coordenadas":[-122.3927145,37.7887135]}
{"index":489,"city":"Tel Aviv","country_code":"ISR","latitude":32.1115098,"longitude":34.8388443,"name":"SundaySky","category_code":"software","founded_year":2006,"number_of_employees":103,"med_employees":51.5,"coordenadas":[34.8388443,32.1115098]}
{"index":490,"city":"Corning","country_code":"USA","latitude":42.979367,"longitude":-78.798947,"name":"Targetprocess","category_code":"software","founded_year":2006,"number_of_employees":60,"med_employees":60.0,"coordenadas":[-78.798947,42.979367]}
{"index":491,"city":"Mountain View","country_code":"USA","latitude":37.4192309,"longitude":-122.0887097,"name":"Adaptive Planning","category_code":"software","founded_year":2003,"number_of_employees":65,"med_employees":65.0,"coordenadas":[-122.0887097,37.4192309]}
{"index":492,"city":"Atlanta","country_code":"USA","latitude":33.7812614,"longitude":-84.3675617,"name":"Vocalocity","category_code":"software","founded_year":2007,"number_of_employees":175,"med_employees":175.0,"coordenadas":[-84.3675617,33.7812614]}
{"index":493,"city":"Baltimore","country_code":"USA","latitude":39.2769777,"longitude":-76.6129791,"name":"WhatCounts","category_code":"software","founded_year":2000,"number_of_employees":70,"med_employees":70.0,"coordenadas":[-76.6129791,39.2769777]}
{"index":494,"city":"Cleveland","country_code":"USA","latitude":41.513652,"longitude":-81.666101,"name":"SparkBase","category_code":"software","founded_year":2004,"number_of_employees":51,"med_employees":51.0,"coordenadas":[-81.666101,41.513652]}
{"index":496,"city":"San Francisco","country_code":"USA","latitude":37.7800539,"longitude":-122.3912492,"name":"Skout","category_code":"social","founded_year":2007,"number_of_employees":100,"med_employees":33.3333333333,"coordenadas":[-122.3912492,37.7800539]}
{"index":499,"city":"Fremont","country_code":"USA","latitude":37.4797894,"longitude":-121.9452534,"name":"TechAspect Solutions","category_code":"consulting","founded_year":2000,"number_of_employees":300,"med_employees":75.0,"coordenadas":[-121.9452534,37.4797894]}
{"index":503,"city":"Burlington","country_code":"USA","latitude":42.48366,"longitude":-71.221878,"name":"Signiant","category_code":"software","founded_year":2000,"number_of_employees":75,"med_employees":75.0,"coordenadas":[-71.221878,42.48366]}
{"index":505,"city":"Altamonte Springs","country_code":"USA","latitude":28.672321,"longitude":-81.384939,"name":"AssureSign","category_code":"software","founded_year":2008,"number_of_employees":60,"med_employees":60.0,"coordenadas":[-81.384939,28.672321]}
{"index":506,"city":"Lahore","country_code":"PAK","latitude":37.3015115,"longitude":-121.9303616,"name":"Naseeb Networks","category_code":"web","founded_year":2003,"number_of_employees":100,"med_employees":100.0,"coordenadas":[-121.9303616,37.3015115]}
{"index":507,"city":"Albany","country_code":"USA","latitude":42.695348,"longitude":-73.878913,"name":"Acquirelists","category_code":"software","founded_year":2002,"number_of_employees":250,"med_employees":250.0,"coordenadas":[-73.878913,42.695348]}
{"index":508,"city":"San Jose","country_code":"USA","latitude":37.367838,"longitude":-121.915594,"name":"Quantum Secure","category_code":"software","founded_year":2004,"number_of_employees":160,"med_employees":160.0,"coordenadas":[-121.915594,37.367838]}
{"index":509,"city":"Miami Beach","country_code":"USA","latitude":25.774085,"longitude":-80.139143,"name":"Bizclickusa","category_code":"search","founded_year":2000,"number_of_employees":120,"med_employees":120.0,"coordenadas":[-80.139143,25.774085]}
{"index":510,"city":"San Francisco","country_code":"USA","latitude":37.7892685,"longitude":-122.3951844,"name":"Riverbed Technology","category_code":"software","founded_year":2002,"number_of_employees":1000,"med_employees":166.6666666667,"coordenadas":[-122.3951844,37.7892685]}
{"index":516,"city":"Garden City","country_code":"USA","latitude":40.7349884,"longitude":-73.637714,"name":"National Association of Professional Women","category_code":"social","founded_year":2007,"number_of_employees":200,"med_employees":200.0,"coordenadas":[-73.637714,40.7349884]}
{"index":517,"city":"Sunnyvale","country_code":"USA","latitude":37.384239,"longitude":-122.012475,"name":"i-Jet Media","category_code":"games_video","founded_year":2005,"number_of_employees":150,"med_employees":75.0,"coordenadas":[-122.012475,37.384239]}
{"index":519,"city":"Newport Beach","country_code":"USA","latitude":33.660955,"longitude":-117.867679,"name":"Rigel Networks","category_code":"software","founded_year":2004,"number_of_employees":200,"med_employees":200.0,"coordenadas":[-117.867679,33.660955]}
{"index":520,"city":"Victoria","country_code":"CAN","latitude":48.4244865,"longitude":-123.363909,"name":"Neverblue","category_code":"web","founded_year":2004,"number_of_employees":110,"med_employees":110.0,"coordenadas":[-123.363909,48.4244865]}
{"index":521,"city":"Seattle","country_code":"USA","latitude":47.611827,"longitude":-122.331308,"name":"Medio","category_code":"software","founded_year":2004,"number_of_employees":90,"med_employees":90.0,"coordenadas":[-122.331308,47.611827]}
{"index":523,"city":"San Ramon","country_code":"USA","latitude":37.769205,"longitude":-121.966395,"name":"WANdisco","category_code":"software","founded_year":2005,"number_of_employees":175,"med_employees":87.5,"coordenadas":[-121.966395,37.769205]}
{"index":524,"city":"Sheffield","country_code":"GBR","latitude":53.3800107,"longitude":-1.4629301,"name":"WANdisco","category_code":"software","founded_year":2005,"number_of_employees":175,"med_employees":87.5,"coordenadas":[-1.4629301,53.3800107]}
{"index":525,"city":"Glastonbury","country_code":"USA","latitude":41.722414,"longitude":-72.618958,"name":"TopCoder","category_code":"software","founded_year":2001,"number_of_employees":60,"med_employees":60.0,"coordenadas":[-72.618958,41.722414]}
{"index":526,"city":"New York","country_code":"USA","latitude":40.7143528,"longitude":-74.0059731,"name":"Backbase","category_code":"software","founded_year":2003,"number_of_employees":80,"med_employees":40.0,"coordenadas":[-74.0059731,40.7143528]}
{"index":527,"city":"Amsterdam","country_code":"NLD","latitude":52.3710179,"longitude":4.9277799,"name":"Backbase","category_code":"software","founded_year":2003,"number_of_employees":80,"med_employees":40.0,"coordenadas":[4.9277799,52.3710179]}
{"index":528,"city":"Phoenix","country_code":"USA","latitude":33.357125,"longitude":-111.974507,"name":"Perceptis","category_code":"consulting","founded_year":2004,"number_of_employees":1000,"med_employees":500.0,"coordenadas":[-111.974507,33.357125]}
{"index":532,"city":"London","country_code":"GBR","latitude":51.4647321,"longitude":-0.1614896,"name":"Icreon Communications","category_code":"software","founded_year":2000,"number_of_employees":300,"med_employees":60.0,"coordenadas":[-0.1614896,51.4647321]}
{"index":533,"city":"Bradford","country_code":"GBR","latitude":53.7906412,"longitude":-1.7167505,"name":"Icreon Communications","category_code":"software","founded_year":2000,"number_of_employees":300,"med_employees":60.0,"coordenadas":[-1.7167505,53.7906412]}
{"index":535,"city":"Noida","country_code":"IND","latitude":28.5865869,"longitude":77.3360319,"name":"Shriv Commedia Solutions Pvt Ltd","category_code":"software","founded_year":2000,"number_of_employees":200,"med_employees":200.0,"coordenadas":[77.3360319,28.5865869]}
{"index":536,"city":"Orlando","country_code":"USA","latitude":28.396758,"longitude":-81.375467,"name":"Leo TechnoSoft","category_code":"software","founded_year":2003,"number_of_employees":100,"med_employees":50.0,"coordenadas":[-81.375467,28.396758]}
{"index":539,"city":"Lisbon","country_code":"PRT","latitude":38.7737475,"longitude":-9.0980577,"name":"WIT Software","category_code":"software","founded_year":2001,"number_of_employees":160,"med_employees":26.6666666667,"coordenadas":[-9.0980577,38.7737475]}
{"index":541,"city":"Leiria","country_code":"PRT","latitude":39.7365713,"longitude":-8.8085065,"name":"WIT Software","category_code":"software","founded_year":2001,"number_of_employees":160,"med_employees":26.6666666667,"coordenadas":[-8.8085065,39.7365713]}
{"index":542,"city":"Reading","country_code":"GBR","latitude":51.4416686,"longitude":-0.9354555,"name":"WIT Software","category_code":"software","founded_year":2001,"number_of_employees":160,"med_employees":26.6666666667,"coordenadas":[-0.9354555,51.4416686]}
{"index":543,"city":"Reading","country_code":"GBR","latitude":51.4416686,"longitude":-0.9354555,"name":"WIT Software","category_code":"software","founded_year":2001,"number_of_employees":160,"med_employees":26.6666666667,"coordenadas":[-0.9354555,51.4416686]}
{"index":544,"city":"Chennai","country_code":"IND","latitude":41.4586444,"longitude":-81.5121475,"name":"Dot Com Infoway Australia","category_code":"software","founded_year":2000,"number_of_employees":350,"med_employees":116.6666666667,"coordenadas":[-81.5121475,41.4586444]}
{"index":547,"city":"Vigo","country_code":"ESP","latitude":42.1638716,"longitude":-8.6105703,"name":"Velneo","category_code":"software","founded_year":2005,"number_of_employees":60,"med_employees":60.0,"coordenadas":[-8.6105703,42.1638716]}
{"index":548,"city":"Prague 8","country_code":"CZE","latitude":50.0938491,"longitude":14.4505336,"name":"Geewa","category_code":"games_video","founded_year":2005,"number_of_employees":60,"med_employees":30.0,"coordenadas":[14.4505336,50.0938491]}
{"index":550,"city":"Cologne","country_code":"DEU","latitude":50.9272941,"longitude":6.9764978,"name":"Turtle Entertainment","category_code":"games_video","founded_year":2000,"number_of_employees":175,"med_employees":175.0,"coordenadas":[6.9764978,50.9272941]}
{"index":551,"city":"Zurich","country_code":"CHE","latitude":47.3799427,"longitude":8.5436847,"name":"NearSoft Europe","category_code":"software","founded_year":2006,"number_of_employees":100,"med_employees":50.0,"coordenadas":[8.5436847,47.3799427]}
{"index":555,"city":"Great Neck","country_code":"USA","latitude":40.7780683,"longitude":-73.7328252,"name":"Ekartha","category_code":"software","founded_year":2001,"number_of_employees":60,"med_employees":60.0,"coordenadas":[-73.7328252,40.7780683]}
{"index":556,"city":"Glendale","country_code":"USA","latitude":34.1527593,"longitude":-118.2551,"name":"Across Systems","category_code":"software","founded_year":2005,"number_of_employees":60,"med_employees":20.0,"coordenadas":[-118.2551,34.1527593]}
{"index":557,"city":"Rochester","country_code":"USA","latitude":43.17742,"longitude":-77.7514,"name":"Across Systems","category_code":"software","founded_year":2005,"number_of_employees":60,"med_employees":20.0,"coordenadas":[-77.7514,43.17742]}
{"index":558,"city":"Karlsbad","country_code":"DEU","latitude":48.8838843,"longitude":8.5093142,"name":"Across Systems","category_code":"software","founded_year":2005,"number_of_employees":60,"med_employees":20.0,"coordenadas":[8.5093142,48.8838843]}
{"index":561,"city":"San Francisco","country_code":"USA","latitude":55.6924605,"longitude":12.530107,"name":"Unity Technologies","category_code":"games_video","founded_year":2004,"number_of_employees":200,"med_employees":100.0,"coordenadas":[12.530107,55.6924605]}
{"index":563,"city":"Oakland","country_code":"USA","latitude":37.797862,"longitude":-122.277506,"name":"CalFinder","category_code":"web","founded_year":2005,"number_of_employees":60,"med_employees":60.0,"coordenadas":[-122.277506,37.797862]}
{"index":564,"city":"Portland","country_code":"USA","latitude":45.5309644,"longitude":-122.68038,"name":"Jama Software","category_code":"software","founded_year":2007,"number_of_employees":103,"med_employees":103.0,"coordenadas":[-122.68038,45.5309644]}
{"index":570,"city":"California","country_code":"USA","latitude":37.3709977,"longitude":-121.9235529,"name":"picoChip","category_code":"software","founded_year":2000,"number_of_employees":92,"med_employees":18.4,"coordenadas":[-121.9235529,37.3709977]}
{"index":576,"city":"Boston","country_code":"USA","latitude":42.3406534,"longitude":-71.0680027,"name":"SCVNGR","category_code":"games_video","founded_year":2008,"number_of_employees":60,"med_employees":60.0,"coordenadas":[-71.0680027,42.3406534]}
{"index":582,"city":"Seattle","country_code":"USA","latitude":47.6103008,"longitude":-122.3399782,"name":"Z2Live","category_code":"games_video","founded_year":2009,"number_of_employees":130,"med_employees":130.0,"coordenadas":[-122.3399782,47.6103008]}
{"index":583,"city":"Redwood City","country_code":"USA","latitude":37.524851,"longitude":-122.257185,"name":"Nimsoft","category_code":"software","founded_year":2002,"number_of_employees":150,"med_employees":75.0,"coordenadas":[-122.257185,37.524851]}
{"index":585,"city":"Bangalore","country_code":"IND","latitude":13.0369829,"longitude":77.5659764,"name":"SLK Software Services Pvt Ltd","category_code":"software","founded_year":2000,"number_of_employees":2100,"med_employees":2100.0,"coordenadas":[77.5659764,13.0369829]}
{"index":586,"city":"Barcelona","country_code":"ESP","latitude":41.3935324,"longitude":2.1660785,"name":"Openbravo","category_code":"software","founded_year":2006,"number_of_employees":100,"med_employees":50.0,"coordenadas":[2.1660785,41.3935324]}
{"index":588,"city":"Vancouver","country_code":"CAN","latitude":49.2851733,"longitude":-123.0952381,"name":"HootSuite","category_code":"social","founded_year":2008,"number_of_employees":370,"med_employees":370.0,"coordenadas":[-123.0952381,49.2851733]}
{"index":589,"city":"Troy","country_code":"USA","latitude":42.733154,"longitude":-73.679536,"name":"BelWo","category_code":"software","founded_year":2002,"number_of_employees":100,"med_employees":100.0,"coordenadas":[-73.679536,42.733154]}
{"index":590,"city":"Cambridge","country_code":"USA","latitude":42.365867,"longitude":-71.092285,"name":"Basho Technologies","category_code":"software","founded_year":2007,"number_of_employees":110,"med_employees":22.0,"coordenadas":[-71.092285,42.365867]}
{"index":596,"city":"Ridgeland","country_code":"USA","latitude":32.416174,"longitude":-90.1633006,"name":"Bomgar","category_code":"software","founded_year":2003,"number_of_employees":150,"med_employees":30.0,"coordenadas":[-90.1633006,32.416174]}
{"index":597,"city":"Duluth","country_code":"USA","latitude":34.057519,"longitude":-84.17173,"name":"Bomgar","category_code":"software","founded_year":2003,"number_of_employees":150,"med_employees":30.0,"coordenadas":[-84.17173,34.057519]}
{"index":598,"city":"Paris","country_code":"FRA","latitude":48.8752305,"longitude":2.2983373,"name":"Bomgar","category_code":"software","founded_year":2003,"number_of_employees":150,"med_employees":30.0,"coordenadas":[2.2983373,48.8752305]}
{"index":599,"city":"San Francisco","country_code":"USA","latitude":37.791128,"longitude":-122.398126,"name":"Bomgar","category_code":"software","founded_year":2003,"number_of_employees":150,"med_employees":30.0,"coordenadas":[-122.398126,37.791128]}
{"index":600,"city":"Reston","country_code":"USA","latitude":38.9594124,"longitude":-77.3563279,"name":"Bomgar","category_code":"software","founded_year":2003,"number_of_employees":150,"med_employees":30.0,"coordenadas":[-77.3563279,38.9594124]}
{"index":601,"city":"Madrid","country_code":"ESP","latitude":40.4158236,"longitude":-3.696277,"name":"Tuenti Technologies","category_code":"social","founded_year":2006,"number_of_employees":170,"med_employees":170.0,"coordenadas":[-3.696277,40.4158236]}
{"index":603,"city":"San Jose","country_code":"USA","latitude":37.3721771,"longitude":-121.9250398,"name":"Kaseya","category_code":"software","founded_year":2000,"number_of_employees":400,"med_employees":66.6666666667,"coordenadas":[-121.9250398,37.3721771]}
{"index":604,"city":"San Francisco","country_code":"USA","latitude":37.791575,"longitude":-122.39339,"name":"Kaseya","category_code":"software","founded_year":2000,"number_of_employees":400,"med_employees":66.6666666667,"coordenadas":[-122.39339,37.791575]}
{"index":609,"city":"Santa Clara","country_code":"USA","latitude":37.381341,"longitude":-121.977065,"name":"Adeptol","category_code":"software","founded_year":2007,"number_of_employees":60,"med_employees":60.0,"coordenadas":[-121.977065,37.381341]}
{"index":610,"city":"Bangalore","country_code":"IND","latitude":12.9332419,"longitude":77.6295577,"name":"itEANz","category_code":"software","founded_year":2006,"number_of_employees":75,"med_employees":75.0,"coordenadas":[77.6295577,12.9332419]}
{"index":611,"city":"Iselin","country_code":"USA","latitude":40.565015,"longitude":-74.328206,"name":"eG Innovations","category_code":"software","founded_year":2001,"number_of_employees":95,"med_employees":47.5,"coordenadas":[-74.328206,40.565015]}
{"index":612,"city":"Singapore","country_code":"SGP","latitude":1.2791449,"longitude":103.8440888,"name":"eG Innovations","category_code":"software","founded_year":2001,"number_of_employees":95,"med_employees":47.5,"coordenadas":[103.8440888,1.2791449]}
{"index":614,"city":"New York","country_code":"USA","latitude":40.743616,"longitude":-73.9880796,"name":"Bluewolf","category_code":"consulting","founded_year":2000,"number_of_employees":300,"med_employees":60.0,"coordenadas":[-73.9880796,40.743616]}
{"index":615,"city":"San Francisco","country_code":"USA","latitude":37.79215,"longitude":-122.394,"name":"Bluewolf","category_code":"consulting","founded_year":2000,"number_of_employees":300,"med_employees":60.0,"coordenadas":[-122.394,37.79215]}
{"index":616,"city":"Reading, Berkshire","country_code":"GBR","latitude":51.4373027,"longitude":-0.8994375,"name":"Bluewolf","category_code":"consulting","founded_year":2000,"number_of_employees":300,"med_employees":60.0,"coordenadas":[-0.8994375,51.4373027]}
{"index":619,"city":"London","country_code":"GBR","latitude":51.5234209,"longitude":-0.1398614,"name":"Red Engineering Design","category_code":"consulting","founded_year":2004,"number_of_employees":100,"med_employees":100.0,"coordenadas":[-0.1398614,51.5234209]}
{"index":621,"city":"San Francisco","country_code":"USA","latitude":37.7875304,"longitude":-122.3989996,"name":"NaturalMotion","category_code":"games_video","founded_year":2001,"number_of_employees":150,"med_employees":50.0,"coordenadas":[-122.3989996,37.7875304]}
{"index":623,"city":"Redmond","country_code":"USA","latitude":47.632945,"longitude":-122.133449,"name":"MAQ Software","category_code":"consulting","founded_year":2000,"number_of_employees":250,"med_employees":83.3333333333,"coordenadas":[-122.133449,47.632945]}
{"index":629,"city":"New York","country_code":"USA","latitude":40.733242,"longitude":-73.991877,"name":"Navatar Group","category_code":"software","founded_year":2004,"number_of_employees":80,"med_employees":40.0,"coordenadas":[-73.991877,40.733242]}
{"index":631,"city":"Hoboken","country_code":"USA","latitude":40.736222,"longitude":-74.02977,"name":"Eglue Business Technologies","category_code":"software","founded_year":2001,"number_of_employees":80,"med_employees":40.0,"coordenadas":[-74.02977,40.736222]}
{"index":632,"city":"London","country_code":"GBR","latitude":51.5115309,"longitude":-0.1392765,"name":"Eglue Business Technologies","category_code":"software","founded_year":2001,"number_of_employees":80,"med_employees":40.0,"coordenadas":[-0.1392765,51.5115309]}
{"index":633,"city":"Montr\u00c3\u00a9al","country_code":"CAN","latitude":45.4961227,"longitude":-73.5767499,"name":"StreamTheWorld","category_code":"games_video","founded_year":2005,"number_of_employees":65,"med_employees":32.5,"coordenadas":[-73.5767499,45.4961227]}
{"index":634,"city":"Lausanne","country_code":"CHE","latitude":46.5206291,"longitude":6.6328274,"name":"StreamTheWorld","category_code":"games_video","founded_year":2005,"number_of_employees":65,"med_employees":32.5,"coordenadas":[6.6328274,46.5206291]}
{"index":635,"city":"Reston","country_code":"USA","latitude":38.872668,"longitude":-77.367981,"name":"Razorsight","category_code":"software","founded_year":2001,"number_of_employees":190,"med_employees":190.0,"coordenadas":[-77.367981,38.872668]}
{"index":637,"city":"Norcross","country_code":"USA","latitude":33.939181,"longitude":-84.134047,"name":"BetterTrades","category_code":"web","founded_year":2001,"number_of_employees":300,"med_employees":300.0,"coordenadas":[-84.134047,33.939181]}
{"index":638,"city":"Palaiseau","country_code":"FRA","latitude":48.7191043,"longitude":2.2639015,"name":"Rhapso","category_code":"software","founded_year":2000,"number_of_employees":56,"med_employees":56.0,"coordenadas":[2.2639015,48.7191043]}
{"index":639,"city":"Pleasanton","country_code":"USA","latitude":37.69249,"longitude":-121.900722,"name":"Veeva","category_code":"software","founded_year":2007,"number_of_employees":510,"med_employees":127.5,"coordenadas":[-121.900722,37.69249]}
{"index":643,"city":"Baltimore","country_code":"USA","latitude":39.298734,"longitude":-76.616747,"name":"Taipan Publishing Group","category_code":"web","founded_year":2007,"number_of_employees":100,"med_employees":100.0,"coordenadas":[-76.616747,39.298734]}
{"index":644,"city":"New York","country_code":"USA","latitude":40.743877,"longitude":-73.98618,"name":"[212]Media","category_code":"games_video","founded_year":2004,"number_of_employees":75,"med_employees":75.0,"coordenadas":[-73.98618,40.743877]}
{"index":645,"city":"Burbank","country_code":"USA","latitude":34.1676412,"longitude":-118.3227223,"name":"PLAVEB Corporation","category_code":"consulting","founded_year":2004,"number_of_employees":51,"med_employees":25.5,"coordenadas":[-118.3227223,34.1676412]}
{"index":647,"city":"Berlin","country_code":"DEU","latitude":52.5092312,"longitude":13.3883606,"name":"My-Hammer","category_code":"web","founded_year":2005,"number_of_employees":70,"med_employees":70.0,"coordenadas":[13.3883606,52.5092312]}
{"index":648,"city":"Paris","country_code":"FRA","latitude":48.8502056,"longitude":2.3698033,"name":"2 Minutes","category_code":"games_video","founded_year":2000,"number_of_employees":105,"med_employees":105.0,"coordenadas":[2.3698033,48.8502056]}
{"index":655,"city":"Sunnyvale","country_code":"USA","latitude":37.3903639,"longitude":-122.0325963,"name":"Electric Cloud","category_code":"software","founded_year":2002,"number_of_employees":75,"med_employees":37.5,"coordenadas":[-122.0325963,37.3903639]}
{"index":658,"city":"Copenhagen","country_code":"DNK","latitude":56.0921712,"longitude":8.9105435,"name":"Ciklum","category_code":"software","founded_year":2002,"number_of_employees":1700,"med_employees":850.0,"coordenadas":[8.9105435,56.0921712]}
{"index":659,"city":"Kansas City","country_code":"USA","latitude":39.156427,"longitude":-94.483334,"name":"Engagement Systems","category_code":"software","founded_year":2008,"number_of_employees":80,"med_employees":80.0,"coordenadas":[-94.483334,39.156427]}
{"index":660,"city":"Tempe","country_code":"USA","latitude":33.4298452,"longitude":-111.9387842,"name":"Tiempo Development","category_code":"software","founded_year":2006,"number_of_employees":230,"med_employees":57.5,"coordenadas":[-111.9387842,33.4298452]}
{"index":664,"city":"London","country_code":"GBR","latitude":51.5209358,"longitude":-0.1424094,"name":"Tribold","category_code":"software","founded_year":2003,"number_of_employees":106,"med_employees":106.0,"coordenadas":[-0.1424094,51.5209358]}
{"index":665,"city":"Boulder","country_code":"USA","latitude":40.020421,"longitude":-105.236011,"name":"MD-IT","category_code":"software","founded_year":2000,"number_of_employees":1000,"med_employees":1000.0,"coordenadas":[-105.236011,40.020421]}
{"index":671,"city":"New York","country_code":"USA","latitude":40.744697,"longitude":-73.989947,"name":"Zemoga","category_code":"web","founded_year":2003,"number_of_employees":140,"med_employees":35.0,"coordenadas":[-73.989947,40.744697]}
{"index":673,"city":"Wilton","country_code":"USA","latitude":41.1932851,"longitude":-73.4313029,"name":"Zemoga","category_code":"web","founded_year":2003,"number_of_employees":140,"med_employees":35.0,"coordenadas":[-73.4313029,41.1932851]}
{"index":676,"city":"Vancouver","country_code":"CAN","latitude":49.2836544,"longitude":-123.1409704,"name":"LearningMate","category_code":"software","founded_year":2003,"number_of_employees":190,"med_employees":63.3333333333,"coordenadas":[-123.1409704,49.2836544]}
{"index":677,"city":"London","country_code":"GBR","latitude":51.5241069,"longitude":-0.1169935,"name":"LearningMate","category_code":"software","founded_year":2003,"number_of_employees":190,"med_employees":63.3333333333,"coordenadas":[-0.1169935,51.5241069]}
{"index":678,"city":"Hamburg","country_code":"DEU","latitude":53.5973055,"longitude":9.9762519,"name":"Bigpoint","category_code":"games_video","founded_year":2002,"number_of_employees":500,"med_employees":125.0,"coordenadas":[9.9762519,53.5973055]}
{"index":682,"city":"Ra\u2019anana","country_code":"ISR","latitude":32.1980455,"longitude":34.8824253,"name":"Pontis","category_code":"software","founded_year":2004,"number_of_employees":105,"med_employees":52.5,"coordenadas":[34.8824253,32.1980455]}
{"index":683,"city":"Capital Federal","country_code":"ARG","latitude":-34.5631882,"longitude":-58.4541925,"name":"Pontis","category_code":"software","founded_year":2004,"number_of_employees":105,"med_employees":52.5,"coordenadas":[-58.4541925,-34.5631882]}
{"index":688,"city":"State College","country_code":"USA","latitude":40.7872915,"longitude":-77.8268382,"name":"Schoolwires","category_code":"software","founded_year":2000,"number_of_employees":63,"med_employees":63.0,"coordenadas":[-77.8268382,40.7872915]}
{"index":689,"city":"Washington","country_code":"USA","latitude":38.897976,"longitude":-77.028561,"name":"Layer 7 Technologies","category_code":"software","founded_year":2003,"number_of_employees":165,"med_employees":41.25,"coordenadas":[-77.028561,38.897976]}
{"index":690,"city":"Vancouver","country_code":"CAN","latitude":49.2864769,"longitude":-123.1220081,"name":"Layer 7 Technologies","category_code":"software","founded_year":2003,"number_of_employees":165,"med_employees":41.25,"coordenadas":[-123.1220081,49.2864769]}
{"index":691,"city":"Surrey","country_code":"GBR","latitude":51.2357089,"longitude":-0.5813902,"name":"Layer 7 Technologies","category_code":"software","founded_year":2003,"number_of_employees":165,"med_employees":41.25,"coordenadas":[-0.5813902,51.2357089]}
{"index":693,"city":"Huntington Beach","country_code":"USA","latitude":33.664705,"longitude":-118.012553,"name":"FireScope","category_code":"software","founded_year":2006,"number_of_employees":65,"med_employees":16.25,"coordenadas":[-118.012553,33.664705]}
{"index":694,"city":"Carrollton","country_code":"USA","latitude":33.0353,"longitude":-96.9274,"name":"FireScope","category_code":"software","founded_year":2006,"number_of_employees":65,"med_employees":16.25,"coordenadas":[-96.9274,33.0353]}
{"index":695,"city":"Sydney","country_code":"AUS","latitude":-33.867139,"longitude":151.207114,"name":"FireScope","category_code":"software","founded_year":2006,"number_of_employees":65,"med_employees":16.25,"coordenadas":[151.207114,-33.867139]}
{"index":696,"city":"London","country_code":"GBR","latitude":51.5001524,"longitude":-0.1262362,"name":"FireScope","category_code":"software","founded_year":2006,"number_of_employees":65,"med_employees":16.25,"coordenadas":[-0.1262362,51.5001524]}
{"index":699,"city":"New York City","country_code":"USA","latitude":40.7450497,"longitude":-73.9900984,"name":"StyleCaster","category_code":"web","founded_year":2008,"number_of_employees":60,"med_employees":60.0,"coordenadas":[-73.9900984,40.7450497]}
{"index":708,"city":"Minneapolis","country_code":"USA","latitude":44.948786,"longitude":-93.161038,"name":"MentorMate","category_code":"software","founded_year":2001,"number_of_employees":216,"med_employees":216.0,"coordenadas":[-93.161038,44.948786]}
{"index":717,"city":"Guangzhou","country_code":"CHN","latitude":23.1337544,"longitude":113.3853308,"name":"UCWeb","category_code":"software","founded_year":2004,"number_of_employees":1700,"med_employees":425.0,"coordenadas":[113.3853308,23.1337544]}
{"index":720,"city":"San Francisco","country_code":"USA","latitude":37.7814765,"longitude":-122.4013217,"name":"UCWeb","category_code":"software","founded_year":2004,"number_of_employees":1700,"med_employees":425.0,"coordenadas":[-122.4013217,37.7814765]}
{"index":722,"city":"San Jose","country_code":"USA","latitude":37.3706126,"longitude":-121.9219538,"name":"OSA Technologies","category_code":"software","founded_year":2000,"number_of_employees":102,"med_employees":34.0,"coordenadas":[-121.9219538,37.3706126]}
{"index":728,"city":"Chicago","country_code":"USA","latitude":41.8806258,"longitude":-87.6356066,"name":"optionsXpress","category_code":"software","founded_year":2000,"number_of_employees":305,"med_employees":305.0,"coordenadas":[-87.6356066,41.8806258]}