{"index":0,"city":"New York","country_code":"USA","latitude":40.757929,"longitude":-73.985506,"name":"PeekYou","category_code":"search","founded_year":2012,"number_of_employees":20,"coordenadas":[-73.985506,40.757929],"cercanas":[{"city":"New York","latitude":40.757929,"longitude":-73.985506,"name":"PeekYou","category_code":"search","number_of_employees":20},{"city":"New York","latitude":40.7557162,"longitude":-73.9792469,"name":"Facebook","category_code":"social","number_of_employees":5299},{"city":"New York","latitude":40.7645772,"longitude":-73.9799007,"name":"Unison Technologies","category_code":"software","number_of_employees":30},{"city":"New York","latitude":40.744618,"longitude":-73.987764,"name":"Yipit","category_code":"web","number_of_employees":23},{"city":"New York","latitude":40.74222,"longitude":-74.004489,"name":"Google","category_code":"search","number_of_employees":28000},{"city":"New York","latitude":40.7418877,"longitude":-74.0047466,"name":"MLB Advanced Media","category_code":"web","number_of_employees":600}],"num_offices":6,"ratio":1.0}
{"index":1,"city":"Berlin","country_code":"DEU","latitude":52.5013449,"longitude":13.4109071,"name":"headr","category_code":"web","founded_year":2012,"number_of_employees":8,"coordenadas":[13.4109071,52.5013449],"cercanas":[{"city":"Berlin","latitude":52.5013449,"longitude":13.4109071,"name":"headr","category_code":"web","number_of_employees":8},{"city":"Berlin","latitude":52.502642,"longitude":13.446834,"name":"zanox","category_code":"web","number_of_employees":600}],"num_offices":2,"ratio":1.0}
{"index":3,"city":"San Mateo","country_code":"USA","latitude":37.566879,"longitude":-122.323895,"name":"Fixya","category_code":"web","founded_year":2013,"number_of_employees":30,"coordenadas":[-122.323895,37.566879],"cercanas":[{"city":"San Mateo","latitude":37.566879,"longitude":-122.323895,"name":"Fixya","category_code":"web","number_of_employees":30},{"city":"San Mateo","latitude":37.5583,"longitude":-122.301385,"name":"Marketo","category_code":"software","number_of_employees":260}],"num_offices":2,"ratio":1.0}
{"index":5,"city":"Santa Clara","country_code":"USA","latitude":37.760524,"longitude":-122.387799,"name":"Fuzz","category_code":"games_video","founded_year":2011,"number_of_employees":6,"coordenadas":[-122.387799,37.760524],"cercanas":[{"city":"Santa Clara","latitude":37.760524,"longitude":-122.387799,"name":"Fuzz","category_code":"games_video","number_of_employees":6},{"city":"San Francisco","latitude":37.766909,"longitude":-122.406676,"name":"Trulia","category_code":"search","number_of_employees":500},{"city":"San Francisco","latitude":37.78274,"longitude":-122.390945,"name":"Splunk","category_code":"software","number_of_employees":500},{"city":"San Francisco","latitude":37.7814765,"longitude":-122.4013217,"name":"UCWeb","category_code":"software","number_of_employees":1700},{"city":"San Francisco","latitude":37.7819286,"longitude":-122.4041764,"name":"Globant","category_code":"software","number_of_employees":2800}],"num_offices":5,"ratio":4.0}
{"index":6,"city":"Van Nuys","country_code":"USA","latitude":40.650291,"longitude":-74.294395,"name":"CollegeConvo","category_code":"web","founded_year":2010,"number_of_employees":2,"coordenadas":[-74.294395,40.650291],"cercanas":[{"city":"Van Nuys","latitude":40.650291,"longitude":-74.294395,"name":"eCampusCash","category_code":"web","number_of_employees":3},{"city":"Van Nuys","latitude":40.650291,"longitude":-74.294395,"name":"CollegeConvo","category_code":"web","number_of_employees":2}],"num_offices":2,"ratio":100.0}
{"index":7,"city":"Bethesda","country_code":"USA","latitude":38.989124,"longitude":-77.026676,"name":"Carfeine","category_code":"software","founded_year":2012,"number_of_employees":5,"coordenadas":[-77.026676,38.989124],"cercanas":[{"city":"Bethesda","latitude":38.989124,"longitude":-77.026676,"name":"Carfeine","category_code":"software","number_of_employees":5}],"num_offices":1,"ratio":100.0}
{"index":8,"city":"Palo Alto","country_code":"USA","latitude":37.4440981,"longitude":-122.1612868,"name":"Ziippi","category_code":"web","founded_year":2011,"number_of_employees":6,"coordenadas":[-122.1612868,37.4440981],"cercanas":[{"city":"Palo Alto","latitude":37.4440981,"longitude":-122.1612868,"name":"Ziippi","category_code":"web","number_of_employees":6}],"num_offices":1,"ratio":100.0}
{"index":9,"city":"Santa Monica","country_code":"USA","latitude":53.544711,"longitude":-113.515769,"name":"Titan Gaming","category_code":"games_video","founded_year":2010,"number_of_employees":18,"coordenadas":[-113.515769,53.544711],"cercanas":[{"city":"Santa Monica","latitude":53.544711,"longitude":-113.515769,"name":"Titan Gaming","category_code":"games_video","number_of_employees":18}],"num_offices":1,"ratio":100.0}
{"index":10,"city":"Vancouver","country_code":"CAN","latitude":49.263588,"longitude":-123.138565,"name":"Pixelmatic","category_code":"games_video","founded_year":2011,"number_of_employees":10,"coordenadas":[-123.138565,49.263588],"cercanas":[{"city":"Vancouver","latitude":49.263588,"longitude":-123.138565,"name":"Pixelmatic","category_code":"games_video","number_of_employees":10},{"city":"Vancouver","latitude":49.285941,"longitude":-123.120292,"name":"Absolute Software","category_code":"software","number_of_employees":300}],"num_offices":2,"ratio":1.0}
{"index":12,"city":"Chicago","country_code":"USA","latitude":41.857204,"longitude":-87.623923,"name":"JumpForward","category_code":"software","founded_year":2010,"number_of_employees":30,"coordenadas":[-87.623923,41.857204],"cercanas":[{"city":"Chicago","latitude":41.857204,"longitude":-87.623923,"name":"JumpForward","category_code":"software","number_of_employees":30},{"city":"Chicago","latitude":41.8806258,"longitude":-87.6356066,"name":"optionsXpress","category_code":"software","number_of_employees":305}],"num_offices":2,"ratio":1.0}
{"index":13,"city":"Jacksonville","country_code":"USA","latitude":30.26955,"longitude":-81.564709,"name":"N-Play","category_code":"social","founded_year":2011,"number_of_employees":25,"coordenadas":[-81.564709,30.26955],"cercanas":[{"city":"Jacksonville","latitude":30.26955,"longitude":-81.564709,"name":"N-Play","category_code":"social","number_of_employees":25}],"num_offices":1,"ratio":100.0}
{"index":17,"city":"Maarssen","country_code":"NLD","latitude":52.126616,"longitude":5.038078,"name":"Navara","category_code":"software","founded_year":2012,"number_of_employees":80,"coordenadas":[5.038078,52.126616],"cercanas":[{"city":"Maarssen","latitude":52.126616,"longitude":5.038078,"name":"Navara","category_code":"software","number_of_employees":80}],"num_offices":1,"ratio":100.0}
{"index":18,"city":"New York","country_code":"USA","latitude":40.744618,"longitude":-73.987764,"name":"Yipit","category_code":"web","founded_year":2010,"number_of_employees":23,"coordenadas":[-73.987764,40.744618],"cercanas":[{"city":"New York","latitude":40.744618,"longitude":-73.987764,"name":"Yipit","category_code":"web","number_of_employees":23},{"city":"New York","latitude":40.7557162,"longitude":-73.9792469,"name":"Facebook","category_code":"social","number_of_employees":5299},{"city":"New York","latitude":40.74222,"longitude":-74.004489,"name":"Google","category_code":"search","number_of_employees":28000},{"city":"New York","latitude":40.7418877,"longitude":-74.0047466,"name":"MLB Advanced Media","category_code":"web","number_of_employees":600},{"city":"New York","latitude":40.757929,"longitude":-73.985506,"name":"PeekYou","category_code":"search","number_of_employees":20},{"city":"New York","latitude":40.7645772,"longitude":-73.9799007,"name":"Unison Technologies","category_code":"software","number_of_employees":30}],"num_offices":6,"ratio":1.0}
{"index":19,"city":"Manchester","country_code":"GBR","latitude":53.4837067,"longitude":-2.2439492,"name":"Clowdy","category_code":"web","founded_year":2013,"number_of_employees":11,"coordenadas":[-2.2439492,53.4837067],"cercanas":[{"city":"Manchester","latitude":53.4837067,"longitude":-2.2439492,"name":"Clowdy","category_code":"web","number_of_employees":11},{"city":"Manchester","latitude":53.473606,"longitude":-2.250166,"name":"Google","category_code":"search","number_of_employees":28000}],"num_offices":2,"ratio":1.0}
{"index":20,"city":"New York","country_code":"USA","latitude":40.7645772,"longitude":-73.9799007,"name":"Unison Technologies","category_code":"software","founded_year":2011,"number_of_employees":30,"coordenadas":[-73.9799007,40.7645772],"cercanas":[{"city":"New York","latitude":40.7645772,"longitude":-73.9799007,"name":"Unison Technologies","category_code":"software","number_of_employees":30},{"city":"New York","latitude":40.757929,"longitude":-73.985506,"name":"PeekYou","category_code":"search","number_of_employees":20},{"city":"New York","latitude":40.7557162,"longitude":-73.9792469,"name":"Facebook","category_code":"social","number_of_employees":5299},{"city":"New York","latitude":40.744618,"longitude":-73.987764,"name":"Yipit","category_code":"web","number_of_employees":23}],"num_offices":4,"ratio":0.3333333333}
{"index":21,"city":"Barcelona","country_code":"ESP","latitude":41.4241228,"longitude":2.1634249,"name":"Tengaged","category_code":"games_video","founded_year":2010,"number_of_employees":1,"coordenadas":[2.1634249,41.4241228],"cercanas":[{"city":"Barcelona","latitude":41.4241228,"longitude":2.1634249,"name":"Tengaged","category_code":"games_video","number_of_employees":1}],"num_offices":1,"ratio":100.0}
{"index":22,"city":"Pompano Beach","country_code":"USA","latitude":26.2480738,"longitude":-80.135487,"name":"Reachoo","category_code":"software","founded_year":2010,"number_of_employees":3,"coordenadas":[-80.135487,26.2480738],"cercanas":[{"city":"Pompano Beach","latitude":26.2480738,"longitude":-80.135487,"name":"Reachoo","category_code":"software","number_of_employees":3}],"num_offices":1,"ratio":100.0}
{"index":23,"city":"San Francisco","country_code":"USA","latitude":37.8053241,"longitude":-122.4052761,"name":"Indee","category_code":"games_video","founded_year":2010,"number_of_employees":3,"coordenadas":[-122.4052761,37.8053241],"cercanas":[{"city":"San Francisco","latitude":37.8053241,"longitude":-122.4052761,"name":"Indee","category_code":"games_video","number_of_employees":3},{"city":"San Francisco","latitude":37.793949,"longitude":-122.398062,"name":"Embarcadero Technologies","category_code":"software","number_of_employees":450},{"city":"San Francisco","latitude":37.793819,"longitude":-122.395089,"name":"ThoughtWorks Studios","category_code":"software","number_of_employees":1100},{"city":"San Francisco","latitude":37.7909427,"longitude":-122.4084994,"name":"Dropbox","category_code":"software","number_of_employees":350},{"city":"San Francisco","latitude":37.789318,"longitude":-122.400655,"name":"Calypso Technology","category_code":"software","number_of_employees":386},{"city":"San Francisco","latitude":37.791575,"longitude":-122.39339,"name":"Kaseya","category_code":"software","number_of_employees":400},{"city":"San Francisco","latitude":37.7892685,"longitude":-122.3951844,"name":"Riverbed Technology","category_code":"software","number_of_employees":1000},{"city":"San Francisco","latitude":37.786183,"longitude":-122.402195,"name":"Yelp","category_code":"search","number_of_employees":800},{"city":"San Francisco","latitude":37.785647,"longitude":-122.405265,"name":"OpenTable","category_code":"web","number_of_employees":550},{"city":"San Francisco","latitude":37.789803,"longitude":-122.389757,"name":"Google","category_code":"search","number_of_employees":28000},{"city":"San Francisco","latitude":37.7819286,"longitude":-122.4041764,"name":"Globant","category_code":"software","number_of_employees":2800},{"city":"San Francisco","latitude":37.7814765,"longitude":-122.4013217,"name":"UCWeb","category_code":"software","number_of_employees":1700},{"city":"San Francisco","latitude":37.78274,"longitude":-122.390945,"name":"Splunk","category_code":"software","number_of_employees":500}],"num_offices":13,"ratio":12.0}
{"index":24,"city":"Van Nuys","country_code":"USA","latitude":40.650291,"longitude":-74.294395,"name":"eCampusCash","category_code":"web","founded_year":2010,"number_of_employees":3,"coordenadas":[-74.294395,40.650291],"cercanas":[{"city":"Van Nuys","latitude":40.650291,"longitude":-74.294395,"name":"eCampusCash","category_code":"web","number_of_employees":3},{"city":"Van Nuys","latitude":40.650291,"longitude":-74.294395,"name":"CollegeConvo","category_code":"web","number_of_employees":2}],"num_offices":2,"ratio":100.0}
{"index":25,"city":"Sarasota","country_code":"USA","latitude":27.4081935,"longitude":-82.5294065,"name":"kinDragon","category_code":"software","founded_year":2010,"number_of_employees":1,"coordenadas":[-82.5294065,27.4081935],"cercanas":[{"city":"Sarasota","latitude":27.4081935,"longitude":-82.5294065,"name":"kinDragon","category_code":"software","number_of_employees":1}],"num_offices":1,"ratio":100.0}
{"index":26,"city":"Fremont","country_code":"USA","latitude":37.5561712,"longitude":-122.0780632,"name":"BASH Gaming","category_code":"games_video","founded_year":2010,"number_of_employees":25,"coordenadas":[-122.0780632,37.5561712],"cercanas":[{"city":"Fremont","latitude":37.5561712,"longitude":-122.0780632,"name":"BASH Gaming","category_code":"games_video","number_of_employees":25}],"num_offices":1,"ratio":100.0}
{"index":27,"city":"Bangalore","country_code":"IND","latitude":12.971606,"longitude":77.594376,"name":"BASH Gaming","category_code":"games_video","founded_year":2010,"number_of_employees":25,"coordenadas":[77.594376,12.971606],"cercanas":[{"city":"Bangalore","latitude":12.971606,"longitude":77.594376,"name":"BASH Gaming","category_code":"games_video","number_of_employees":25}],"num_offices":1,"ratio":100.0}
{"index":29,"city":"Columbia","country_code":"USA","latitude":34.019114,"longitude":-81.004871,"name":"Hayen Company","category_code":"games_video","founded_year":2011,"number_of_employees":1,"coordenadas":[-81.004871,34.019114],"cercanas":[{"city":"Columbia","latitude":34.019114,"longitude":-81.004871,"name":"Hayen Company","category_code":"games_video","number_of_employees":1}],"num_offices":1,"ratio":100.0}
{"index":34,"city":"Queensland","country_code":"AUS","latitude":-27.4574861,"longitude":153.033686,"name":"ekidnaworld","category_code":"games_video","founded_year":2010,"number_of_employees":10,"coordenadas":[153.033686,-27.4574861],"cercanas":[{"city":"Queensland","latitude":-27.4574861,"longitude":153.033686,"name":"ekidnaworld","category_code":"games_video","number_of_employees":10}],"num_offices":1,"ratio":100.0}
{"index":0,"city":"Menlo Park","country_code":"USA","latitude":37.41605,"longitude":-122.151801,"name":"Facebook","category_code":"social","founded_year":2004,"number_of_employees":5299,"coordenadas":[-122.151801,37.41605],"cercanas":[{"city":"Menlo Park","latitude":37.41605,"longitude":-122.151801,"name":"Facebook","category_code":"social","number_of_employees":5299},{"city":"Palo Alto","latitude":37.403315,"longitude":-122.145981,"name":"VMware","category_code":"software","number_of_employees":13500}],"num_offices":2,"ratio":100.0}
{"index":1,"city":"Dublin","country_code":"IRL","latitude":53.344104,"longitude":-6.267494,"name":"Facebook","category_code":"social","founded_year":2004,"number_of_employees":5299,"coordenadas":[-6.267494,53.344104],"cercanas":[{"city":"Dublin","latitude":53.344104,"longitude":-6.267494,"name":"Facebook","category_code":"social","number_of_employees":5299},{"city":"Dun Laoghaire","latitude":53.342689,"longitude":-6.2644783,"name":"Central Reservations","category_code":"web","number_of_employees":510},{"city":"Dublin","latitude":53.339914,"longitude":-6.234424,"name":"Google","category_code":"search","number_of_employees":28000}],"num_offices":3,"ratio":100.0}
{"index":2,"city":"New York","country_code":"USA","latitude":40.7557162,"longitude":-73.9792469,"name":"Facebook","category_code":"social","founded_year":2004,"number_of_employees":5299,"coordenadas":[-73.9792469,40.7557162],"cercanas":[{"city":"New York","latitude":40.7557162,"longitude":-73.9792469,"name":"Facebook","category_code":"social","number_of_employees":5299},{"city":"New York","latitude":40.757929,"longitude":-73.985506,"name":"PeekYou","category_code":"search","number_of_employees":20},{"city":"New York","latitude":40.7645772,"longitude":-73.9799007,"name":"Unison Technologies","category_code":"software","number_of_employees":30},{"city":"New York","latitude":40.744618,"longitude":-73.987764,"name":"Yipit","category_code":"web","number_of_employees":23},{"city":"New York","latitude":40.74222,"longitude":-74.004489,"name":"Google","category_code":"search","number_of_employees":28000},{"city":"New York","latitude":40.7418877,"longitude":-74.0047466,"name":"MLB Advanced Media","category_code":"web","number_of_employees":600}],"num_offices":6,"ratio":1.0}
{"index":3,"city":"San Francisco","country_code":"USA","latitude":37.7768052,"longitude":-122.4169244,"name":"Twitter","category_code":"social","founded_year":2006,"number_of_employees":1300,"coordenadas":[-122.4169244,37.7768052],"cercanas":[{"city":"San Francisco","latitude":37.7768052,"longitude":-122.4169244,"name":"Twitter","category_code":"social","number_of_employees":1300},{"city":"San Francisco","latitude":37.7819286,"longitude":-122.4041764,"name":"Globant","category_code":"software","number_of_employees":2800},{"city":"San Francisco","latitude":37.785647,"longitude":-122.405265,"name":"OpenTable","category_code":"web","number_of_employees":550},{"city":"San Francisco","latitude":37.766909,"longitude":-122.406676,"name":"Trulia","category_code":"search","number_of_employees":500},{"city":"San Francisco","latitude":37.7814765,"longitude":-122.4013217,"name":"UCWeb","category_code":"software","number_of_employees":1700},{"city":"San Francisco","latitude":37.786183,"longitude":-122.402195,"name":"Yelp","category_code":"search","number_of_employees":800},{"city":"San Francisco","latitude":37.7909427,"longitude":-122.4084994,"name":"Dropbox","category_code":"software","number_of_employees":350},{"city":"San Francisco","latitude":37.789318,"longitude":-122.400655,"name":"Calypso Technology","category_code":"software","number_of_employees":386},{"city":"San Francisco","latitude":37.7892685,"longitude":-122.3951844,"name":"Riverbed Technology","category_code":"software","number_of_employees":1000},{"city":"San Francisco","latitude":37.78274,"longitude":-122.390945,"name":"Splunk","category_code":"software","number_of_employees":500},{"city":"San Francisco","latitude":37.793949,"longitude":-122.398062,"name":"Embarcadero Technologies","category_code":"software","number_of_employees":450},{"city":"San Francisco","latitude":37.791575,"longitude":-122.39339,"name":"Kaseya","category_code":"software","number_of_employees":400},{"city":"San Francisco","latitude":37.793819,"longitude":-122.395089,"name":"ThoughtWorks Studios","category_code":"software","number_of_employees":1100},{"city":"San Francisco","latitude":37.789803,"longitude":-122.389757,"name":"Google","category_code":"search","number_of_employees":28000}],"num_offices":14,"ratio":100.0}
{"index":4,"city":"San Jose","country_code":"USA","latitude":37.295005,"longitude":-121.930035,"name":"eBay","category_code":"web","founded_year":1995,"number_of_employees":15000,"coordenadas":[-121.930035,37.295005],"cercanas":[{"city":"San Jose","latitude":37.295005,"longitude":-121.930035,"name":"eBay","category_code":"web","number_of_employees":15000}],"num_offices":1,"ratio":100.0}
{"index":5,"city":"San Francisco","country_code":"USA","latitude":37.786183,"longitude":-122.402195,"name":"Yelp","category_code":"search","founded_year":2004,"number_of_employees":800,"coordenadas":[-122.402195,37.786183],"cercanas":[{"city":"San Francisco","latitude":37.786183,"longitude":-122.402195,"name":"Yelp","category_code":"search","number_of_employees":800},{"city":"San Francisco","latitude":37.785647,"longitude":-122.405265,"name":"OpenTable","category_code":"web","number_of_employees":550},{"city":"San Francisco","latitude":37.789318,"longitude":-122.400655,"name":"Calypso Technology","category_code":"software","number_of_employees":386},{"city":"San Francisco","latitude":37.7819286,"longitude":-122.4041764,"name":"Globant","category_code":"software","number_of_employees":2800},{"city":"San Francisco","latitude":37.7814765,"longitude":-122.4013217,"name":"UCWeb","category_code":"software","number_of_employees":1700},{"city":"San Francisco","latitude":37.7892685,"longitude":-122.3951844,"name":"Riverbed Technology","category_code":"software","number_of_employees":1000},{"city":"San Francisco","latitude":37.7909427,"longitude":-122.4084994,"name":"Dropbox","category_code":"software","number_of_employees":350},{"city":"San Francisco","latitude":37.793949,"longitude":-122.398062,"name":"Embarcadero Technologies","category_code":"software","number_of_employees":450},{"city":"San Francisco","latitude":37.791575,"longitude":-122.39339,"name":"Kaseya","category_code":"software","number_of_employees":400},{"city":"San Francisco","latitude":37.793819,"longitude":-122.395089,"name":"ThoughtWorks Studios","category_code":"software","number_of_employees":1100},{"city":"San Francisco","latitude":37.78274,"longitude":-122.390945,"name":"Splunk","category_code":"software","number_of_employees":500},{"city":"San Francisco","latitude":37.789803,"longitude":-122.389757,"name":"Google","category_code":"search","number_of_employees":28000},{"city":"San Francisco","latitude":37.7768052,"longitude":-122.4169244,"name":"Twitter","category_code":"social","number_of_employees":1300},{"city":"San Francisco","latitude":37.8053241,"longitude":-122.4052761,"name":"Indee","category_code":"games_video","number_of_employees":3},{"city":"San Francisco","latitude":37.766909,"longitude":-122.406676,"name":"Trulia","category_code":"search","number_of_employees":500}],"num_offices":15,"ratio":14.0}
{"index":6,"city":"Sunnyvale","country_code":"USA","latitude":37.418531,"longitude":-122.025485,"name":"Yahoo!","category_code":"web","founded_year":1994,"number_of_employees":13600,"coordenadas":[-122.025485,37.418531],"cercanas":[{"city":"Sunnyvale","latitude":37.418531,"longitude":-122.025485,"name":"Yahoo!","category_code":"web","number_of_employees":13600}],"num_offices":1,"ratio":100.0}
{"index":7,"city":"Mountain View","country_code":"USA","latitude":37.423258,"longitude":-122.073635,"name":"LinkedIn","category_code":"social","founded_year":2003,"number_of_employees":4800,"coordenadas":[-122.073635,37.423258],"cercanas":[{"city":"Mountain View","latitude":37.423258,"longitude":-122.073635,"name":"LinkedIn","category_code":"social","number_of_employees":4800},{"city":"Mountain View","latitude":37.421972,"longitude":-122.084143,"name":"Google","category_code":"search","number_of_employees":28000},{"city":"Mountain View","latitude":37.418491,"longitude":-122.08744,"name":"Mozilla","category_code":"web","number_of_employees":800}],"num_offices":3,"ratio":100.0}
{"index":8,"city":"Mountain View","country_code":"USA","latitude":37.421972,"longitude":-122.084143,"name":"Google","category_code":"search","founded_year":1998,"number_of_employees":28000,"coordenadas":[-122.084143,37.421972],"cercanas":[{"city":"Mountain View","latitude":37.421972,"longitude":-122.084143,"name":"Google","category_code":"search","number_of_employees":28000},{"city":"Mountain View","latitude":37.418491,"longitude":-122.08744,"name":"Mozilla","category_code":"web","number_of_employees":800},{"city":"Mountain View","latitude":37.423258,"longitude":-122.073635,"name":"LinkedIn","category_code":"social","number_of_employees":4800}],"num_offices":3,"ratio":100.0}
{"index":9,"city":"Ann Arbor","country_code":"USA","latitude":42.280988,"longitude":-83.748882,"name":"Google","category_code":"search","founded_year":1998,"number_of_employees":28000,"coordenadas":[-83.748882,42.280988],"cercanas":[{"city":"Ann Arbor","latitude":42.280988,"longitude":-83.748882,"name":"Google","category_code":"search","number_of_employees":28000}],"num_offices":1,"ratio":100.0}
{"index":10,"city":"Atlanta","country_code":"USA","latitude":33.781466,"longitude":-84.387519,"name":"Google","category_code":"search","founded_year":1998,"number_of_employees":28000,"coordenadas":[-84.387519,33.781466],"cercanas":[{"city":"Atlanta","latitude":33.781466,"longitude":-84.387519,"name":"Google","category_code":"search","number_of_employees":28000}],"num_offices":1,"ratio":100.0}
{"index":11,"city":"Austin","country_code":"USA","latitude":30.351416,"longitude":-97.751382,"name":"Google","category_code":"search","founded_year":1998,"number_of_employees":28000,"coordenadas":[-97.751382,30.351416],"cercanas":[{"city":"Austin","latitude":30.351416,"longitude":-97.751382,"name":"Google","category_code":"search","number_of_employees":28000}],"num_offices":1,"ratio":100.0}
{"index":12,"city":"Boulder","country_code":"USA","latitude":40.021416,"longitude":-105.260931,"name":"Google","category_code":"search","founded_year":1998,"number_of_employees":28000,"coordenadas":[-105.260931,40.021416],"cercanas":[{"city":"Boulder","latitude":40.021416,"longitude":-105.260931,"name":"Google","category_code":"search","number_of_employees":28000},{"city":"Boulder","latitude":40.020421,"longitude":-105.236011,"name":"MD-IT","category_code":"software","number_of_employees":1000}],"num_offices":2,"ratio":100.0}
{"index":13,"city":"Cambridge","country_code":"USA","latitude":42.36305,"longitude":-71.087478,"name":"Google","category_code":"search","founded_year":1998,"number_of_employees":28000,"coordenadas":[-71.087478,42.36305],"cercanas":[{"city":"Cambridge","latitude":42.36305,"longitude":-71.087478,"name":"Google","category_code":"search","number_of_employees":28000},{"city":"Cambridge","latitude":42.375392,"longitude":-71.118487,"name":"HubSpot","category_code":"software","number_of_employees":650}],"num_offices":2,"ratio":100.0}
{"index":14,"city":"Chicago","country_code":"USA","latitude":41.889474,"longitude":-87.628912,"name":"Google","category_code":"search","founded_year":1998,"number_of_employees":28000,"coordenadas":[-87.628912,41.889474],"cercanas":[{"city":"Chicago","latitude":41.889474,"longitude":-87.628912,"name":"Google","category_code":"search","number_of_employees":28000},{"city":"Chicago","latitude":41.8806258,"longitude":-87.6356066,"name":"optionsXpress","category_code":"software","number_of_employees":305},{"city":"Chicago","latitude":41.8965162,"longitude":-87.643622,"name":"Groupon","category_code":"web","number_of_employees":10000}],"num_offices":3,"ratio":100.0}
{"index":15,"city":"Coppell","country_code":"USA","latitude":32.981465,"longitude":-97.018196,"name":"Google","category_code":"search","founded_year":1998,"number_of_employees":28000,"coordenadas":[-97.018196,32.981465],"cercanas":[{"city":"Coppell","latitude":32.981465,"longitude":-97.018196,"name":"Google","category_code":"search","number_of_employees":28000}],"num_offices":1,"ratio":100.0}
{"index":16,"city":"Dallas","country_code":"USA","latitude":32.809161,"longitude":-96.807693,"name":"Google","category_code":"search","founded_year":1998,"number_of_employees":28000,"coordenadas":[-96.807693,32.809161],"cercanas":[{"city":"Dallas","latitude":32.809161,"longitude":-96.807693,"name":"Google","category_code":"search","number_of_employees":28000}],"num_offices":1,"ratio":100.0}
{"index":17,"city":"Denver","country_code":"USA","latitude":39.62919,"longitude":-104.898419,"name":"Google","category_code":"search","founded_year":1998,"number_of_employees":28000,"coordenadas":[-104.898419,39.62919],"cercanas":[{"city":"Denver","latitude":39.62919,"longitude":-104.898419,"name":"Google","category_code":"search","number_of_employees":28000}],"num_offices":1,"ratio":100.0}
{"index":18,"city":"Birmingham","country_code":"USA","latitude":42.547807,"longitude":-83.215498,"name":"Google","category_code":"search","founded_year":1998,"number_of_employees":28000,"coordenadas":[-83.215498,42.547807],"cercanas":[{"city":"Birmingham","latitude":42.547807,"longitude":-83.215498,"name":"Google","category_code":"search","number_of_employees":28000}],"num_offices":1,"ratio":100.0}
{"index":19,"city":"Irvine","country_code":"USA","latitude":33.658331,"longitude":-117.861817,"name":"Google","category_code":"search","founded_year":1998,"number_of_employees":28000,"coordenadas":[-117.861817,33.658331],"cercanas":[{"city":"Irvine","latitude":33.658331,"longitude":-117.861817,"name":"Google","category_code":"search","number_of_employees":28000}],"num_offices":1,"ratio":100.0}
{"index":21,"city":"New York","country_code":"USA","latitude":40.74222,"longitude":-74.004489,"name":"Google","category_code":"search","founded_year":1998,"number_of_employees":28000,"coordenadas":[-74.004489,40.74222],"cercanas":[{"city":"New York","latitude":40.74222,"longitude":-74.004489,"name":"Google","category_code":"search","number_of_employees":28000},{"city":"New York","latitude":40.7418877,"longitude":-74.0047466,"name":"MLB Advanced Media","category_code":"web","number_of_employees":600},{"city":"New York","latitude":40.744618,"longitude":-73.987764,"name":"Yipit","category_code":"web","number_of_employees":23},{"city":"New York","latitude":40.757929,"longitude":-73.985506,"name":"PeekYou","category_code":"search","number_of_employees":20},{"city":"New York","latitude":40.7557162,"longitude":-73.9792469,"name":"Facebook","category_code":"social","number_of_employees":5299}],"num_offices":5,"ratio":1.5}
{"index":22,"city":"Tempe","country_code":"USA","latitude":33.411898,"longitude":-111.926263,"name":"Google","category_code":"search","founded_year":1998,"number_of_employees":28000,"coordenadas":[-111.926263,33.411898],"cercanas":[{"city":"Tempe","latitude":33.411898,"longitude":-111.926263,"name":"Google","category_code":"search","number_of_employees":28000}],"num_offices":1,"ratio":100.0}
{"index":23,"city":"Pittsburgh","country_code":"USA","latitude":40.444528,"longitude":-79.946269,"name":"Google","category_code":"search","founded_year":1998,"number_of_employees":28000,"coordenadas":[-79.946269,40.444528],"cercanas":[{"city":"Pittsburgh","latitude":40.444528,"longitude":-79.946269,"name":"Google","category_code":"search","number_of_employees":28000}],"num_offices":1,"ratio":100.0}
{"index":24,"city":"San Francisco","country_code":"USA","latitude":37.789803,"longitude":-122.389757,"name":"Google","category_code":"search","founded_year":1998,"number_of_employees":28000,"coordenadas":[-122.389757,37.789803],"cercanas":[{"city":"San Francisco","latitude":37.789803,"longitude":-122.389757,"name":"Google","category_code":"search","number_of_employees":28000},{"city":"San Francisco","latitude":37.791575,"longitude":-122.39339,"name":"Kaseya","category_code":"software","number_of_employees":400},{"city":"San Francisco","latitude":37.7892685,"longitude":-122.3951844,"name":"Riverbed Technology","category_code":"software","number_of_employees":1000},{"city":"San Francisco","latitude":37.793819,"longitude":-122.395089,"name":"ThoughtWorks Studios","category_code":"software","number_of_employees":1100},{"city":"San Francisco","latitude":37.78274,"longitude":-122.390945,"name":"Splunk","category_code":"software","number_of_employees":500},{"city":"San Francisco","latitude":37.793949,"longitude":-122.398062,"name":"Embarcadero Technologies","category_code":"software","number_of_employees":450},{"city":"San Francisco","latitude":37.789318,"longitude":-122.400655,"name":"Calypso Technology","category_code":"software","number_of_employees":386},{"city":"San Francisco","latitude":37.786183,"longitude":-122.402195,"name":"Yelp","category_code":"search","number_of_employees":800},{"city":"San Francisco","latitude":37.7814765,"longitude":-122.4013217,"name":"UCWeb","category_code":"software","number_of_employees":1700},{"city":"San Francisco","latitude":37.785647,"longitude":-122.405265,"name":"OpenTable","category_code":"web","number_of_employees":550},{"city":"San Francisco","latitude":37.7819286,"longitude":-122.4041764,"name":"Globant","category_code":"software","number_of_employees":2800},{"city":"San Francisco","latitude":37.7909427,"longitude":-122.4084994,"name":"Dropbox","category_code":"software","number_of_employees":350},{"city":"San Francisco","latitude":37.8053241,"longitude":-122.4052761,"name":"Indee","category_code":"games_video","number_of_employees":3},{"city":"San Francisco","latitude":37.7768052,"longitude":-122.4169244,"name":"Twitter","category_code":"social","number_of_employees":1300},{"city":"San Francisco","latitude":37.766909,"longitude":-122.406676,"name":"Trulia","category_code":"search","number_of_employees":500}],"num_offices":15,"ratio":14.0}
{"index":25,"city":"Santa Monica","country_code":"USA","latitude":34.019282,"longitude":-118.494288,"name":"Google","category_code":"search","founded_year":1998,"number_of_employees":28000,"coordenadas":[-118.494288,34.019282],"cercanas":[{"city":"Santa Monica","latitude":34.019282,"longitude":-118.494288,"name":"Google","category_code":"search","number_of_employees":28000},{"city":"Santa Monica","latitude":34.028182,"longitude":-118.472577,"name":"Cornerstone OnDemand","category_code":"software","number_of_employees":881}],"num_offices":2,"ratio":100.0}
{"index":26,"city":"Seattle","country_code":"USA","latitude":47.675326,"longitude":-122.351397,"name":"Google","category_code":"search","founded_year":1998,"number_of_employees":28000,"coordenadas":[-122.351397,47.675326],"cercanas":[{"city":"Seattle","latitude":47.675326,"longitude":-122.351397,"name":"Google","category_code":"search","number_of_employees":28000},{"city":"Seattle","latitude":47.649701,"longitude":-122.350592,"name":"Google","category_code":"search","number_of_employees":28000}],"num_offices":2,"ratio":100.0}
{"index":27,"city":"Seattle","country_code":"USA","latitude":47.649701,"longitude":-122.350592,"name":"Google","category_code":"search","founded_year":1998,"number_of_employees":28000,"coordenadas":[-122.350592,47.649701],"cercanas":[{"city":"Seattle","latitude":47.649701,"longitude":-122.350592,"name":"Google","category_code":"search","number_of_employees":28000},{"city":"Seattle","latitude":47.675326,"longitude":-122.351397,"name":"Google","category_code":"search","number_of_employees":28000}],"num_offices":2,"ratio":100.0}
{"index":28,"city":"Washington","country_code":"USA","latitude":38.901113,"longitude":-77.027101,"name":"Google","category_code":"search","founded_year":1998,"number_of_employees":28000,"coordenadas":[-77.027101,38.901113],"cercanas":[{"city":"Washington","latitude":38.901113,"longitude":-77.027101,"name":"Google","category_code":"search","number_of_employees":28000}],"num_offices":1,"ratio":100.0}
{"index":29,"city":"Melbourne","country_code":"AUS","latitude":-37.879234,"longitude":145.073608,"name":"Google","category_code":"search","founded_year":1998,"number_of_employees":28000,"coordenadas":[145.073608,-37.879234],"cercanas":[{"city":"Melbourne","latitude":-37.879234,"longitude":145.073608,"name":"Google","category_code":"search","number_of_employees":28000}],"num_offices":1,"ratio":100.0}
{"index":30,"city":"Sydney","country_code":"AUS","latitude":-34.822723,"longitude":138.612396,"name":"Google","category_code":"search","founded_year":1998,"number_of_employees":28000,"coordenadas":[138.612396,-34.822723],"cercanas":[{"city":"Sydney","latitude":-34.822723,"longitude":138.612396,"name":"Google","category_code":"search","number_of_employees":28000}],"num_offices":1,"ratio":100.0}
{"index":37,"city":"New Delhi","country_code":"IND","latitude":28.86999,"longitude":77.122261,"name":"Google","category_code":"search","founded_year":1998,"number_of_employees":28000,"coordenadas":[77.122261,28.86999],"cercanas":[{"city":"New Delhi","latitude":28.86999,"longitude":77.122261,"name":"Google","category_code":"search","number_of_employees":28000}],"num_offices":1,"ratio":100.0}
{"index":45,"city":"","country_code":"DNK","latitude":56.171882,"longitude":10.187799,"name":"Google","category_code":"search","founded_year":1998,"number_of_employees":28000,"coordenadas":[10.187799,56.171882],"cercanas":[{"city":"","latitude":56.171882,"longitude":10.187799,"name":"Google","category_code":"search","number_of_employees":28000}],"num_offices":1,"ratio":100.0}
{"index":48,"city":"Paris","country_code":"FRA","latitude":48.869606,"longitude":2.332749,"name":"Google","category_code":"search","founded_year":1998,"number_of_employees":28000,"coordenadas":[2.332749,48.869606],"cercanas":[{"city":"Paris","latitude":48.869606,"longitude":2.332749,"name":"Google","category_code":"search","number_of_employees":28000},{"city":"Paris","latitude":48.8747064,"longitude":2.3304161,"name":"Viadeo","category_code":"social","number_of_employees":400}],"num_offices":2,"ratio":100.0}
{"index":49,"city":"Hamburg","country_code":"DEU","latitude":53.554052,"longitude":9.985266,"name":"Google","category_code":"search","founded_year":1998,"number_of_employees":28000,"coordenadas":[9.985266,53.554052],"cercanas":[{"city":"Hamburg","latitude":53.554052,"longitude":9.985266,"name":"Google","category_code":"search","number_of_employees":28000}],"num_offices":1,"ratio":100.0}
{"index":50,"city":"Dublin","country_code":"IRL","latitude":53.339914,"longitude":-6.234424,"name":"Google","category_code":"search","founded_year":1998,"number_of_employees":28000,"coordenadas":[-6.234424,53.339914],"cercanas":[{"city":"Dublin","latitude":53.339914,"longitude":-6.234424,"name":"Google","category_code":"search","number_of_employees":28000},{"city":"Dun Laoghaire","latitude":53.342689,"longitude":-6.2644783,"name":"Central Reservations","category_code":"web","number_of_employees":510},{"city":"Dublin","latitude":53.344104,"longitude":-6.267494,"name":"Facebook","category_code":"social","number_of_employees":5299}],"num_offices":3,"ratio":100.0}
{"index":51,"city":"Milan","country_code":"ITA","latitude":45.46381,"longitude":9.195978,"name":"Google","category_code":"search","founded_year":1998,"number_of_employees":28000,"coordenadas":[9.195978,45.46381],"cercanas":[{"city":"Milan","latitude":45.46381,"longitude":9.195978,"name":"Google","category_code":"search","number_of_employees":28000}],"num_offices":1,"ratio":100.0}
{"index":52,"city":"Amsterdam","country_code":"NLD","latitude":52.337495,"longitude":4.871464,"name":"Google","category_code":"search","founded_year":1998,"number_of_employees":28000,"coordenadas":[4.871464,52.337495],"cercanas":[{"city":"Amsterdam","latitude":52.337495,"longitude":4.871464,"name":"Google","category_code":"search","number_of_employees":28000}],"num_offices":1,"ratio":100.0}
{"index":53,"city":"Oslo","country_code":"NOR","latitude":59.915848,"longitude":10.741047,"name":"Google","category_code":"search","founded_year":1998,"number_of_employees":28000,"coordenadas":[10.741047,59.915848],"cercanas":[{"city":"Oslo","latitude":59.915848,"longitude":10.741047,"name":"Google","category_code":"search","number_of_employees":28000}],"num_offices":1,"ratio":100.0}
{"index":54,"city":"Trondheim","country_code":"NOR","latitude":63.435324,"longitude":10.412428,"name":"Google","category_code":"search","founded_year":1998,"number_of_employees":28000,"coordenadas":[10.412428,63.435324],"cercanas":[{"city":"Trondheim","latitude":63.435324,"longitude":10.412428,"name":"Google","category_code":"search","number_of_employees":28000}],"num_offices":1,"ratio":100.0}
{"index":55,"city":"Krak\u00c3\u00b3w","country_code":"POL","latitude":50.063281,"longitude":19.929806,"name":"Google","category_code":"search","founded_year":1998,"number_of_employees":28000,"coordenadas":[19.929806,50.063281],"cercanas":[{"city":"Krak\u00c3\u00b3w","latitude":50.063281,"longitude":19.929806,"name":"Google","category_code":"search","number_of_employees":28000}],"num_offices":1,"ratio":100.0}
{"index":56,"city":"Wroclaw","country_code":"POL","latitude":51.116574,"longitude":17.041942,"name":"Google","category_code":"search","founded_year":1998,"number_of_employees":28000,"coordenadas":[17.041942,51.116574],"cercanas":[{"city":"Wroclaw","latitude":51.116574,"longitude":17.041942,"name":"Google","category_code":"search","number_of_employees":28000}],"num_offices":1,"ratio":100.0}
{"index":60,"city":"Lule\u00c3\u00a5","country_code":"SWE","latitude":65.617491,"longitude":22.126255,"name":"Google","category_code":"search","founded_year":1998,"number_of_employees":28000,"coordenadas":[22.126255,65.617491],"cercanas":[{"city":"Lule\u00c3\u00a5","latitude":65.617491,"longitude":22.126255,"name":"Google","category_code":"search","number_of_employees":28000}],"num_offices":1,"ratio":100.0}
{"index":61,"city":"Stockholm","country_code":"SWE","latitude":59.332344,"longitude":18.060162,"name":"Google","category_code":"search","founded_year":1998,"number_of_employees":28000,"coordenadas":[18.060162,59.332344],"cercanas":[{"city":"Stockholm","latitude":59.332344,"longitude":18.060162,"name":"Google","category_code":"search","number_of_employees":28000}],"num_offices":1,"ratio":100.0}
{"index":62,"city":"Z\u00c3\u00bcrich","country_code":"CHE","latitude":47.36554,"longitude":8.524864,"name":"Google","category_code":"search","founded_year":1998,"number_of_employees":28000,"coordenadas":[8.524864,47.36554],"cercanas":[{"city":"Z\u00c3\u00bcrich","latitude":47.36554,"longitude":8.524864,"name":"Google","category_code":"search","number_of_employees":28000}],"num_offices":1,"ratio":100.0}
{"index":64,"city":"Manchester","country_code":"GBR","latitude":53.473606,"longitude":-2.250166,"name":"Google","category_code":"search","founded_year":1998,"number_of_employees":28000,"coordenadas":[-2.250166,53.473606],"cercanas":[{"city":"Manchester","latitude":53.473606,"longitude":-2.250166,"name":"Google","category_code":"search","number_of_employees":28000},{"city":"Manchester","latitude":53.4837067,"longitude":-2.2439492,"name":"Clowdy","category_code":"web","number_of_employees":11}],"num_offices":2,"ratio":1.0}
{"index":65,"city":"Montreal","country_code":"CAN","latitude":45.498588,"longitude":-73.567044,"name":"Google","category_code":"search","founded_year":1998,"number_of_employees":28000,"coordenadas":[-73.567044,45.498588],"cercanas":[{"city":"Montreal","latitude":45.498588,"longitude":-73.567044,"name":"Google","category_code":"search","number_of_employees":28000}],"num_offices":1,"ratio":100.0}
{"index":67,"city":"Waterloo","country_code":"CAN","latitude":43.474704,"longitude":-80.546381,"name":"Google","category_code":"search","founded_year":1998,"number_of_employees":28000,"coordenadas":[-80.546381,43.474704],"cercanas":[{"city":"Waterloo","latitude":43.474704,"longitude":-80.546381,"name":"Google","category_code":"search","number_of_employees":28000}],"num_offices":1,"ratio":100.0}
{"index":69,"city":"Sao Paulo","country_code":"BRA","latitude":-23.590463,"longitude":-46.681494,"name":"Google","category_code":"search","founded_year":1998,"number_of_employees":28000,"coordenadas":[-46.681494,-23.590463],"cercanas":[{"city":"Sao Paulo","latitude":-23.590463,"longitude":-46.681494,"name":"Google","category_code":"search","number_of_employees":28000}],"num_offices":1,"ratio":100.0}
{"index":70,"city":"Mexico","country_code":"MEX","latitude":19.507519,"longitude":-99.030156,"name":"Google","category_code":"search","founded_year":1998,"number_of_employees":28000,"coordenadas":[-99.030156,19.507519],"cercanas":[{"city":"Mexico","latitude":19.507519,"longitude":-99.030156,"name":"Google","category_code":"search","number_of_employees":28000}],"num_offices":1,"ratio":100.0}
{"index":75,"city":"Austin","country_code":"USA","latitude":30.407545,"longitude":-97.717667,"name":"Bazaarvoice","category_code":"software","founded_year":2005,"number_of_employees":600,"coordenadas":[-97.717667,30.407545],"cercanas":[{"city":"Austin","latitude":30.407545,"longitude":-97.717667,"name":"Bazaarvoice","category_code":"software","number_of_employees":600}],"num_offices":1,"ratio":100.0}
{"index":76,"city":"Woodbridge","country_code":"CAN","latitude":43.76969,"longitude":-79.549577,"name":"Webkinz","category_code":"web","founded_year":2005,"number_of_employees":8657,"coordenadas":[-79.549577,43.76969],"cercanas":[{"city":"Woodbridge","latitude":43.76969,"longitude":-79.549577,"name":"Webkinz","category_code":"web","number_of_employees":8657}],"num_offices":1,"ratio":100.0}
{"index":77,"city":"San Francisco","country_code":"USA","latitude":37.7909427,"longitude":-122.4084994,"name":"Dropbox","category_code":"software","founded_year":2007,"number_of_employees":350,"coordenadas":[-122.4084994,37.7909427],"cercanas":[{"city":"San Francisco","latitude":37.7909427,"longitude":-122.4084994,"name":"Dropbox","category_code":"software","number_of_employees":350},{"city":"San Francisco","latitude":37.785647,"longitude":-122.405265,"name":"OpenTable","category_code":"web","number_of_employees":550},{"city":"San Francisco","latitude":37.789318,"longitude":-122.400655,"name":"Calypso Technology","category_code":"software","number_of_employees":386},{"city":"San Francisco","latitude":37.786183,"longitude":-122.402195,"name":"Yelp","category_code":"search","number_of_employees":800},{"city":"San Francisco","latitude":37.793949,"longitude":-122.398062,"name":"Embarcadero Technologies","category_code":"software","number_of_employees":450},{"city":"San Francisco","latitude":37.7819286,"longitude":-122.4041764,"name":"Globant","category_code":"software","number_of_employees":2800},{"city":"San Francisco","latitude":37.7892685,"longitude":-122.3951844,"name":"Riverbed Technology","category_code":"software","number_of_employees":1000},{"city":"San Francisco","latitude":37.793819,"longitude":-122.395089,"name":"ThoughtWorks Studios","category_code":"software","number_of_employees":1100},{"city":"San Francisco","latitude":37.7814765,"longitude":-122.4013217,"name":"UCWeb","category_code":"software","number_of_employees":1700},{"city":"San Francisco","latitude":37.791575,"longitude":-122.39339,"name":"Kaseya","category_code":"software","number_of_employees":400},{"city":"San Francisco","latitude":37.8053241,"longitude":-122.4052761,"name":"Indee","category_code":"games_video","number_of_employees":3},{"city":"San Francisco","latitude":37.789803,"longitude":-122.389757,"name":"Google","category_code":"search","number_of_employees":28000},{"city":"San Francisco","latitude":37.7768052,"longitude":-122.4169244,"name":"Twitter","category_code":"social","number_of_employees":1300},{"city":"San Francisco","latitude":37.78274,"longitude":-122.390945,"name":"Splunk","category_code":"software","number_of_employees":500},{"city":"San Francisco","latitude":37.766909,"longitude":-122.406676,"name":"Trulia","category_code":"search","number_of_employees":500}],"num_offices":15,"ratio":14.0}
{"index":79,"city":"Waltham","country_code":"USA","latitude":42.38532,"longitude":-71.207055,"name":"ZoomInfo","category_code":"search","founded_year":2000,"number_of_employees":800,"coordenadas":[-71.207055,42.38532],"cercanas":[{"city":"Waltham","latitude":42.38532,"longitude":-71.207055,"name":"ZoomInfo","category_code":"search","number_of_employees":800}],"num_offices":1,"ratio":100.0}
{"index":80,"city":"Henderson","country_code":"USA","latitude":36.032976,"longitude":-115.064859,"name":"Zappos","category_code":"web","founded_year":1999,"number_of_employees":1500,"coordenadas":[-115.064859,36.032976],"cercanas":[{"city":"Henderson","latitude":36.032976,"longitude":-115.064859,"name":"Zappos","category_code":"web","number_of_employees":1500}],"num_offices":1,"ratio":100.0}
{"index":82,"city":"San Francisco","country_code":"USA","latitude":37.766909,"longitude":-122.406676,"name":"Trulia","category_code":"search","founded_year":2004,"number_of_employees":500,"coordenadas":[-122.406676,37.766909],"cercanas":[{"city":"San Francisco","latitude":37.766909,"longitude":-122.406676,"name":"Trulia","category_code":"search","number_of_employees":500},{"city":"San Francisco","latitude":37.7768052,"longitude":-122.4169244,"name":"Twitter","category_code":"social","number_of_employees":1300},{"city":"San Francisco","latitude":37.7819286,"longitude":-122.4041764,"name":"Globant","category_code":"software","number_of_employees":2800},{"city":"San Francisco","latitude":37.7814765,"longitude":-122.4013217,"name":"UCWeb","category_code":"software","number_of_employees":1700},{"city":"Santa Clara","latitude":37.760524,"longitude":-122.387799,"name":"Fuzz","category_code":"games_video","number_of_employees":6},{"city":"San Francisco","latitude":37.785647,"longitude":-122.405265,"name":"OpenTable","category_code":"web","number_of_employees":550},{"city":"San Francisco","latitude":37.786183,"longitude":-122.402195,"name":"Yelp","category_code":"search","number_of_employees":800},{"city":"San Francisco","latitude":37.78274,"longitude":-122.390945,"name":"Splunk","category_code":"software","number_of_employees":500},{"city":"San Francisco","latitude":37.789318,"longitude":-122.400655,"name":"Calypso Technology","category_code":"software","number_of_employees":386},{"city":"San Francisco","latitude":37.7909427,"longitude":-122.4084994,"name":"Dropbox","category_code":"software","number_of_employees":350},{"city":"San Francisco","latitude":37.7892685,"longitude":-122.3951844,"name":"Riverbed Technology","category_code":"software","number_of_employees":1000},{"city":"San Francisco","latitude":37.789803,"longitude":-122.389757,"name":"Google","category_code":"search","number_of_employees":28000},{"city":"San Francisco","latitude":37.791575,"longitude":-122.39339,"name":"Kaseya","category_code":"software","number_of_employees":400}],"num_offices":13,"ratio":12.0}
{"index":83,"city":"Fort Lauderdale","country_code":"USA","latitude":37.09024,"longitude":-95.712891,"name":"Sportsline","category_code":"web","founded_year":1994,"number_of_employees":264,"coordenadas":[-95.712891,37.09024],"cercanas":[{"city":"Fort Lauderdale","latitude":37.09024,"longitude":-95.712891,"name":"Sportsline","category_code":"web","number_of_employees":264}],"num_offices":1,"ratio":100.0}
{"index":84,"city":"San Francisco","country_code":"USA","latitude":37.785647,"longitude":-122.405265,"name":"OpenTable","category_code":"web","founded_year":1998,"number_of_employees":550,"coordenadas":[-122.405265,37.785647],"cercanas":[{"city":"San Francisco","latitude":37.785647,"longitude":-122.405265,"name":"OpenTable","category_code":"web","number_of_employees":550},{"city":"San Francisco","latitude":37.786183,"longitude":-122.402195,"name":"Yelp","category_code":"search","number_of_employees":800},{"city":"San Francisco","latitude":37.7819286,"longitude":-122.4041764,"name":"Globant","category_code":"software","number_of_employees":2800},{"city":"San Francisco","latitude":37.789318,"longitude":-122.400655,"name":"Calypso Technology","category_code":"software","number_of_employees":386},{"city":"San Francisco","latitude":37.7814765,"longitude":-122.4013217,"name":"UCWeb","category_code":"software","number_of_employees":1700},{"city":"San Francisco","latitude":37.7909427,"longitude":-122.4084994,"name":"Dropbox","category_code":"software","number_of_employees":350},{"city":"San Francisco","latitude":37.7892685,"longitude":-122.3951844,"name":"Riverbed Technology","category_code":"software","number_of_employees":1000},{"city":"San Francisco","latitude":37.793949,"longitude":-122.398062,"name":"Embarcadero Technologies","category_code":"software","number_of_employees":450},{"city":"San Francisco","latitude":37.791575,"longitude":-122.39339,"name":"Kaseya","category_code":"software","number_of_employees":400},{"city":"San Francisco","latitude":37.793819,"longitude":-122.395089,"name":"ThoughtWorks Studios","category_code":"software","number_of_employees":1100},{"city":"San Francisco","latitude":37.78274,"longitude":-122.390945,"name":"Splunk","category_code":"software","number_of_employees":500},{"city":"San Francisco","latitude":37.7768052,"longitude":-122.4169244,"name":"Twitter","category_code":"social","number_of_employees":1300},{"city":"San Francisco","latitude":37.789803,"longitude":-122.389757,"name":"Google","category_code":"search","number_of_employees":28000},{"city":"San Francisco","latitude":37.766909,"longitude":-122.406676,"name":"Trulia","category_code":"search","number_of_employees":500},{"city":"San Francisco","latitude":37.8053241,"longitude":-122.4052761,"name":"Indee","category_code":"games_video","number_of_employees":3}],"num_offices":15,"ratio":14.0}
{"index":85,"city":"Morrisville","country_code":"USA","latitude":35.854483,"longitude":-78.815635,"name":"ChannelAdvisor","category_code":"search","founded_year":2001,"number_of_employees":300,"coordenadas":[-78.815635,35.854483],"cercanas":[{"city":"Morrisville","latitude":35.854483,"longitude":-78.815635,"name":"ChannelAdvisor","category_code":"search","number_of_employees":300}],"num_offices":1,"ratio":100.0}
{"index":87,"city":"Mountain View","country_code":"USA","latitude":37.418491,"longitude":-122.08744,"name":"Mozilla","category_code":"web","founded_year":1998,"number_of_employees":800,"coordenadas":[-122.08744,37.418491],"cercanas":[{"city":"Mountain View","latitude":37.418491,"longitude":-122.08744,"name":"Mozilla","category_code":"web","number_of_employees":800},{"city":"Mountain View","latitude":37.421972,"longitude":-122.084143,"name":"Google","category_code":"search","number_of_employees":28000},{"city":"Mountain View","latitude":37.423258,"longitude":-122.073635,"name":"LinkedIn","category_code":"social","number_of_employees":4800},{"city":"San Francisco","latitude":37.3944561,"longitude":-122.0785314,"name":"Kabam","category_code":"games_video","number_of_employees":650}],"num_offices":4,"ratio":100.0}
{"index":90,"city":"San Francisco","country_code":"USA","latitude":37.78274,"longitude":-122.390945,"name":"Splunk","category_code":"software","founded_year":2003,"number_of_employees":500,"coordenadas":[-122.390945,37.78274],"cercanas":[{"city":"San Francisco","latitude":37.78274,"longitude":-122.390945,"name":"Splunk","category_code":"software","number_of_employees":500},{"city":"San Francisco","latitude":37.789803,"longitude":-122.389757,"name":"Google","category_code":"search","number_of_employees":28000},{"city":"San Francisco","latitude":37.7892685,"longitude":-122.3951844,"name":"Riverbed Technology","category_code":"software","number_of_employees":1000},{"city":"San Francisco","latitude":37.7814765,"longitude":-122.4013217,"name":"UCWeb","category_code":"software","number_of_employees":1700},{"city":"San Francisco","latitude":37.791575,"longitude":-122.39339,"name":"Kaseya","category_code":"software","number_of_employees":400},{"city":"San Francisco","latitude":37.786183,"longitude":-122.402195,"name":"Yelp","category_code":"search","number_of_employees":800},{"city":"San Francisco","latitude":37.789318,"longitude":-122.400655,"name":"Calypso Technology","category_code":"software","number_of_employees":386},{"city":"San Francisco","latitude":37.7819286,"longitude":-122.4041764,"name":"Globant","category_code":"software","number_of_employees":2800},{"city":"San Francisco","latitude":37.793819,"longitude":-122.395089,"name":"ThoughtWorks Studios","category_code":"software","number_of_employees":1100},{"city":"San Francisco","latitude":37.785647,"longitude":-122.405265,"name":"OpenTable","category_code":"web","number_of_employees":550},{"city":"San Francisco","latitude":37.793949,"longitude":-122.398062,"name":"Embarcadero Technologies","category_code":"software","number_of_employees":450},{"city":"San Francisco","latitude":37.7909427,"longitude":-122.4084994,"name":"Dropbox","category_code":"software","number_of_employees":350},{"city":"San Francisco","latitude":37.766909,"longitude":-122.406676,"name":"Trulia","category_code":"search","number_of_employees":500},{"city":"San Francisco","latitude":37.7768052,"longitude":-122.4169244,"name":"Twitter","category_code":"social","number_of_employees":1300},{"city":"Santa Clara","latitude":37.760524,"longitude":-122.387799,"name":"Fuzz","category_code":"games_video","number_of_employees":6},{"city":"San Francisco","latitude":37.8053241,"longitude":-122.4052761,"name":"Indee","category_code":"games_video","number_of_employees":3}],"num_offices":16,"ratio":7.0}
{"index":91,"city":"Cambridge","country_code":"USA","latitude":42.375392,"longitude":-71.118487,"name":"HubSpot","category_code":"software","founded_year":2006,"number_of_employees":650,"coordenadas":[-71.118487,42.375392],"cercanas":[{"city":"Cambridge","latitude":42.375392,"longitude":-71.118487,"name":"HubSpot","category_code":"software","number_of_employees":650},{"city":"Cambridge","latitude":42.36305,"longitude":-71.087478,"name":"Google","category_code":"search","number_of_employees":28000}],"num_offices":2,"ratio":100.0}
{"index":92,"city":"Paris","country_code":"FRA","latitude":48.8747064,"longitude":2.3304161,"name":"Viadeo","category_code":"social","founded_year":2004,"number_of_employees":400,"coordenadas":[2.3304161,48.8747064],"cercanas":[{"city":"Paris","latitude":48.8747064,"longitude":2.3304161,"name":"Viadeo","category_code":"social","number_of_employees":400},{"city":"Paris","latitude":48.869606,"longitude":2.332749,"name":"Google","category_code":"search","number_of_employees":28000}],"num_offices":2,"ratio":100.0}
{"index":97,"city":"Dallas","country_code":"USA","latitude":32.863466,"longitude":-96.791739,"name":"Match","category_code":"web","founded_year":1995,"number_of_employees":350,"coordenadas":[-96.791739,32.863466],"cercanas":[{"city":"Dallas","latitude":32.863466,"longitude":-96.791739,"name":"Match","category_code":"web","number_of_employees":350}],"num_offices":1,"ratio":100.0}
{"index":99,"city":"Bellevue","country_code":"USA","latitude":47.58181,"longitude":-122.154837,"name":"Expedia","category_code":"web","founded_year":1996,"number_of_employees":4400,"coordenadas":[-122.154837,47.58181],"cercanas":[{"city":"Bellevue","latitude":47.58181,"longitude":-122.154837,"name":"Expedia","category_code":"web","number_of_employees":4400}],"num_offices":1,"ratio":100.0}
{"index":100,"city":"Goleta","country_code":"USA","latitude":34.431454,"longitude":-119.855405,"name":"Citrix Online","category_code":"web","founded_year":2003,"number_of_employees":700,"coordenadas":[-119.855405,34.431454],"cercanas":[{"city":"Goleta","latitude":34.431454,"longitude":-119.855405,"name":"Citrix Online","category_code":"web","number_of_employees":700}],"num_offices":1,"ratio":100.0}
{"index":101,"city":"York","country_code":"GBR","latitude":53.949714,"longitude":-1.045716,"name":"ioko","category_code":"software","founded_year":1996,"number_of_employees":270,"coordenadas":[-1.045716,53.949714],"cercanas":[{"city":"York","latitude":53.949714,"longitude":-1.045716,"name":"ioko","category_code":"software","number_of_employees":270}],"num_offices":1,"ratio":100.0}
{"index":104,"city":"Los Gatos","country_code":"USA","latitude":37.25142,"longitude":-121.968687,"name":"Netflix","category_code":"games_video","founded_year":1997,"number_of_employees":2000,"coordenadas":[-121.968687,37.25142],"cercanas":[{"city":"Los Gatos","latitude":37.25142,"longitude":-121.968687,"name":"Netflix","category_code":"games_video","number_of_employees":2000}],"num_offices":1,"ratio":100.0}
{"index":105,"city":"Redwood City","country_code":"USA","latitude":37.386774,"longitude":-121.987661,"name":"Evernote","category_code":"software","founded_year":2004,"number_of_employees":280,"coordenadas":[-121.987661,37.386774],"cercanas":[{"city":"Redwood City","latitude":37.386774,"longitude":-121.987661,"name":"Evernote","category_code":"software","number_of_employees":280},{"city":"Santa Clara","latitude":37.398076,"longitude":-121.977333,"name":"Avaya","category_code":"software","number_of_employees":18000},{"city":"Santa Clara","latitude":37.379718,"longitude":-121.967982,"name":"Aztecsoft","category_code":"software","number_of_employees":2000},{"city":"Santa Clara","latitude":37.406456,"longitude":-121.983146,"name":"FileMaker","category_code":"software","number_of_employees":350}],"num_offices":4,"ratio":100.0}
{"index":106,"city":"Berlin","country_code":"DEU","latitude":52.5290751,"longitude":13.4161514,"name":"VZnet Netzwerke","category_code":"web","founded_year":2005,"number_of_employees":300,"coordenadas":[13.4161514,52.5290751],"cercanas":[{"city":"Berlin","latitude":52.5290751,"longitude":13.4161514,"name":"VZnet Netzwerke","category_code":"web","number_of_employees":300}],"num_offices":1,"ratio":100.0}
{"index":108,"city":"Burlingame","country_code":"USA","latitude":37.592584,"longitude":-122.369676,"name":"ScanCafe","category_code":"web","founded_year":2006,"number_of_employees":350,"coordenadas":[-122.369676,37.592584],"cercanas":[{"city":"Burlingame","latitude":37.592584,"longitude":-122.369676,"name":"ScanCafe","category_code":"web","number_of_employees":350}],"num_offices":1,"ratio":100.0}
{"index":109,"city":"McLean","country_code":"USA","latitude":38.923453,"longitude":-77.227525,"name":"Cvent","category_code":"software","founded_year":1999,"number_of_employees":800,"coordenadas":[-77.227525,38.923453],"cercanas":[{"city":"McLean","latitude":38.923453,"longitude":-77.227525,"name":"Cvent","category_code":"software","number_of_employees":800}],"num_offices":1,"ratio":100.0}
{"index":110,"city":"San Mateo","country_code":"USA","latitude":37.5583,"longitude":-122.301385,"name":"Marketo","category_code":"software","founded_year":2006,"number_of_employees":260,"coordenadas":[-122.301385,37.5583],"cercanas":[{"city":"San Mateo","latitude":37.5583,"longitude":-122.301385,"name":"Marketo","category_code":"software","number_of_employees":260},{"city":"San Mateo","latitude":37.544987,"longitude":-122.291394,"name":"Epocrates","category_code":"software","number_of_employees":300},{"city":"San Mateo","latitude":37.566879,"longitude":-122.323895,"name":"Fixya","category_code":"web","number_of_employees":30}],"num_offices":3,"ratio":2.0}
{"index":111,"city":"Vancouver","country_code":"CAN","latitude":49.285941,"longitude":-123.120292,"name":"Absolute Software","category_code":"software","founded_year":1993,"number_of_employees":300,"coordenadas":[-123.120292,49.285941],"cercanas":[{"city":"Vancouver","latitude":49.285941,"longitude":-123.120292,"name":"Absolute Software","category_code":"software","number_of_employees":300},{"city":"Vancouver","latitude":49.2851733,"longitude":-123.0952381,"name":"HootSuite","category_code":"social","number_of_employees":370},{"city":"Vancouver","latitude":49.263588,"longitude":-123.138565,"name":"Pixelmatic","category_code":"games_video","number_of_employees":10}],"num_offices":3,"ratio":2.0}
{"index":112,"city":"Austin","country_code":"USA","latitude":30.265006,"longitude":-97.746608,"name":"Absolute Software","category_code":"software","founded_year":1993,"number_of_employees":300,"coordenadas":[-97.746608,30.265006],"cercanas":[{"city":"Austin","latitude":30.265006,"longitude":-97.746608,"name":"Absolute Software","category_code":"software","number_of_employees":300}],"num_offices":1,"ratio":100.0}
{"index":113,"city":"Newbury","country_code":"GBR","latitude":51.399101,"longitude":-1.325337,"name":"Absolute Software","category_code":"software","founded_year":1993,"number_of_employees":300,"coordenadas":[-1.325337,51.399101],"cercanas":[{"city":"Newbury","latitude":51.399101,"longitude":-1.325337,"name":"Absolute Software","category_code":"software","number_of_employees":300}],"num_offices":1,"ratio":100.0}
{"index":114,"city":"Dayton","country_code":"USA","latitude":39.631175,"longitude":-84.181175,"name":"Sogeti USA","category_code":"software","founded_year":2001,"number_of_employees":2500,"coordenadas":[-84.181175,39.631175],"cercanas":[{"city":"Dayton","latitude":39.631175,"longitude":-84.181175,"name":"Sogeti USA","category_code":"software","number_of_employees":2500}],"num_offices":1,"ratio":100.0}
{"index":116,"city":"Buenos Aires","country_code":"ARG","latitude":-34.5967236,"longitude":-58.3708904,"name":"Globant","category_code":"software","founded_year":2003,"number_of_employees":2800,"coordenadas":[-58.3708904,-34.5967236],"cercanas":[{"city":"Buenos Aires","latitude":-34.5967236,"longitude":-58.3708904,"name":"Globant","category_code":"software","number_of_employees":2800}],"num_offices":1,"ratio":100.0}
{"index":117,"city":"Hopkinton","country_code":"USA","latitude":42.2261823,"longitude":-71.5174869,"name":"Globant","category_code":"software","founded_year":2003,"number_of_employees":2800,"coordenadas":[-71.5174869,42.2261823],"cercanas":[{"city":"Hopkinton","latitude":42.2261823,"longitude":-71.5174869,"name":"Globant","category_code":"software","number_of_employees":2800}],"num_offices":1,"ratio":100.0}
{"index":118,"city":"London","country_code":"GBR","latitude":51.5205095,"longitude":-0.0952197,"name":"Globant","category_code":"software","founded_year":2003,"number_of_employees":2800,"coordenadas":[-0.0952197,51.5205095],"cercanas":[{"city":"London","latitude":51.5205095,"longitude":-0.0952197,"name":"Globant","category_code":"software","number_of_employees":2800},{"city":"London","latitude":51.5154835,"longitude":-0.0881016,"name":"EPAM Systems","category_code":"software","number_of_employees":8100},{"city":"London","latitude":51.5069206,"longitude":-0.1249337,"name":"DemandTec","category_code":"software","number_of_employees":350}],"num_offices":3,"ratio":100.0}
{"index":119,"city":"San Francisco","country_code":"USA","latitude":37.7819286,"longitude":-122.4041764,"name":"Globant","category_code":"software","founded_year":2003,"number_of_employees":2800,"coordenadas":[-122.4041764,37.7819286],"cercanas":[{"city":"San Francisco","latitude":37.7819286,"longitude":-122.4041764,"name":"Globant","category_code":"software","number_of_employees":2800},{"city":"San Francisco","latitude":37.7814765,"longitude":-122.4013217,"name":"UCWeb","category_code":"software","number_of_employees":1700},{"city":"San Francisco","latitude":37.785647,"longitude":-122.405265,"name":"OpenTable","category_code":"web","number_of_employees":550},{"city":"San Francisco","latitude":37.786183,"longitude":-122.402195,"name":"Yelp","category_code":"search","number_of_employees":800},{"city":"San Francisco","latitude":37.789318,"longitude":-122.400655,"name":"Calypso Technology","category_code":"software","number_of_employees":386},{"city":"San Francisco","latitude":37.7909427,"longitude":-122.4084994,"name":"Dropbox","category_code":"software","number_of_employees":350},{"city":"San Francisco","latitude":37.7892685,"longitude":-122.3951844,"name":"Riverbed Technology","category_code":"software","number_of_employees":1000},{"city":"San Francisco","latitude":37.78274,"longitude":-122.390945,"name":"Splunk","category_code":"software","number_of_employees":500},{"city":"San Francisco","latitude":37.7768052,"longitude":-122.4169244,"name":"Twitter","category_code":"social","number_of_employees":1300},{"city":"San Francisco","latitude":37.791575,"longitude":-122.39339,"name":"Kaseya","category_code":"software","number_of_employees":400},{"city":"San Francisco","latitude":37.793949,"longitude":-122.398062,"name":"Embarcadero Technologies","category_code":"software","number_of_employees":450},{"city":"San Francisco","latitude":37.789803,"longitude":-122.389757,"name":"Google","category_code":"search","number_of_employees":28000},{"city":"San Francisco","latitude":37.793819,"longitude":-122.395089,"name":"ThoughtWorks Studios","category_code":"software","number_of_employees":1100},{"city":"San Francisco","latitude":37.766909,"longitude":-122.406676,"name":"Trulia","category_code":"search","number_of_employees":500},{"city":"San Francisco","latitude":37.8053241,"longitude":-122.4052761,"name":"Indee","category_code":"games_video","number_of_employees":3},{"city":"Santa Clara","latitude":37.760524,"longitude":-122.387799,"name":"Fuzz","category_code":"games_video","number_of_employees":6}],"num_offices":16,"ratio":7.0}
{"index":121,"city":"Sao Paulo","country_code":"BRA","latitude":-23.5606195,"longitude":-46.6816579,"name":"Globant","category_code":"software","founded_year":2003,"number_of_employees":2800,"coordenadas":[-46.6816579,-23.5606195],"cercanas":[{"city":"Sao Paulo","latitude":-23.5606195,"longitude":-46.6816579,"name":"Globant","category_code":"software","number_of_employees":2800}],"num_offices":1,"ratio":100.0}
{"index":122,"city":"Bogota","country_code":"COL","latitude":4.7595921,"longitude":-74.0632101,"name":"Globant","category_code":"software","founded_year":2003,"number_of_employees":2800,"coordenadas":[-74.0632101,4.7595921],"cercanas":[{"city":"Bogota","latitude":4.7595921,"longitude":-74.0632101,"name":"Globant","category_code":"software","number_of_employees":2800}],"num_offices":1,"ratio":100.0}
{"index":123,"city":"Montevideo","country_code":"URY","latitude":-34.8836111,"longitude":-56.1819444,"name":"Globant","category_code":"software","founded_year":2003,"number_of_employees":2800,"coordenadas":[-56.1819444,-34.8836111],"cercanas":[{"city":"Montevideo","latitude":-34.8836111,"longitude":-56.1819444,"name":"Globant","category_code":"software","number_of_employees":2800}],"num_offices":1,"ratio":100.0}
{"index":125,"city":"La Plata","country_code":"ARG","latitude":-34.6776448,"longitude":-58.3840599,"name":"Globant","category_code":"software","founded_year":2003,"number_of_employees":2800,"coordenadas":[-58.3840599,-34.6776448],"cercanas":[{"city":"La Plata","latitude":-34.6776448,"longitude":-58.3840599,"name":"Globant","category_code":"software","number_of_employees":2800}],"num_offices":1,"ratio":100.0}
{"index":126,"city":"Tandil","country_code":"ARG","latitude":-37.3281072,"longitude":-59.1340915,"name":"Globant","category_code":"software","founded_year":2003,"number_of_employees":2800,"coordenadas":[-59.1340915,-37.3281072],"cercanas":[{"city":"Tandil","latitude":-37.3281072,"longitude":-59.1340915,"name":"Globant","category_code":"software","number_of_employees":2800}],"num_offices":1,"ratio":100.0}
{"index":127,"city":"Resistencia","country_code":"ARG","latitude":-27.4533887,"longitude":-58.9871056,"name":"Globant","category_code":"software","founded_year":2003,"number_of_employees":2800,"coordenadas":[-58.9871056,-27.4533887],"cercanas":[{"city":"Resistencia","latitude":-27.4533887,"longitude":-58.9871056,"name":"Globant","category_code":"software","number_of_employees":2800}],"num_offices":1,"ratio":100.0}
{"index":128,"city":"Tucuman","country_code":"ARG","latitude":-26.8007888,"longitude":-65.3024825,"name":"Globant","category_code":"software","founded_year":2003,"number_of_employees":2800,"coordenadas":[-65.3024825,-26.8007888],"cercanas":[{"city":"Tucuman","latitude":-26.8007888,"longitude":-65.3024825,"name":"Globant","category_code":"software","number_of_employees":2800}],"num_offices":1,"ratio":100.0}
{"index":129,"city":"Bah\u00eda Blanca","country_code":"ARG","latitude":-38.7211371,"longitude":-62.2690974,"name":"Globant","category_code":"software","founded_year":2003,"number_of_employees":2800,"coordenadas":[-62.2690974,-38.7211371],"cercanas":[{"city":"Bah\u00eda Blanca","latitude":-38.7211371,"longitude":-62.2690974,"name":"Globant","category_code":"software","number_of_employees":2800}],"num_offices":1,"ratio":100.0}
{"index":130,"city":"Portland","country_code":"USA","latitude":45.518038,"longitude":-122.67934,"name":"Webtrends","category_code":"web","founded_year":1993,"number_of_employees":350,"coordenadas":[-122.67934,45.518038],"cercanas":[{"city":"Portland","latitude":45.518038,"longitude":-122.67934,"name":"Webtrends","category_code":"web","number_of_employees":350}],"num_offices":1,"ratio":100.0}
{"index":137,"city":"San Francisco","country_code":"USA","latitude":37.3944561,"longitude":-122.0785314,"name":"Kabam","category_code":"games_video","founded_year":2006,"number_of_employees":650,"coordenadas":[-122.0785314,37.3944561],"cercanas":[{"city":"San Francisco","latitude":37.3944561,"longitude":-122.0785314,"name":"Kabam","category_code":"games_video","number_of_employees":650},{"city":"Mountain View","latitude":37.418491,"longitude":-122.08744,"name":"Mozilla","category_code":"web","number_of_employees":800}],"num_offices":2,"ratio":100.0}
{"index":140,"city":"Sunnyvale","country_code":"USA","latitude":37.390753,"longitude":-122.039865,"name":"Blue Coat Systems","category_code":"software","founded_year":1996,"number_of_employees":1400,"coordenadas":[-122.039865,37.390753],"cercanas":[{"city":"Sunnyvale","latitude":37.390753,"longitude":-122.039865,"name":"Blue Coat Systems","category_code":"software","number_of_employees":1400}],"num_offices":1,"ratio":100.0}
{"index":142,"city":"Redwood Shores","country_code":"USA","latitude":37.503055,"longitude":-122.295701,"name":"Saba","category_code":"software","founded_year":1997,"number_of_employees":600,"coordenadas":[-122.295701,37.503055],"cercanas":[{"city":"Redwood Shores","latitude":37.503055,"longitude":-122.295701,"name":"Saba","category_code":"software","number_of_employees":600}],"num_offices":1,"ratio":100.0}
{"index":151,"city":"Luzern","country_code":"CHE","latitude":47.0419512,"longitude":8.3140814,"name":"Yandex","category_code":"search","founded_year":1997,"number_of_employees":4000,"coordenadas":[8.3140814,47.0419512],"cercanas":[{"city":"Luzern","latitude":47.0419512,"longitude":8.3140814,"name":"Yandex","category_code":"search","number_of_employees":4000}],"num_offices":1,"ratio":100.0}
{"index":152,"city":"Palo Alto","country_code":"USA","latitude":37.403315,"longitude":-122.145981,"name":"VMware","category_code":"software","founded_year":1998,"number_of_employees":13500,"coordenadas":[-122.145981,37.403315],"cercanas":[{"city":"Palo Alto","latitude":37.403315,"longitude":-122.145981,"name":"VMware","category_code":"software","number_of_employees":13500},{"city":"Menlo Park","latitude":37.41605,"longitude":-122.151801,"name":"Facebook","category_code":"social","number_of_employees":5299}],"num_offices":2,"ratio":100.0}
{"index":154,"city":"Stone Mountain","country_code":"USA","latitude":33.817752,"longitude":-84.120458,"name":"CCP Games","category_code":"games_video","founded_year":1997,"number_of_employees":360,"coordenadas":[-84.120458,33.817752],"cercanas":[{"city":"Stone Mountain","latitude":33.817752,"longitude":-84.120458,"name":"CCP Games","category_code":"games_video","number_of_employees":360}],"num_offices":1,"ratio":100.0}
{"index":155,"city":"Santa Clara","country_code":"USA","latitude":37.398076,"longitude":-121.977333,"name":"Avaya","category_code":"software","founded_year":2000,"number_of_employees":18000,"coordenadas":[-121.977333,37.398076],"cercanas":[{"city":"Santa Clara","latitude":37.398076,"longitude":-121.977333,"name":"Avaya","category_code":"software","number_of_employees":18000},{"city":"Santa Clara","latitude":37.406456,"longitude":-121.983146,"name":"FileMaker","category_code":"software","number_of_employees":350},{"city":"Redwood City","latitude":37.386774,"longitude":-121.987661,"name":"Evernote","category_code":"software","number_of_employees":280},{"city":"Santa Clara","latitude":37.379718,"longitude":-121.967982,"name":"Aztecsoft","category_code":"software","number_of_employees":2000}],"num_offices":4,"ratio":100.0}
{"index":156,"city":"Basking Ridge","country_code":"USA","latitude":40.694956,"longitude":-74.577599,"name":"Avaya","category_code":"software","founded_year":2000,"number_of_employees":18000,"coordenadas":[-74.577599,40.694956],"cercanas":[{"city":"Basking Ridge","latitude":40.694956,"longitude":-74.577599,"name":"Avaya","category_code":"software","number_of_employees":18000}],"num_offices":1,"ratio":100.0}
{"index":157,"city":"Chandler","country_code":"USA","latitude":33.2871748,"longitude":-111.8871813,"name":"Infusionsoft","category_code":"software","founded_year":2001,"number_of_employees":350,"coordenadas":[-111.8871813,33.2871748],"cercanas":[{"city":"Chandler","latitude":33.2871748,"longitude":-111.8871813,"name":"Infusionsoft","category_code":"software","number_of_employees":350}],"num_offices":1,"ratio":100.0}
{"index":158,"city":"Berlin","country_code":"DEU","latitude":52.502642,"longitude":13.446834,"name":"zanox","category_code":"web","founded_year":2000,"number_of_employees":600,"coordenadas":[13.446834,52.502642],"cercanas":[{"city":"Berlin","latitude":52.502642,"longitude":13.446834,"name":"zanox","category_code":"web","number_of_employees":600},{"city":"Berlin","latitude":52.5013449,"longitude":13.4109071,"name":"headr","category_code":"web","number_of_employees":8}],"num_offices":2,"ratio":1.0}
{"index":163,"city":"Troy","country_code":"USA","latitude":42.585951,"longitude":-83.126814,"name":"GARA Web Hosting","category_code":"web","founded_year":2006,"number_of_employees":480,"coordenadas":[-83.126814,42.585951],"cercanas":[{"city":"Troy","latitude":42.585951,"longitude":-83.126814,"name":"GARA Web Hosting","category_code":"web","number_of_employees":480}],"num_offices":1,"ratio":100.0}
{"index":164,"city":"Santa Clara","country_code":"USA","latitude":37.406456,"longitude":-121.983146,"name":"FileMaker","category_code":"software","founded_year":1998,"number_of_employees":350,"coordenadas":[-121.983146,37.406456],"cercanas":[{"city":"Santa Clara","latitude":37.406456,"longitude":-121.983146,"name":"FileMaker","category_code":"software","number_of_employees":350},{"city":"Santa Clara","latitude":37.398076,"longitude":-121.977333,"name":"Avaya","category_code":"software","number_of_employees":18000},{"city":"Redwood City","latitude":37.386774,"longitude":-121.987661,"name":"Evernote","category_code":"software","number_of_employees":280}],"num_offices":3,"ratio":100.0}
{"index":165,"city":"Fort Lauderdale","country_code":"USA","latitude":26.170422,"longitude":-80.150794,"name":"BitDefender","category_code":"software","founded_year":1996,"number_of_employees":800,"coordenadas":[-80.150794,26.170422],"cercanas":[{"city":"Fort Lauderdale","latitude":26.170422,"longitude":-80.150794,"name":"BitDefender","category_code":"software","number_of_employees":800}],"num_offices":1,"ratio":100.0}
{"index":167,"city":"San Francisco","country_code":"USA","latitude":55.676294,"longitude":12.568116,"name":"Zendesk","category_code":"software","founded_year":2007,"number_of_employees":400,"coordenadas":[12.568116,55.676294],"cercanas":[{"city":"San Francisco","latitude":55.676294,"longitude":12.568116,"name":"Zendesk","category_code":"software","number_of_employees":400},{"city":"Copenhagen V","latitude":55.6749167,"longitude":12.5618602,"name":"Sitecore","category_code":"software","number_of_employees":600}],"num_offices":2,"ratio":100.0}
{"index":168,"city":"San Mateo","country_code":"USA","latitude":37.544987,"longitude":-122.291394,"name":"Epocrates","category_code":"software","founded_year":1998,"number_of_employees":300,"coordenadas":[-122.291394,37.544987],"cercanas":[{"city":"San Mateo","latitude":37.544987,"longitude":-122.291394,"name":"Epocrates","category_code":"software","number_of_employees":300},{"city":"San Mateo","latitude":37.5583,"longitude":-122.301385,"name":"Marketo","category_code":"software","number_of_employees":260}],"num_offices":2,"ratio":100.0}
{"index":169,"city":"Radnor","country_code":"USA","latitude":40.037578,"longitude":-75.366299,"name":"QlikTech","category_code":"software","founded_year":1993,"number_of_employees":600,"coordenadas":[-75.366299,40.037578],"cercanas":[{"city":"Radnor","latitude":40.037578,"longitude":-75.366299,"name":"QlikTech","category_code":"software","number_of_employees":600}],"num_offices":1,"ratio":100.0}
{"index":171,"city":"Ahmedabad","country_code":"IND","latitude":22.375372,"longitude":70.968241,"name":"Gateway TechnoLabs Pvt Ltd","category_code":"software","founded_year":1995,"number_of_employees":800,"coordenadas":[70.968241,22.375372],"cercanas":[{"city":"Ahmedabad","latitude":22.375372,"longitude":70.968241,"name":"Gateway TechnoLabs Pvt Ltd","category_code":"software","number_of_employees":800}],"num_offices":1,"ratio":100.0}
{"index":180,"city":"Austin","country_code":"USA","latitude":30.34819,"longitude":-97.80058,"name":"NetQoS","category_code":"software","founded_year":1999,"number_of_employees":260,"coordenadas":[-97.80058,30.34819],"cercanas":[{"city":"Austin","latitude":30.34819,"longitude":-97.80058,"name":"NetQoS","category_code":"software","number_of_employees":260}],"num_offices":1,"ratio":100.0}
{"index":183,"city":"Beijing","country_code":"CHN","latitude":39.905556,"longitude":116.395833,"name":"Koolanoo Group","category_code":"web","founded_year":2005,"number_of_employees":280,"coordenadas":[116.395833,39.905556],"cercanas":[{"city":"Beijing","latitude":39.905556,"longitude":116.395833,"name":"Koolanoo Group","category_code":"web","number_of_employees":280},{"city":"Beijing","latitude":39.905556,"longitude":116.395833,"name":"Koolanoo Group","category_code":"web","number_of_employees":280}],"num_offices":2,"ratio":100.0}
{"index":191,"city":"Beijing","country_code":"CHN","latitude":39.905556,"longitude":116.395833,"name":"Koolanoo Group","category_code":"web","founded_year":2005,"number_of_employees":280,"coordenadas":[116.395833,39.905556],"cercanas":[{"city":"Beijing","latitude":39.905556,"longitude":116.395833,"name":"Koolanoo Group","category_code":"web","number_of_employees":280},{"city":"Beijing","latitude":39.905556,"longitude":116.395833,"name":"Koolanoo Group","category_code":"web","number_of_employees":280}],"num_offices":2,"ratio":100.0}
{"index":199,"city":"Chicago","country_code":"USA","latitude":41.8965162,"longitude":-87.643622,"name":"Groupon","category_code":"web","founded_year":2008,"number_of_employees":10000,"coordenadas":[-87.643622,41.8965162],"cercanas":[{"city":"Chicago","latitude":41.8965162,"longitude":-87.643622,"name":"Groupon","category_code":"web","number_of_employees":10000},{"city":"Chicago","latitude":41.889474,"longitude":-87.628912,"name":"Google","category_code":"search","number_of_employees":28000},{"city":"Chicago","latitude":41.8806258,"longitude":-87.6356066,"name":"optionsXpress","category_code":"software","number_of_employees":305}],"num_offices":3,"ratio":100.0}
{"index":203,"city":"San Ramon","country_code":"USA","latitude":37.7705702,"longitude":-121.9642503,"name":"TESCRA","category_code":"software","founded_year":2002,"number_of_employees":580,"coordenadas":[-121.9642503,37.7705702],"cercanas":[{"city":"San Ramon","latitude":37.7705702,"longitude":-121.9642503,"name":"TESCRA","category_code":"software","number_of_employees":580}],"num_offices":1,"ratio":100.0}
{"index":204,"city":"Copenhagen V","country_code":"DNK","latitude":55.6749167,"longitude":12.5618602,"name":"Sitecore","category_code":"software","founded_year":2001,"number_of_employees":600,"coordenadas":[12.5618602,55.6749167],"cercanas":[{"city":"Copenhagen V","latitude":55.6749167,"longitude":12.5618602,"name":"Sitecore","category_code":"software","number_of_employees":600},{"city":"San Francisco","latitude":55.676294,"longitude":12.568116,"name":"Zendesk","category_code":"software","number_of_employees":400}],"num_offices":2,"ratio":100.0}
{"index":206,"city":"Lakewood","country_code":"USA","latitude":39.745092,"longitude":-105.158207,"name":"HomeAdvisor","category_code":"web","founded_year":1998,"number_of_employees":1200,"coordenadas":[-105.158207,39.745092],"cercanas":[{"city":"Lakewood","latitude":39.745092,"longitude":-105.158207,"name":"HomeAdvisor","category_code":"web","number_of_employees":1200}],"num_offices":1,"ratio":100.0}
{"index":208,"city":"Hilversum","country_code":"NLD","latitude":52.220726,"longitude":5.198824,"name":"SPIL GAMES","category_code":"games_video","founded_year":2004,"number_of_employees":300,"coordenadas":[5.198824,52.220726],"cercanas":[{"city":"Hilversum","latitude":52.220726,"longitude":5.198824,"name":"SPIL GAMES","category_code":"games_video","number_of_employees":300}],"num_offices":1,"ratio":100.0}
{"index":210,"city":"Warsaw","country_code":"POL","latitude":52.1332973,"longitude":21.0709375,"name":"Activeweb","category_code":"software","founded_year":2002,"number_of_employees":500,"coordenadas":[21.0709375,52.1332973],"cercanas":[{"city":"Warsaw","latitude":52.1332973,"longitude":21.0709375,"name":"Activeweb","category_code":"software","number_of_employees":500}],"num_offices":1,"ratio":100.0}
{"index":213,"city":"San Francisco","country_code":"USA","latitude":37.793819,"longitude":-122.395089,"name":"ThoughtWorks Studios","category_code":"software","founded_year":1992,"number_of_employees":1100,"coordenadas":[-122.395089,37.793819],"cercanas":[{"city":"San Francisco","latitude":37.793819,"longitude":-122.395089,"name":"ThoughtWorks Studios","category_code":"software","number_of_employees":1100},{"city":"San Francisco","latitude":37.793949,"longitude":-122.398062,"name":"Embarcadero Technologies","category_code":"software","number_of_employees":450},{"city":"San Francisco","latitude":37.791575,"longitude":-122.39339,"name":"Kaseya","category_code":"software","number_of_employees":400},{"city":"San Francisco","latitude":37.7892685,"longitude":-122.3951844,"name":"Riverbed Technology","category_code":"software","number_of_employees":1000},{"city":"San Francisco","latitude":37.789803,"longitude":-122.389757,"name":"Google","category_code":"search","number_of_employees":28000},{"city":"San Francisco","latitude":37.789318,"longitude":-122.400655,"name":"Calypso Technology","category_code":"software","number_of_employees":386},{"city":"San Francisco","latitude":37.786183,"longitude":-122.402195,"name":"Yelp","category_code":"search","number_of_employees":800},{"city":"San Francisco","latitude":37.7909427,"longitude":-122.4084994,"name":"Dropbox","category_code":"software","number_of_employees":350},{"city":"San Francisco","latitude":37.785647,"longitude":-122.405265,"name":"OpenTable","category_code":"web","number_of_employees":550},{"city":"San Francisco","latitude":37.78274,"longitude":-122.390945,"name":"Splunk","category_code":"software","number_of_employees":500},{"city":"San Francisco","latitude":37.7814765,"longitude":-122.4013217,"name":"UCWeb","category_code":"software","number_of_employees":1700},{"city":"San Francisco","latitude":37.7819286,"longitude":-122.4041764,"name":"Globant","category_code":"software","number_of_employees":2800},{"city":"San Francisco","latitude":37.8053241,"longitude":-122.4052761,"name":"Indee","category_code":"games_video","number_of_employees":3},{"city":"San Francisco","latitude":37.7768052,"longitude":-122.4169244,"name":"Twitter","category_code":"social","number_of_employees":1300}],"num_offices":14,"ratio":13.0}
{"index":215,"city":"Colorado Springs","country_code":"USA","latitude":38.9085036,"longitude":-104.826367,"name":"Intelligent Software Solutions","category_code":"software","founded_year":1997,"number_of_employees":730,"coordenadas":[-104.826367,38.9085036],"cercanas":[{"city":"Colorado Springs","latitude":38.9085036,"longitude":-104.826367,"name":"Intelligent Software Solutions","category_code":"software","number_of_employees":730}],"num_offices":1,"ratio":100.0}
{"index":216,"city":"British Columbia","country_code":"CAN","latitude":49.2599284,"longitude":-122.9153695,"name":"Canpages","category_code":"search","founded_year":2006,"number_of_employees":400,"coordenadas":[-122.9153695,49.2599284],"cercanas":[{"city":"British Columbia","latitude":49.2599284,"longitude":-122.9153695,"name":"Canpages","category_code":"search","number_of_employees":400}],"num_offices":1,"ratio":100.0}
{"index":217,"city":"New York","country_code":"USA","latitude":40.7418877,"longitude":-74.0047466,"name":"MLB Advanced Media","category_code":"web","founded_year":2000,"number_of_employees":600,"coordenadas":[-74.0047466,40.7418877],"cercanas":[{"city":"New York","latitude":40.7418877,"longitude":-74.0047466,"name":"MLB Advanced Media","category_code":"web","number_of_employees":600},{"city":"New York","latitude":40.74222,"longitude":-74.004489,"name":"Google","category_code":"search","number_of_employees":28000},{"city":"New York","latitude":40.744618,"longitude":-73.987764,"name":"Yipit","category_code":"web","number_of_employees":23},{"city":"New York","latitude":40.757929,"longitude":-73.985506,"name":"PeekYou","category_code":"search","number_of_employees":20},{"city":"New York","latitude":40.7557162,"longitude":-73.9792469,"name":"Facebook","category_code":"social","number_of_employees":5299}],"num_offices":5,"ratio":1.5}
{"index":218,"city":"Hyderabad","country_code":"IND","latitude":44.6672372,"longitude":4.7694829,"name":"AppLabs","category_code":"software","founded_year":2001,"number_of_employees":2000,"coordenadas":[4.7694829,44.6672372],"cercanas":[{"city":"Hyderabad","latitude":44.6672372,"longitude":4.7694829,"name":"AppLabs","category_code":"software","number_of_employees":2000}],"num_offices":1,"ratio":100.0}
{"index":222,"city":"Santa Clara","country_code":"USA","latitude":37.379718,"longitude":-121.967982,"name":"Aztecsoft","category_code":"software","founded_year":1995,"number_of_employees":2000,"coordenadas":[-121.967982,37.379718],"cercanas":[{"city":"Santa Clara","latitude":37.379718,"longitude":-121.967982,"name":"Aztecsoft","category_code":"software","number_of_employees":2000},{"city":"Redwood City","latitude":37.386774,"longitude":-121.987661,"name":"Evernote","category_code":"software","number_of_employees":280},{"city":"Santa Clara","latitude":37.398076,"longitude":-121.977333,"name":"Avaya","category_code":"software","number_of_employees":18000}],"num_offices":3,"ratio":100.0}
{"index":223,"city":"Bellevue","country_code":"USA","latitude":47.6314974,"longitude":-122.1680127,"name":"Aztecsoft","category_code":"software","founded_year":1995,"number_of_employees":2000,"coordenadas":[-122.1680127,47.6314974],"cercanas":[{"city":"Bellevue","latitude":47.6314974,"longitude":-122.1680127,"name":"Aztecsoft","category_code":"software","number_of_employees":2000}],"num_offices":1,"ratio":100.0}
{"index":224,"city":"New York City","country_code":"USA","latitude":40.8129335,"longitude":-73.9586329,"name":"Dot Com Infoway","category_code":"software","founded_year":2000,"number_of_employees":500,"coordenadas":[-73.9586329,40.8129335],"cercanas":[{"city":"New York City","latitude":40.8129335,"longitude":-73.9586329,"name":"Dot Com Infoway","category_code":"software","number_of_employees":500}],"num_offices":1,"ratio":100.0}
{"index":227,"city":"Columbus","country_code":"USA","latitude":40.088052,"longitude":-83.088566,"name":"Veeam Software","category_code":"software","founded_year":2006,"number_of_employees":1500,"coordenadas":[-83.088566,40.088052],"cercanas":[{"city":"Columbus","latitude":40.088052,"longitude":-83.088566,"name":"Veeam Software","category_code":"software","number_of_employees":1500}],"num_offices":1,"ratio":100.0}
{"index":245,"city":"Austin","country_code":"USA","latitude":30.245535,"longitude":-97.805621,"name":"SolarWinds","category_code":"software","founded_year":1999,"number_of_employees":354,"coordenadas":[-97.805621,30.245535],"cercanas":[{"city":"Austin","latitude":30.245535,"longitude":-97.805621,"name":"SolarWinds","category_code":"software","number_of_employees":354}],"num_offices":1,"ratio":100.0}
{"index":247,"city":"Dun Laoghaire","country_code":"IRL","latitude":53.342689,"longitude":-6.2644783,"name":"Central Reservations","category_code":"web","founded_year":2008,"number_of_employees":510,"coordenadas":[-6.2644783,53.342689],"cercanas":[{"city":"Dun Laoghaire","latitude":53.342689,"longitude":-6.2644783,"name":"Central Reservations","category_code":"web","number_of_employees":510},{"city":"Dublin","latitude":53.344104,"longitude":-6.267494,"name":"Facebook","category_code":"social","number_of_employees":5299},{"city":"Dublin","latitude":53.339914,"longitude":-6.234424,"name":"Google","category_code":"search","number_of_employees":28000}],"num_offices":3,"ratio":100.0}
{"index":249,"city":"#132 Woodland Hills","country_code":"USA","latitude":34.1580778,"longitude":-118.6356318,"name":"2AdPro","category_code":"web","founded_year":2006,"number_of_employees":350,"coordenadas":[-118.6356318,34.1580778],"cercanas":[{"city":"#132 Woodland Hills","latitude":34.1580778,"longitude":-118.6356318,"name":"2AdPro","category_code":"web","number_of_employees":350}],"num_offices":1,"ratio":100.0}
{"index":268,"city":"San Carlos","country_code":"USA","latitude":37.498842,"longitude":-122.239815,"name":"DemandTec","category_code":"software","founded_year":1999,"number_of_employees":350,"coordenadas":[-122.239815,37.498842],"cercanas":[{"city":"San Carlos","latitude":37.498842,"longitude":-122.239815,"name":"DemandTec","category_code":"software","number_of_employees":350}],"num_offices":1,"ratio":100.0}
{"index":269,"city":"London","country_code":"GBR","latitude":51.5069206,"longitude":-0.1249337,"name":"DemandTec","category_code":"software","founded_year":1999,"number_of_employees":350,"coordenadas":[-0.1249337,51.5069206],"cercanas":[{"city":"London","latitude":51.5069206,"longitude":-0.1249337,"name":"DemandTec","category_code":"software","number_of_employees":350},{"city":"London","latitude":51.5205095,"longitude":-0.0952197,"name":"Globant","category_code":"software","number_of_employees":2800},{"city":"London","latitude":51.5154835,"longitude":-0.0881016,"name":"EPAM Systems","category_code":"software","number_of_employees":8100}],"num_offices":3,"ratio":100.0}
{"index":270,"city":"Irving","country_code":"USA","latitude":32.8170928,"longitude":-96.9621649,"name":"CAP Digisoft Solutions","category_code":"software","founded_year":1998,"number_of_employees":500,"coordenadas":[-96.9621649,32.8170928],"cercanas":[{"city":"Irving","latitude":32.8170928,"longitude":-96.9621649,"name":"CAP Digisoft Solutions","category_code":"software","number_of_employees":500}],"num_offices":1,"ratio":100.0}
{"index":273,"city":"San Francisco","country_code":"USA","latitude":37.7892685,"longitude":-122.3951844,"name":"Riverbed Technology","category_code":"software","founded_year":2002,"number_of_employees":1000,"coordenadas":[-122.3951844,37.7892685],"cercanas":[{"city":"San Francisco","latitude":37.7892685,"longitude":-122.3951844,"name":"Riverbed Technology","category_code":"software","number_of_employees":1000},{"city":"San Francisco","latitude":37.791575,"longitude":-122.39339,"name":"Kaseya","category_code":"software","number_of_employees":400},{"city":"San Francisco","latitude":37.789803,"longitude":-122.389757,"name":"Google","category_code":"search","number_of_employees":28000},{"city":"San Francisco","latitude":37.789318,"longitude":-122.400655,"name":"Calypso Technology","category_code":"software","number_of_employees":386},{"city":"San Francisco","latitude":37.793819,"longitude":-122.395089,"name":"ThoughtWorks Studios","category_code":"software","number_of_employees":1100},{"city":"San Francisco","latitude":37.793949,"longitude":-122.398062,"name":"Embarcadero Technologies","category_code":"software","number_of_employees":450},{"city":"San Francisco","latitude":37.786183,"longitude":-122.402195,"name":"Yelp","category_code":"search","number_of_employees":800},{"city":"San Francisco","latitude":37.78274,"longitude":-122.390945,"name":"Splunk","category_code":"software","number_of_employees":500},{"city":"San Francisco","latitude":37.785647,"longitude":-122.405265,"name":"OpenTable","category_code":"web","number_of_employees":550},{"city":"San Francisco","latitude":37.7814765,"longitude":-122.4013217,"name":"UCWeb","category_code":"software","number_of_employees":1700},{"city":"San Francisco","latitude":37.7819286,"longitude":-122.4041764,"name":"Globant","category_code":"software","number_of_employees":2800},{"city":"San Francisco","latitude":37.7909427,"longitude":-122.4084994,"name":"Dropbox","category_code":"software","number_of_employees":350},{"city":"San Francisco","latitude":37.8053241,"longitude":-122.4052761,"name":"Indee","category_code":"games_video","number_of_employees":3},{"city":"San Francisco","latitude":37.7768052,"longitude":-122.4169244,"name":"Twitter","category_code":"social","number_of_employees":1300},{"city":"San Francisco","latitude":37.766909,"longitude":-122.406676,"name":"Trulia","category_code":"search","number_of_employees":500}],"num_offices":15,"ratio":14.0}
{"index":281,"city":"London","country_code":"GBR","latitude":51.4647321,"longitude":-0.1614896,"name":"Icreon Communications","category_code":"software","founded_year":2000,"number_of_employees":300,"coordenadas":[-0.1614896,51.4647321],"cercanas":[{"city":"London","latitude":51.4647321,"longitude":-0.1614896,"name":"Icreon Communications","category_code":"software","number_of_employees":300}],"num_offices":1,"ratio":100.0}
{"index":282,"city":"Bradford","country_code":"GBR","latitude":53.7906412,"longitude":-1.7167505,"name":"Icreon Communications","category_code":"software","founded_year":2000,"number_of_employees":300,"coordenadas":[-1.7167505,53.7906412],"cercanas":[{"city":"Bradford","latitude":53.7906412,"longitude":-1.7167505,"name":"Icreon Communications","category_code":"software","number_of_employees":300}],"num_offices":1,"ratio":100.0}
{"index":285,"city":"Chennai","country_code":"IND","latitude":41.4586444,"longitude":-81.5121475,"name":"Dot Com Infoway Australia","category_code":"software","founded_year":2000,"number_of_employees":350,"coordenadas":[-81.5121475,41.4586444],"cercanas":[{"city":"Chennai","latitude":41.4586444,"longitude":-81.5121475,"name":"Dot Com Infoway Australia","category_code":"software","number_of_employees":350}],"num_offices":1,"ratio":100.0}
{"index":288,"city":"Redmond","country_code":"USA","latitude":51.5200277,"longitude":-0.651155,"name":"Concur Technologies","category_code":"software","founded_year":1993,"number_of_employees":1200,"coordenadas":[-0.651155,51.5200277],"cercanas":[{"city":"Redmond","latitude":51.5200277,"longitude":-0.651155,"name":"Concur Technologies","category_code":"software","number_of_employees":1200}],"num_offices":1,"ratio":100.0}
{"index":289,"city":"Midvale","country_code":"USA","latitude":40.6110797,"longitude":-111.853717,"name":"inContact","category_code":"software","founded_year":1997,"number_of_employees":300,"coordenadas":[-111.853717,40.6110797],"cercanas":[{"city":"Midvale","latitude":40.6110797,"longitude":-111.853717,"name":"inContact","category_code":"software","number_of_employees":300}],"num_offices":1,"ratio":100.0}
{"index":293,"city":"Fort Myers","country_code":"USA","latitude":26.5569317,"longitude":-81.8835178,"name":"SoftServe","category_code":"software","founded_year":1993,"number_of_employees":1200,"coordenadas":[-81.8835178,26.5569317],"cercanas":[{"city":"Fort Myers","latitude":26.5569317,"longitude":-81.8835178,"name":"SoftServe","category_code":"software","number_of_employees":1200}],"num_offices":1,"ratio":100.0}
{"index":295,"city":"Santa Monica","country_code":"USA","latitude":34.028182,"longitude":-118.472577,"name":"Cornerstone OnDemand","category_code":"software","founded_year":1999,"number_of_employees":881,"coordenadas":[-118.472577,34.028182],"cercanas":[{"city":"Santa Monica","latitude":34.028182,"longitude":-118.472577,"name":"Cornerstone OnDemand","category_code":"software","number_of_employees":881},{"city":"Santa Monica","latitude":34.019282,"longitude":-118.494288,"name":"Google","category_code":"search","number_of_employees":28000}],"num_offices":2,"ratio":100.0}
{"index":296,"city":"Bozeman","country_code":"USA","latitude":45.679294,"longitude":-111.046231,"name":"RightNow Technologies","category_code":"software","founded_year":1997,"number_of_employees":800,"coordenadas":[-111.046231,45.679294],"cercanas":[{"city":"Bozeman","latitude":45.679294,"longitude":-111.046231,"name":"RightNow Technologies","category_code":"software","number_of_employees":800}],"num_offices":1,"ratio":100.0}
{"index":297,"city":"Bangalore","country_code":"IND","latitude":13.0369829,"longitude":77.5659764,"name":"SLK Software Services Pvt Ltd","category_code":"software","founded_year":2000,"number_of_employees":2100,"coordenadas":[77.5659764,13.0369829],"cercanas":[{"city":"Bangalore","latitude":13.0369829,"longitude":77.5659764,"name":"SLK Software Services Pvt Ltd","category_code":"software","number_of_employees":2100}],"num_offices":1,"ratio":100.0}
{"index":298,"city":"Palo Alto","country_code":"USA","latitude":37.446535,"longitude":-122.118794,"name":"MetricStream","category_code":"software","founded_year":1999,"number_of_employees":1000,"coordenadas":[-122.118794,37.446535],"cercanas":[{"city":"Palo Alto","latitude":37.446535,"longitude":-122.118794,"name":"MetricStream","category_code":"software","number_of_employees":1000}],"num_offices":1,"ratio":100.0}
{"index":299,"city":"Vancouver","country_code":"CAN","latitude":49.2851733,"longitude":-123.0952381,"name":"HootSuite","category_code":"social","founded_year":2008,"number_of_employees":370,"coordenadas":[-123.0952381,49.2851733],"cercanas":[{"city":"Vancouver","latitude":49.2851733,"longitude":-123.0952381,"name":"HootSuite","category_code":"social","number_of_employees":370},{"city":"Vancouver","latitude":49.285941,"longitude":-123.120292,"name":"Absolute Software","category_code":"software","number_of_employees":300}],"num_offices":2,"ratio":100.0}
{"index":300,"city":"San Jose","country_code":"USA","latitude":37.3721771,"longitude":-121.9250398,"name":"Kaseya","category_code":"software","founded_year":2000,"number_of_employees":400,"coordenadas":[-121.9250398,37.3721771],"cercanas":[{"city":"San Jose","latitude":37.3721771,"longitude":-121.9250398,"name":"Kaseya","category_code":"software","number_of_employees":400},{"city":"San Jose","latitude":37.37027,"longitude":-121.924053,"name":"SpringSoft","category_code":"software","number_of_employees":400}],"num_offices":2,"ratio":100.0}
{"index":301,"city":"San Francisco","country_code":"USA","latitude":37.791575,"longitude":-122.39339,"name":"Kaseya","category_code":"software","founded_year":2000,"number_of_employees":400,"coordenadas":[-122.39339,37.791575],"cercanas":[{"city":"San Francisco","latitude":37.791575,"longitude":-122.39339,"name":"Kaseya","category_code":"software","number_of_employees":400},{"city":"San Francisco","latitude":37.793819,"longitude":-122.395089,"name":"ThoughtWorks Studios","category_code":"software","number_of_employees":1100},{"city":"San Francisco","latitude":37.7892685,"longitude":-122.3951844,"name":"Riverbed Technology","category_code":"software","number_of_employees":1000},{"city":"San Francisco","latitude":37.789803,"longitude":-122.389757,"name":"Google","category_code":"search","number_of_employees":28000},{"city":"San Francisco","latitude":37.793949,"longitude":-122.398062,"name":"Embarcadero Technologies","category_code":"software","number_of_employees":450},{"city":"San Francisco","latitude":37.789318,"longitude":-122.400655,"name":"Calypso Technology","category_code":"software","number_of_employees":386},{"city":"San Francisco","latitude":37.786183,"longitude":-122.402195,"name":"Yelp","category_code":"search","number_of_employees":800},{"city":"San Francisco","latitude":37.78274,"longitude":-122.390945,"name":"Splunk","category_code":"software","number_of_employees":500},{"city":"San Francisco","latitude":37.785647,"longitude":-122.405265,"name":"OpenTable","category_code":"web","number_of_employees":550},{"city":"San Francisco","latitude":37.7814765,"longitude":-122.4013217,"name":"UCWeb","category_code":"software","number_of_employees":1700},{"city":"San Francisco","latitude":37.7909427,"longitude":-122.4084994,"name":"Dropbox","category_code":"software","number_of_employees":350},{"city":"San Francisco","latitude":37.7819286,"longitude":-122.4041764,"name":"Globant","category_code":"software","number_of_employees":2800},{"city":"San Francisco","latitude":37.8053241,"longitude":-122.4052761,"name":"Indee","category_code":"games_video","number_of_employees":3},{"city":"San Francisco","latitude":37.7768052,"longitude":-122.4169244,"name":"Twitter","category_code":"social","number_of_employees":1300},{"city":"San Francisco","latitude":37.766909,"longitude":-122.406676,"name":"Trulia","category_code":"search","number_of_employees":500}],"num_offices":15,"ratio":14.0}
{"index":307,"city":"Newtown","country_code":"USA","latitude":40.2252558,"longitude":-74.9035582,"name":"EPAM Systems","category_code":"software","founded_year":1993,"number_of_employees":8100,"coordenadas":[-74.9035582,40.2252558],"cercanas":[{"city":"Newtown","latitude":40.2252558,"longitude":-74.9035582,"name":"EPAM Systems","category_code":"software","number_of_employees":8100}],"num_offices":1,"ratio":100.0}
{"index":308,"city":"London","country_code":"GBR","latitude":51.5154835,"longitude":-0.0881016,"name":"EPAM Systems","category_code":"software","founded_year":1993,"number_of_employees":8100,"coordenadas":[-0.0881016,51.5154835],"cercanas":[{"city":"London","latitude":51.5154835,"longitude":-0.0881016,"name":"EPAM Systems","category_code":"software","number_of_employees":8100},{"city":"London","latitude":51.5205095,"longitude":-0.0952197,"name":"Globant","category_code":"software","number_of_employees":2800},{"city":"London","latitude":51.5069206,"longitude":-0.1249337,"name":"DemandTec","category_code":"software","number_of_employees":350}],"num_offices":3,"ratio":100.0}
{"index":311,"city":"Norcross","country_code":"USA","latitude":33.939181,"longitude":-84.134047,"name":"BetterTrades","category_code":"web","founded_year":2001,"number_of_employees":300,"coordenadas":[-84.134047,33.939181],"cercanas":[{"city":"Norcross","latitude":33.939181,"longitude":-84.134047,"name":"BetterTrades","category_code":"web","number_of_employees":300}],"num_offices":1,"ratio":100.0}
{"index":312,"city":"Pleasanton","country_code":"USA","latitude":37.69249,"longitude":-121.900722,"name":"Veeva","category_code":"software","founded_year":2007,"number_of_employees":510,"coordenadas":[-121.900722,37.69249],"cercanas":[{"city":"Pleasanton","latitude":37.69249,"longitude":-121.900722,"name":"Veeva","category_code":"software","number_of_employees":510}],"num_offices":1,"ratio":100.0}
{"index":317,"city":"Chennai","country_code":"IND","latitude":13.080128,"longitude":80.2519224,"name":"White House Business Solutions","category_code":"software","founded_year":1999,"number_of_employees":300,"coordenadas":[80.2519224,13.080128],"cercanas":[{"city":"Chennai","latitude":13.080128,"longitude":80.2519224,"name":"White House Business Solutions","category_code":"software","number_of_employees":300}],"num_offices":1,"ratio":100.0}
{"index":319,"city":"Copenhagen","country_code":"DNK","latitude":56.0921712,"longitude":8.9105435,"name":"Ciklum","category_code":"software","founded_year":2002,"number_of_employees":1700,"coordenadas":[8.9105435,56.0921712],"cercanas":[{"city":"Copenhagen","latitude":56.0921712,"longitude":8.9105435,"name":"Ciklum","category_code":"software","number_of_employees":1700}],"num_offices":1,"ratio":100.0}
{"index":320,"city":"Boulder","country_code":"USA","latitude":40.020421,"longitude":-105.236011,"name":"MD-IT","category_code":"software","founded_year":2000,"number_of_employees":1000,"coordenadas":[-105.236011,40.020421],"cercanas":[{"city":"Boulder","latitude":40.020421,"longitude":-105.236011,"name":"MD-IT","category_code":"software","number_of_employees":1000},{"city":"Boulder","latitude":40.021416,"longitude":-105.260931,"name":"Google","category_code":"search","number_of_employees":28000}],"num_offices":2,"ratio":100.0}
{"index":321,"city":"Hamburg","country_code":"DEU","latitude":53.5973055,"longitude":9.9762519,"name":"Bigpoint","category_code":"games_video","founded_year":2002,"number_of_employees":500,"coordenadas":[9.9762519,53.5973055],"cercanas":[{"city":"Hamburg","latitude":53.5973055,"longitude":9.9762519,"name":"Bigpoint","category_code":"games_video","number_of_employees":500}],"num_offices":1,"ratio":100.0}
{"index":325,"city":"San Jose","country_code":"USA","latitude":37.37027,"longitude":-121.924053,"name":"SpringSoft","category_code":"software","founded_year":1996,"number_of_employees":400,"coordenadas":[-121.924053,37.37027],"cercanas":[{"city":"San Jose","latitude":37.37027,"longitude":-121.924053,"name":"SpringSoft","category_code":"software","number_of_employees":400},{"city":"San Jose","latitude":37.3721771,"longitude":-121.9250398,"name":"Kaseya","category_code":"software","number_of_employees":400}],"num_offices":2,"ratio":100.0}
{"index":334,"city":"San Francisco","country_code":"USA","latitude":37.789318,"longitude":-122.400655,"name":"Calypso Technology","category_code":"software","founded_year":1997,"number_of_employees":386,"coordenadas":[-122.400655,37.789318],"cercanas":[{"city":"San Francisco","latitude":37.789318,"longitude":-122.400655,"name":"Calypso Technology","category_code":"software","number_of_employees":386},{"city":"San Francisco","latitude":37.786183,"longitude":-122.402195,"name":"Yelp","category_code":"search","number_of_employees":800},{"city":"San Francisco","latitude":37.7892685,"longitude":-122.3951844,"name":"Riverbed Technology","category_code":"software","number_of_employees":1000},{"city":"San Francisco","latitude":37.793949,"longitude":-122.398062,"name":"Embarcadero Technologies","category_code":"software","number_of_employees":450},{"city":"San Francisco","latitude":37.785647,"longitude":-122.405265,"name":"OpenTable","category_code":"web","number_of_employees":550},{"city":"San Francisco","latitude":37.791575,"longitude":-122.39339,"name":"Kaseya","category_code":"software","number_of_employees":400},{"city":"San Francisco","latitude":37.793819,"longitude":-122.395089,"name":"ThoughtWorks Studios","category_code":"software","number_of_employees":1100},{"city":"San Francisco","latitude":37.7909427,"longitude":-122.4084994,"name":"Dropbox","category_code":"software","number_of_employees":350},{"city":"San Francisco","latitude":37.7814765,"longitude":-122.4013217,"name":"UCWeb","category_code":"software","number_of_employees":1700},{"city":"San Francisco","latitude":37.7819286,"longitude":-122.4041764,"name":"Globant","category_code":"software","number_of_employees":2800},{"city":"San Francisco","latitude":37.789803,"longitude":-122.389757,"name":"Google","category_code":"search","number_of_employees":28000},{"city":"San Francisco","latitude":37.78274,"longitude":-122.390945,"name":"Splunk","category_code":"software","number_of_employees":500},{"city":"San Francisco","latitude":37.8053241,"longitude":-122.4052761,"name":"Indee","category_code":"games_video","number_of_employees":3},{"city":"San Francisco","latitude":37.7768052,"longitude":-122.4169244,"name":"Twitter","category_code":"social","number_of_employees":1300},{"city":"San Francisco","latitude":37.766909,"longitude":-122.406676,"name":"Trulia","category_code":"search","number_of_employees":500}],"num_offices":15,"ratio":14.0}
{"index":340,"city":"Guangzhou","country_code":"CHN","latitude":23.1337544,"longitude":113.3853308,"name":"UCWeb","category_code":"software","founded_year":2004,"number_of_employees":1700,"coordenadas":[113.3853308,23.1337544],"cercanas":[{"city":"Guangzhou","latitude":23.1337544,"longitude":113.3853308,"name":"UCWeb","category_code":"software","number_of_employees":1700}],"num_offices":1,"ratio":100.0}
{"index":343,"city":"San Francisco","country_code":"USA","latitude":37.7814765,"longitude":-122.4013217,"name":"UCWeb","category_code":"software","founded_year":2004,"number_of_employees":1700,"coordenadas":[-122.4013217,37.7814765],"cercanas":[{"city":"San Francisco","latitude":37.7814765,"longitude":-122.4013217,"name":"UCWeb","category_code":"software","number_of_employees":1700},{"city":"San Francisco","latitude":37.7819286,"longitude":-122.4041764,"name":"Globant","category_code":"software","number_of_employees":2800},{"city":"San Francisco","latitude":37.786183,"longitude":-122.402195,"name":"Yelp","category_code":"search","number_of_employees":800},{"city":"San Francisco","latitude":37.785647,"longitude":-122.405265,"name":"OpenTable","category_code":"web","number_of_employees":550},{"city":"San Francisco","latitude":37.789318,"longitude":-122.400655,"name":"Calypso Technology","category_code":"software","number_of_employees":386},{"city":"San Francisco","latitude":37.78274,"longitude":-122.390945,"name":"Splunk","category_code":"software","number_of_employees":500},{"city":"San Francisco","latitude":37.7892685,"longitude":-122.3951844,"name":"Riverbed Technology","category_code":"software","number_of_employees":1000},{"city":"San Francisco","latitude":37.7909427,"longitude":-122.4084994,"name":"Dropbox","category_code":"software","number_of_employees":350},{"city":"San Francisco","latitude":37.791575,"longitude":-122.39339,"name":"Kaseya","category_code":"software","number_of_employees":400},{"city":"San Francisco","latitude":37.789803,"longitude":-122.389757,"name":"Google","category_code":"search","number_of_employees":28000},{"city":"San Francisco","latitude":37.793949,"longitude":-122.398062,"name":"Embarcadero Technologies","category_code":"software","number_of_employees":450},{"city":"San Francisco","latitude":37.7768052,"longitude":-122.4169244,"name":"Twitter","category_code":"social","number_of_employees":1300},{"city":"San Francisco","latitude":37.793819,"longitude":-122.395089,"name":"ThoughtWorks Studios","category_code":"software","number_of_employees":1100},{"city":"San Francisco","latitude":37.766909,"longitude":-122.406676,"name":"Trulia","category_code":"search","number_of_employees":500},{"city":"Santa Clara","latitude":37.760524,"longitude":-122.387799,"name":"Fuzz","category_code":"games_video","number_of_employees":6},{"city":"San Francisco","latitude":37.8053241,"longitude":-122.4052761,"name":"Indee","category_code":"games_video","number_of_employees":3}],"num_offices":16,"ratio":7.0}
{"index":346,"city":"Bristol","country_code":"GBR","latitude":51.4525116,"longitude":-2.5909744,"name":"smartFOCUS","category_code":"software","founded_year":1999,"number_of_employees":550,"coordenadas":[-2.5909744,51.4525116],"cercanas":[{"city":"Bristol","latitude":51.4525116,"longitude":-2.5909744,"name":"smartFOCUS","category_code":"software","number_of_employees":550}],"num_offices":1,"ratio":100.0}
{"index":352,"city":"Chicago","country_code":"USA","latitude":41.8806258,"longitude":-87.6356066,"name":"optionsXpress","category_code":"software","founded_year":2000,"number_of_employees":305,"coordenadas":[-87.6356066,41.8806258],"cercanas":[{"city":"Chicago","latitude":41.8806258,"longitude":-87.6356066,"name":"optionsXpress","category_code":"software","number_of_employees":305},{"city":"Chicago","latitude":41.889474,"longitude":-87.628912,"name":"Google","category_code":"search","number_of_employees":28000},{"city":"Chicago","latitude":41.8965162,"longitude":-87.643622,"name":"Groupon","category_code":"web","number_of_employees":10000},{"city":"Chicago","latitude":41.857204,"longitude":-87.623923,"name":"JumpForward","category_code":"software","number_of_employees":30}],"num_offices":4,"ratio":3.0}
{"index":353,"city":"San Francisco","country_code":"USA","latitude":37.793949,"longitude":-122.398062,"name":"Embarcadero Technologies","category_code":"software","founded_year":1993,"number_of_employees":450,"coordenadas":[-122.398062,37.793949],"cercanas":[{"city":"San Francisco","latitude":37.793949,"longitude":-122.398062,"name":"Embarcadero Technologies","category_code":"software","number_of_employees":450},{"city":"San Francisco","latitude":37.793819,"longitude":-122.395089,"name":"ThoughtWorks Studios","category_code":"software","number_of_employees":1100},{"city":"San Francisco","latitude":37.791575,"longitude":-122.39339,"name":"Kaseya","category_code":"software","number_of_employees":400},{"city":"San Francisco","latitude":37.789318,"longitude":-122.400655,"name":"Calypso Technology","category_code":"software","number_of_employees":386},{"city":"San Francisco","latitude":37.7892685,"longitude":-122.3951844,"name":"Riverbed Technology","category_code":"software","number_of_employees":1000},{"city":"San Francisco","latitude":37.789803,"longitude":-122.389757,"name":"Google","category_code":"search","number_of_employees":28000},{"city":"San Francisco","latitude":37.786183,"longitude":-122.402195,"name":"Yelp","category_code":"search","number_of_employees":800},{"city":"San Francisco","latitude":37.7909427,"longitude":-122.4084994,"name":"Dropbox","category_code":"software","number_of_employees":350},{"city":"San Francisco","latitude":37.785647,"longitude":-122.405265,"name":"OpenTable","category_code":"web","number_of_employees":550},{"city":"San Francisco","latitude":37.78274,"longitude":-122.390945,"name":"Splunk","category_code":"software","number_of_employees":500},{"city":"San Francisco","latitude":37.8053241,"longitude":-122.4052761,"name":"Indee","category_code":"games_video","number_of_employees":3},{"city":"San Francisco","latitude":37.7814765,"longitude":-122.4013217,"name":"UCWeb","category_code":"software","number_of_employees":1700},{"city":"San Francisco","latitude":37.7819286,"longitude":-122.4041764,"name":"Globant","category_code":"software","number_of_employees":2800},{"city":"San Francisco","latitude":37.7768052,"longitude":-122.4169244,"name":"Twitter","category_code":"social","number_of_employees":1300}],"num_offices":14,"ratio":13.0}